id,name,latitude,longitude,elev,2005,2006,2007,2008,2009,2010,2011,2012,2013,2014,2015,2016,2017,2018,2019
01001099999,JAN MAYEN NOR NAVY NO,70.93333,-8.66667,9.0,nan,6.2,7.6,7.1,8.5,6.9,6.2,5.1,6.8,9.1,9.5,7.5,6.8,7.4,5.5
01015099999,HEKKINGEN FYR NO,69.60000,17.83333,14.0,nan,15.1,18.0,11.0,9.6,12.9,10.7,13.2,16.0,16.7,10.8,15.6,13.7,nan,11.3
01030099999,KISTEFJELL NO,69.28333,18.13333,982.0,nan,nan,nan,nan,nan,nan,nan,nan,nan,nan,4.3,8.7,5.5,11.6,5.9
01047099999,KAUTOKEINO II NO,69.01667,23.06667,307.0,nan,19.7,19.3,15.8,10.2,17.6,17.1,16.5,19.7,18.7,12.7,15.5,15.4,18.6,11.2
01076099999,TANABRU NO,70.21667,28.16667,32.0,nan,nan,nan,nan,nan,nan,nan,nan,nan,17.8,12.3,22.8,17.2,17.1,12.8
01087999999,SNORRE B OIL PLATFORM NO,61.53333,2.20000,90.0,nan,nan,nan,nan,nan,nan,13.4,13.1,13.0,14.0,13.9,13.3,12.9,13.3,11.3
01102599999,HEIDRUN NO,65.33333,7.31667,80.0,nan,14.4,18.9,14.1,12.0,14.4,11.9,11.3,14.4,15.7,12.4,12.9,13.0,12.9,9.4
01122099999,KJAERSTAD NO,65.78400,13.21491,72.2,nan,22.1,24.7,21.3,20.0,19.4,20.3,19.0,18.4,23.1,17.4,16.8,15.7,19.3,13.1
01148099999,STORFORSHEI NO,66.38333,14.51667,110.0,nan,nan,nan,nan,nan,nan,21.2,18.9,18.8,22.3,16.6,16.3,15.2,19.1,13.8
01169099999,SALTDAL NORDNES NO,66.93333,15.31667,37.0,nan,nan,nan,nan,nan,nan,nan,nan,19.8,23.2,17.2,17.7,14.7,19.1,15.4
01212099999,ONA II NO,62.86667,6.53333,15.0,nan,17.8,19.7,18.1,15.4,16.5,13.1,15.4,15.4,16.9,15.4,14.0,13.6,15.2,11.6
01228099999,SULA NO,63.85000,8.46667,6.0,nan,19.2,21.4,17.9,16.0,15.7,13.9,15.0,16.5,17.9,14.8,14.3,13.9,14.9,11.0
01242099999,AFJORD II NO,63.96667,10.21667,30.0,nan,nan,nan,22.8,21.4,19.4,22.4,20.9,20.9,24.5,20.6,17.3,16.6,18.8,11.6
01271099999,VAERNES NO,63.45756,10.93987,17.1,nan,23.1,25.3,22.3,22.5,21.0,18.7,20.4,20.3,23.6,19.2,17.7,16.7,20.1,12.4
01293099999,MERAKER EGGE NO,63.41667,11.73333,171.0,nan,25.6,24.4,21.9,23.9,22.1,21.2,21.7,20.0,23.3,21.6,18.3,17.2,21.3,12.2
01317099999,BERGEN FLORIDA NO,60.38333,5.33333,36.0,nan,23.8,22.7,24.5,24.6,19.7,20.3,21.3,16.8,19.2,22.0,16.3,17.0,20.6,15.5
01337099999,VOSSEVANGEN NO,60.63333,6.43333,55.0,nan,26.4,22.2,24.6,27.1,21.2,23.4,21.3,18.0,21.1,23.9,16.7,18.8,25.4,16.9
01355099999,LAERDAL IV NO,61.10000,7.50000,5.0,nan,nan,nan,nan,27.5,20.6,21.0,21.8,18.1,23.5,20.8,17.9,19.0,24.9,17.0
01367099999,FAGERNES NO,60.98333,9.21667,365.4,nan,27.1,18.7,22.1,25.6,22.3,18.8,18.9,19.0,19.8,24.4,17.1,19.8,27.2,16.3
01380099999,VENABU NO,61.65000,10.11667,930.0,nan,22.4,nan,18.4,20.6,18.2,15.5,16.0,15.6,16.4,20.3,13.6,15.3,21.8,11.3
01393099999,DREVSJO NO,61.88333,12.03333,673.5,nan,24.2,17.8,18.6,21.1,19.9,16.8,17.8,18.1,20.0,21.1,13.7,16.1,20.8,13.1
01414099999,ROVER NO,59.43333,5.06667,25.0,nan,nan,nan,nan,nan,nan,15.2,17.4,14.4,15.4,16.6,14.0,13.5,15.0,12.6
01427099999,LISTA FYR NO,58.11667,6.56667,14.0,nan,23.5,16.4,21.5,20.9,18.4,16.6,18.6,16.8,17.9,18.8,15.6,14.9,18.2,nan
01444099999,VALLE NO,59.20000,7.51667,302.0,nan,nan,nan,nan,nan,nan,nan,17.7,18.0,19.0,24.5,16.3,19.4,28.0,15.6
01463099999,AS NO,59.65000,10.76667,89.0,nan,nan,nan,nan,nan,nan,nan,19.9,19.6,22.3,22.9,18.4,21.9,26.4,18.3
01473099999,KONGSBERG BRANNSTASJON NO,59.61667,9.63333,173.0,nan,27.7,19.0,22.5,25.0,24.2,19.8,20.6,21.0,21.7,26.3,19.2,22.2,28.5,19.1
01484399999,OSEBERG NO,59.31667,10.45000,15.0,nan,16.1,16.4,17.7,19.0,14.1,14.3,14.3,13.6,13.7,13.7,13.0,13.3,13.3,11.9
01495099999,STROMTANGEN FYR NO,59.15000,10.83333,10.0,nan,22.3,19.7,20.7,21.5,19.2,21.7,19.6,17.5,20.1,19.5,17.1,18.6,20.9,17.8
02038099999,LATNIVAARA SW,67.25000,20.26667,453.0,nan,22.0,20.8,18.0,14.7,19.1,17.8,16.6,18.1,18.9,15.2,16.7,15.3,17.8,12.8
02103099999,HEMAVAN GIEREVARTO SW,65.78333,15.06667,793.0,nan,18.8,18.9,18.9,15.6,16.0,16.1,14.7,15.0,17.8,13.5,11.3,11.6,15.4,9.2
02151099999,JOKKMOKK FPL SW,66.48333,20.16667,275.0,nan,23.7,22.0,20.3,17.1,21.5,20.1,18.7,19.3,20.6,17.0,17.8,17.1,19.4,14.9
02188099999,RODKALLEN SW,65.31667,22.38333,2.0,nan,17.6,19.1,17.5,15.8,16.6,18.0,16.1,17.0,16.6,16.1,14.8,14.3,18.8,16.1
02230099999,GUBBHOGEN SW,64.21667,15.55000,310.0,nan,24.7,21.4,20.0,19.8,22.0,20.8,19.8,19.5,21.9,20.3,17.6,17.1,20.8,14.7
02260099999,VASTMARKUM SW,63.13333,18.25000,143.0,nan,25.0,21.6,19.9,19.6,23.0,20.7,21.1,20.8,21.2,21.9,19.6,18.2,22.6,17.3
02287099999,HOLMON SW,63.80000,20.86667,8.0,nan,22.6,19.5,16.9,16.5,19.6,19.0,19.1,nan,19.8,20.0,19.3,17.7,20.0,17.7
02329099999,HAMRA SW,61.66667,15.00000,455.0,nan,25.1,19.2,19.6,21.5,22.7,20.1,20.2,20.2,21.0,22.1,17.4,17.9,21.8,14.8
02407099999,MALUNG A SW,60.68333,13.70000,306.0,nan,nan,nan,nan,nan,23.2,21.8,20.8,20.2,22.2,25.2,17.7,19.8,24.6,16.9
02431099999,KLOTEN SW,59.86667,15.25000,289.0,nan,nan,nan,nan,nan,24.2,21.5,20.1,19.8,21.2,24.7,18.5,19.9,24.2,16.6
02453099999,GAVLE SANDVIKEN AIR FORCE BASE SW,60.71667,17.16667,16.0,nan,28.2,19.4,19.6,21.5,24.9,20.0,21.1,22.0,20.8,24.1,20.8,18.9,20.7,18.0
02482099999,KERSTINBO SW,60.26667,16.98333,57.0,nan,28.3,21.1,19.3,21.6,25.9,21.5,22.6,22.0,22.5,25.1,20.7,20.8,21.7,18.5
02498099999,SVENSKA HOGARNA A SW,59.45000,19.50000,12.0,nan,nan,nan,nan,nan,20.1,19.2,17.6,18.2,15.6,19.5,18.5,15.1,15.1,15.8
02526099999,LANDVETTER SW,57.66284,12.27982,154.2,nan,26.3,18.7,23.5,24.7,23.1,22.7,20.5,18.2,21.3,24.5,17.0,19.1,23.6,15.5
02549099999,TOMTABACKEN SW,57.50000,14.46667,356.0,nan,27.0,18.5,22.3,24.4,23.5,20.7,20.0,20.0,21.3,25.7,17.0,18.5,24.7,15.5
02562599999,SAAB SW,58.40615,15.68051,52.4,nan,28.6,21.3,22.0,23.4,25.9,22.9,22.0,21.7,22.9,26.1,20.9,20.3,24.6,18.4
02590099999,VISBY SW,57.66280,18.34621,50.0,nan,26.3,20.2,20.1,21.1,22.9,23.1,21.6,20.0,22.0,24.1,20.7,18.0,20.5,18.8
02625099999,SKILLINGE SW,55.48333,14.31667,5.0,nan,23.0,17.8,22.1,24.7,22.9,20.2,19.0,20.8,21.0,21.7,20.1,18.6,24.4,20.4
02661099999,KOSTA ORREFORS SW,56.83333,15.46667,232.0,nan,29.0,18.7,23.8,25.3,25.3,22.4,22.3,21.6,22.7,26.8,18.6,18.4,26.2,17.5
02706099999,LOHJA PORLA FI,60.25000,24.05000,37.0,nan,nan,nan,20.3,20.4,25.4,25.4,22.5,22.2,20.2,22.2,20.4,18.4,19.6,19.1
02722099999,INARI SAARISELKA FI,68.41667,27.41667,302.0,nan,nan,nan,nan,10.0,18.5,17.1,16.0,20.3,17.7,11.7,19.6,17.3,21.1,12.3
02737099999,TOHOLAMPI LAITALA FI,63.81667,24.16667,84.5,nan,nan,nan,nan,16.9,24.0,22.5,22.5,20.6,20.8,20.0,17.6,18.2,20.3,17.5
02751099999,PORI TAHKOLUOTO HARBOUR FI,61.63333,21.38333,4.6,nan,nan,nan,18.6,17.0,18.5,20.1,19.7,18.0,17.3,18.4,18.3,17.3,15.9,15.2
02761099999,RAUMA KYLMAPIHLAJA FI,61.15000,21.30000,29.0,nan,nan,nan,17.6,17.7,20.0,20.2,20.0,19.1,18.1,18.8,19.4,17.2,14.5,15.5
02772099999,RANTASALMI RUKKASLUOTO FI,62.06667,28.56667,80.0,nan,nan,nan,19.7,18.3,24.5,23.9,21.8,22.5,19.2,20.0,19.7,18.4,18.1,19.1
02791099999,JUUKA NIEMELA FI,63.23333,29.23333,115.0,nan,nan,nan,19.5,16.7,25.5,24.1,22.1,23.1,19.2,18.9,22.8,19.2,18.9,20.0
02803099999,SIIKAJOKI REVONLAHTI FI,64.68333,25.08333,49.5,nan,nan,nan,18.9,15.9,24.2,22.7,21.8,20.6,20.9,18.8,19.0,18.7,20.5,17.1
02816099999,SODANKYLA VUOTSO FI,68.08333,27.18333,248.8,nan,nan,nan,16.4,11.4,19.0,18.6,17.1,21.0,19.7,13.2,20.9,18.2,22.1,13.2
02828099999,KAARINA YLTOINEN FI,60.38333,22.55000,5.2,nan,nan,nan,21.1,21.4,24.6,25.6,23.3,22.4,21.4,23.9,21.4,18.5,20.5,19.4
02845099999,ROVANIEMI FI,66.56482,25.83041,196.6,nan,24.5,20.9,18.7,14.8,20.9,21.1,18.7,20.7,19.7,17.0,21.1,18.5,21.7,14.2
02863099999,KEMI I LIGHTHOUSE FI,65.38333,24.10000,19.0,nan,16.1,18.9,17.8,14.6,16.0,18.5,16.0,15.8,nan,15.9,16.6,15.9,19.0,14.1
02880099999,TORNIO TORPPI FI,65.85000,24.16667,9.0,nan,nan,nan,nan,nan,nan,nan,nan,nan,20.5,18.7,19.6,19.3,22.3,16.5
02907099999,KALAJOKI ULKOKALLA FI,64.33333,23.45000,5.0,nan,17.0,17.3,15.4,14.1,16.7,17.4,16.1,16.4,15.6,14.8,16.0,15.8,15.9,13.6
02926099999,PORI RAILWAY STATION FI,61.48333,21.78333,10.1,nan,nan,nan,nan,nan,nan,nan,23.5,21.2,21.2,22.6,20.8,18.7,21.0,18.1
02944099999,TAMPERE PIRKKALA FI,61.41415,23.60439,118.9,nan,26.4,23.5,19.4,20.3,25.4,24.0,23.2,21.9,21.1,22.3,19.3,18.1,19.8,18.3
02957099999,VAASA KLEMETTILA FI,63.10000,21.63944,9.0,nan,nan,nan,nan,nan,nan,nan,22.8,20.9,22.0,21.8,19.5,18.2,20.2,17.6
02974099999,HELSINKI VANTAA FI,60.31722,24.96333,54.5,nan,26.5,24.1,21.3,21.4,25.4,26.8,23.8,24.1,21.4,23.9,20.4,18.9,19.8,20.0
02987099999,PORVOO KALLBADAGRUND FI,59.98333,25.60000,23.3,nan,20.3,18.7,18.7,18.8,21.7,21.6,18.5,19.5,16.0,18.9,18.7,14.5,17.3,nan
03008099999,FAIR ISLE UK,59.53333,-1.63333,57.0,nan,14.4,13.5,14.3,17.3,14.4,13.7,13.1,13.4,13.7,12.7,13.1,12.7,14.4,11.4
03041099999,AONACH MOR UK,56.81667,-4.96667,1130.0,nan,12.4,7.9,10.7,11.7,9.2,nan,9.9,9.8,10.8,11.6,5.2,nan,nan,6.9
03075099999,WICK UK,58.45889,-3.09306,38.4,nan,16.5,14.4,14.5,19.1,17.7,15.6,14.6,17.4,16.4,17.2,15.0,15.7,17.1,14.0
03134099999,GLASGOW BISHOPTON UK,55.90000,-4.53333,59.0,nan,21.8,18.4,17.4,22.3,18.7,19.9,19.5,18.1,19.4,21.0,15.7,16.3,23.2,17.5
03140799999,MARNOCK OIL PLATFORM UK,57.28333,1.65000,470.0,nan,nan,nan,nan,nan,nan,nan,16.1,15.9,16.6,16.4,15.3,15.1,15.9,12.9
03160099999,EDINBURGH UK,55.95000,-3.37250,41.1,nan,20.6,18.7,17.4,22.0,19.4,19.6,17.0,19.1,19.4,20.0,16.7,16.7,21.1,17.7
03214599999,WARTON UK,53.74510,-2.88306,16.8,nan,nan,nan,nan,nan,nan,nan,18.8,17.0,19.8,21.8,17.5,19.8,25.2,18.6
03243399999,NEWCASTLE UK,55.03750,-1.69167,81.1,nan,23.6,19.0,18.6,21.9,20.9,19.3,18.9,20.1,19.1,21.9,17.3,17.6,22.1,17.9
03302099999,VALLEY UK,53.24810,-4.53534,11.3,nan,22.0,17.1,17.9,20.5,18.0,18.7,17.3,17.9,18.3,19.3,16.1,17.6,23.0,17.7
03346099999,EMLEY MOOR NUMBER 2 UK,53.60000,-1.66667,267.0,nan,24.0,15.8,nan,20.6,nan,nan,17.4,19.4,18.8,21.7,16.5,18.4,24.2,18.1
03382099999,LECONFIELD UK,53.86667,-0.43333,7.0,nan,24.9,19.2,20.5,23.2,nan,21.5,19.0,22.2,21.2,22.8,18.9,20.3,23.0,19.4
03410099999,LAKE VYRNWY NUMBER 2 UK,52.75000,-3.46667,359.0,nan,23.4,14.7,16.6,19.0,17.0,17.6,15.8,17.6,17.0,17.6,14.4,18.8,24.0,18.1
03503099999,TRAWSGOED UK,52.35000,-3.95000,62.0,nan,24.4,17.0,18.6,21.6,19.7,20.3,17.5,18.6,19.4,20.8,17.0,19.5,25.8,19.0
03566199999,ISLAY UK,55.68194,-6.25667,17.1,nan,nan,15.7,15.9,18.7,16.7,16.9,18.0,15.9,16.7,17.6,14.6,16.0,19.7,15.7
03647099999,LITTLE RISSINGTON UK,51.86667,-1.68333,210.0,nan,25.7,18.6,19.6,22.9,22.6,20.7,17.4,21.0,20.9,23.4,18.4,22.9,26.8,20.4
03693099999,SHOEBURYNESS LANDWICK UK,51.55000,0.83333,3.0,nan,25.0,20.2,21.3,23.3,24.9,20.6,20.4,21.2,23.0,24.2,20.3,23.5,23.4,21.1
03761099999,ODIHAM UK,51.23414,-0.94283,123.4,nan,26.0,18.8,19.8,23.9,22.7,20.9,17.6,22.5,21.6,24.7,19.0,24.7,27.6,22.2
03797035047,MANSTON UK,51.35000,1.33300,50.0,nan,26.2,20.7,21.3,23.6,23.6,21.2,20.9,21.2,21.7,24.8,19.5,23.5,22.0,20.6
03857099999,ISLE OF PORTLAND UK,50.51667,-2.45000,52.0,nan,21.0,16.6,17.2,19.2,18.3,18.0,15.6,17.8,18.7,19.5,16.4,19.1,21.9,19.7
03895099999,JERSEY JE,49.20795,-2.19551,84.4,nan,24.1,17.2,19.9,22.2,21.6,21.5,17.9,18.8,20.8,22.9,17.5,20.6,23.7,21.9
03924099999,CITY UK,54.61806,-5.87250,4.6,nan,20.3,16.4,15.9,18.9,19.9,18.7,17.7,18.7,19.1,19.4,16.4,18.3,22.1,18.0
03967099999,CASEMENT EI,53.30167,-6.45133,97.2,nan,22.2,18.6,17.8,20.1,20.6,19.4,18.6,20.1,19.1,20.7,18.2,19.2,23.4,18.5
04013099999,STYKKISHOLMUR IC,65.08333,-22.73333,8.0,nan,13.3,15.8,14.2,17.1,13.7,15.0,15.1,12.1,11.2,13.6,13.3,13.6,11.5,14.4
04064099999,KIRKJUBAEJARKLAUSTUR IC,63.78333,-18.06667,38.0,nan,15.0,14.3,14.4,14.7,15.7,12.8,16.2,nan,nan,nan,nan,nan,nan,16.2
04097099999,DALATANGI IC,65.26667,-13.58333,11.0,nan,13.1,10.2,10.0,12.5,9.5,8.4,10.0,nan,nan,8.1,nan,nan,nan,nan
04145099999,BLONDUOS IC,65.66667,-20.30000,22.0,nan,nan,nan,15.0,16.8,14.4,12.5,14.8,11.4,11.2,12.6,11.1,13.3,11.1,11.8
04170099999,SKARDSFJORUVITI IC,63.51667,-17.98333,9.0,nan,nan,nan,nan,nan,nan,nan,nan,nan,nan,11.1,nan,nan,nan,14.9
04202299999,JAKOBSHAVN LUFTHAVN GL,69.23300,-51.06700,31.0,nan,9.1,10.3,11.9,8.1,11.3,13.8,11.7,10.5,11.5,15.9,11.2,7.6,7.9,12.9
04231099999,SONDRE STROMFJORD GL,67.01697,-50.68932,50.3,nan,14.8,16.9,18.7,13.9,17.0,19.3,17.3,16.6,17.8,21.9,17.1,12.2,15.9,17.1
04301099999,KAP MORRIS JESUP GL,83.65000,-33.36667,4.0,nan,nan,nan,nan,nan,6.4,1.6,1.6,1.0,0.8,3.9,4.7,2.3,1.7,1.6
04373099999,IKERMIIT GL,64.78333,-40.30000,80.0,nan,9.0,6.7,7.5,5.9,9.0,9.3,7.0,7.5,6.9,nan,9.3,6.0,4.8,9.0
06022099999,TYRA OST DA,55.72000,4.80000,43.0,nan,18.0,15.0,16.4,18.3,16.4,14.2,15.3,17.3,16.0,16.0,14.4,15.0,15.5,13.7
06049099999,HALD V DA,56.56667,10.10000,89.0,nan,26.4,18.0,23.8,25.1,23.2,20.7,19.9,19.2,21.9,24.0,17.4,19.6,23.6,16.5
06073099999,SLETTERHAGE FYR DA,56.10000,10.51667,6.0,nan,nan,nan,nan,nan,nan,nan,18.9,17.7,19.5,21.1,17.1,18.9,22.1,17.4
06108099999,KOLDING VAMDRUP DA,55.43628,9.33093,43.6,nan,26.8,18.8,24.4,25.4,24.7,19.1,20.6,18.9,20.6,25.9,17.6,20.5,21.7,17.4
06136099999,TYSTOFTE DA,55.25000,11.33333,12.0,nan,26.8,18.5,23.6,24.7,23.8,20.8,21.5,20.4,23.3,25.7,18.8,19.0,22.8,18.0
06168099999,NAKKEHOVED DA,56.11667,12.35000,43.0,nan,28.8,19.0,24.2,25.0,23.7,22.4,21.7,21.1,23.3,25.0,18.1,18.2,20.3,17.4
06197099999,NEXOE VEST DA,55.05000,15.10000,25.0,nan,nan,nan,21.7,23.9,22.0,18.7,18.6,20.6,22.2,24.0,20.0,17.3,21.7,18.2
06235099999,DE KOOIJ NL,52.92335,4.78062,0.9,nan,25.8,18.1,22.7,23.5,22.5,18.9,22.2,19.4,21.7,26.2,18.0,21.1,21.3,18.6
06269099999,LELYSTAD NL,52.46028,5.52722,-4.0,nan,28.2,19.4,24.4,25.4,26.6,20.2,23.5,21.5,23.0,28.8,19.7,22.9,23.7,20.9
06286099999,NIEUW BEERTA NL,53.20000,7.15000,0.0,nan,29.1,19.7,24.6,25.8,27.1,18.9,23.8,21.6,24.0,28.3,20.2,21.7,22.0,19.9
06348099999,CABAUW TOWER NL,51.96667,4.93333,2.0,nan,28.3,19.6,22.8,25.6,26.1,20.8,23.6,22.1,24.0,28.5,19.7,22.5,25.4,21.0
06414099999,BEITEM BE,50.90000,3.11667,25.0,nan,nan,nan,22.4,24.7,25.6,22.4,22.7,21.9,23.1,26.7,19.8,24.6,28.4,22.2
06451099999,BRUSSELS NATIONAL BE,50.90139,4.48444,56.1,nan,28.1,20.3,22.5,25.9,26.9,21.3,23.4,21.9,23.2,29.5,20.8,23.9,27.8,22.8
06477099999,DIEPENBEEK BE,50.91667,5.45000,39.0,nan,nan,nan,nan,nan,28.1,21.9,24.5,23.1,24.5,31.5,21.5,24.4,28.2,24.3
06602099999,DELEMONT SZ,47.35000,7.35000,439.4,nan,nan,nan,nan,nan,nan,nan,nan,23.6,23.9,34.9,24.1,25.9,26.2,27.7
06613099999,EMMEN SZ,47.09237,8.30512,426.7,nan,27.0,19.8,nan,nan,28.2,25.3,22.6,23.4,23.6,33.0,24.6,25.9,25.9,28.3
06625099999,FRIBOURG POSIEUX SZ,46.76667,7.11667,633.0,nan,nan,nan,nan,nan,nan,nan,21.8,22.8,22.6,33.5,23.5,24.8,24.7,26.7
06636099999,MUEHLEBERG SZ,46.98333,7.28333,483.0,nan,nan,nan,24.6,25.9,28.4,24.5,22.5,23.4,23.9,33.8,24.6,26.2,26.2,27.9
06647099999,WUERENLINGEN SZ,47.53333,8.23333,337.0,nan,nan,nan,nan,nan,nan,nan,nan,nan,nan,nan,24.5,26.8,26.7,29.1
06662199999,GRENCHEN SZ,47.18163,7.41719,430.1,nan,27.1,20.1,25.4,27.1,29.0,25.0,23.3,23.7,24.9,35.3,25.3,26.4,26.3,28.0
06679099999,AADORF TAENIKON SZ,47.48333,8.90000,539.5,nan,25.9,19.4,24.5,24.9,27.2,23.8,22.2,23.2,23.1,32.5,23.7,25.2,24.0,27.3
06693099999,EBNAT KAPPEL SZ,47.26667,9.10000,623.0,nan,nan,nan,nan,nan,nan,21.9,22.0,22.3,22.4,31.9,22.9,23.6,23.5,25.8
06711099999,PULLY SZ,46.51667,6.66667,462.0,nan,26.7,20.3,24.9,26.1,28.9,25.0,23.2,24.2,23.0,33.5,24.8,25.5,27.2,28.3
06723099999,VERBIER LES ATTLELAS SZ,46.10000,7.26667,2733.0,nan,nan,nan,nan,nan,nan,nan,nan,nan,8.9,18.4,10.6,11.2,11.8,14.3
06740099999,TITLIS SZ,46.76667,8.43333,3094.3,nan,nan,nan,nan,nan,nan,nan,nan,nan,4.5,13.4,4.9,5.2,6.0,8.0
06754099999,MATRO SZ,46.41667,8.93333,2171.0,nan,nan,nan,nan,nan,nan,nan,nan,nan,10.1,20.7,14.2,14.4,15.1,16.6
06779099999,SEGL MARIA SZ,46.43333,9.76667,1804.2,nan,nan,nan,nan,nan,nan,nan,nan,nan,14.5,24.0,18.3,18.1,19.1,21.0
06790099999,SCHIERS SZ,46.98333,9.66667,626.0,nan,nan,nan,nan,nan,nan,nan,nan,nan,23.5,31.9,23.8,24.5,25.0,26.9
06806599999,BUOCHS AIRPORT STANS SZ,46.96667,8.40000,450.0,nan,nan,20.4,nan,23.6,27.2,24.4,21.6,23.3,23.3,32.6,24.1,25.3,25.6,27.4
07020099999,LA HAGUE FR,49.71667,-1.93333,12.0,nan,20.7,17.3,19.4,18.4,20.2,18.4,17.7,17.4,18.6,21.0,16.9,18.9,20.6,19.1
07055099999,TILLE FR,49.45444,2.11278,109.4,nan,27.4,20.7,23.3,26.5,27.7,24.6,22.6,23.1,23.9,31.8,21.9,27.0,29.3,26.1
07109099999,POULMIC FR,48.28170,-4.44502,87.5,nan,24.7,17.9,18.2,21.9,21.1,21.2,17.5,20.2,21.1,22.4,19.4,23.2,22.8,24.8
07139099999,ALENCON VALFRAMBERT FR,48.45000,0.11667,141.0,nan,28.2,20.2,23.4,25.9,27.6,24.3,21.0,24.4,24.0,30.0,21.8,27.4,28.4,27.5
07156099999,PARIS MONTSOURIS FR,48.81667,2.33333,77.0,nan,29.6,21.9,25.8,27.9,28.8,25.9,24.4,25.6,25.6,38.5,23.0,28.6,30.9,29.0
07182599999,MIRECOURT FR,48.32496,6.06998,330.4,nan,nan,nan,nan,nan,nan,nan,nan,nan,24.4,34.0,22.9,25.6,27.0,27.6
07230099999,BEAUCOUZE FR,47.48333,-0.60000,50.0,nan,29.8,21.0,23.5,26.5,29.6,25.3,22.4,23.0,25.7,30.6,22.7,28.6,29.0,30.5
07260099999,FOURCHAMBAULT FR,47.00263,3.11333,183.5,nan,28.8,21.9,25.0,27.8,29.8,26.7,24.6,25.9,25.9,34.8,25.0,27.2,29.3,31.0
07314099999,CHASSIRON FR,46.05000,-1.41667,22.0,nan,24.7,19.0,21.0,23.1,22.8,21.6,20.3,21.2,21.9,24.8,20.8,22.2,23.6,25.8
07385099999,CHARNAY FR,46.29510,4.79577,221.9,nan,29.7,23.0,26.9,28.9,30.5,27.2,24.6,25.6,26.5,36.8,27.1,28.3,29.6,31.9
07475099999,BOUTHEON FR,45.54055,4.29639,403.9,nan,29.6,23.6,27.4,27.3,29.3,26.9,24.8,26.5,26.4,37.1,26.7,28.6,29.3,31.6
07491099999,AIX LES BAINS FR,45.63805,5.88023,237.4,nan,29.5,23.1,28.4,29.4,30.9,26.7,25.9,27.6,27.8,35.5,28.3,27.9,30.7,31.2
07549099999,AURILLAC FR,44.89139,2.42194,638.9,nan,27.8,21.3,25.6,25.1,27.2,nan,22.2,25.5,22.6,32.0,24.9,25.1,26.8,30.5
07586099999,CARPENTRAS FR,44.08333,5.05000,105.0,nan,35.1,28.8,31.6,33.5,34.0,32.0,30.7,31.7,29.8,37.0,32.8,32.0,33.7,37.5
07622099999,LAMOTHE FR,43.68778,0.60167,125.3,nan,30.1,25.4,26.8,28.8,30.8,28.3,26.2,29.2,25.7,33.8,28.1,29.1,29.5,31.7
07641599999,VIAS FR,43.32352,3.35390,17.1,nan,30.1,26.9,27.6,32.0,31.4,29.6,26.6,28.7,25.7,30.3,31.0,28.1,29.9,32.7
07675099999,LE CANNET FR,43.38467,6.38714,80.8,nan,32.1,30.5,32.3,33.9,34.0,31.4,31.3,31.2,29.2,36.5,33.4,33.0,32.8,35.9
07768099999,LA CHIAPPA FR,41.60000,9.36667,68.0,nan,29.8,29.4,31.3,31.4,30.5,nan,nan,nan,nan,nan,nan,nan,nan,nan
08008099999,LUGO ROZAS SP,43.11667,-7.45000,446.0,nan,25.0,24.1,nan,nan,nan,nan,21.8,24.7,22.7,27.6,24.0,26.3,23.0,24.8
08025099999,BILBAO SP,43.30110,-2.91061,42.1,nan,26.6,23.4,23.7,24.7,25.4,25.6,24.3,25.6,23.4,27.8,23.7,26.8,25.6,27.0
08075099999,BURGOS SP,42.35763,-3.62076,897.6,nan,28.7,27.1,25.9,27.4,28.3,27.1,25.0,28.4,22.4,33.4,28.1,27.1,25.7,28.9
08140099999,VALLADOLID SP,41.70611,-4.85194,845.8,nan,28.2,27.1,25.2,28.4,31.2,28.9,25.7,31.5,22.9,32.4,30.3,27.3,25.1,30.9
08186099999,SAN LORENZO SP,41.63300,2.01700,1092.0,nan,nan,nan,nan,nan,nan,nan,nan,nan,nan,nan,nan,nan,28.9,30.0
08223099999,CUATRO VIENTOS SP,40.37068,-3.78514,691.0,nan,31.8,31.4,30.5,33.2,34.1,32.7,30.7,36.1,27.4,37.5,35.7,29.9,30.1,34.1
08272099999,TOLEDO SP,39.88333,-4.05000,516.0,nan,nan,32.9,31.9,34.7,36.2,34.2,nan,nan,28.1,39.7,36.4,31.1,31.2,35.9
08330099999,TALAVERA LA REAL SP,38.89125,-6.82133,185.6,nan,32.6,33.9,31.4,33.4,38.1,33.0,32.2,38.2,28.4,35.7,36.2,33.3,29.9,31.6
08397099999,MORON AB SP,37.17492,-5.61594,86.9,nan,33.1,37.7,34.7,35.1,38.4,35.4,35.3,37.7,29.6,38.3,34.7,32.2,31.2,30.0
08452099999,CADIZ OBS SP,36.50000,-6.25000,9.0,nan,nan,nan,nan,nan,nan,nan,nan,nan,nan,nan,nan,nan,25.6,23.9
08507099999,GRACIOSA AERODROME PO,39.10000,-28.03333,26.2,nan,nan,nan,nan,nan,nan,nan,nan,nan,nan,nan,nan,nan,24.2,24.4
08532099999,SINTRA PO,38.83105,-9.33955,134.1,nan,23.2,24.0,22.6,23.2,28.5,22.0,22.3,28.9,21.6,nan,nan,24.7,21.5,21.3
08548099999,COIMBRA CERNACHE PO,40.15000,-8.46667,179.0,nan,25.5,25.6,24.0,24.6,31.9,24.6,23.8,32.9,22.8,27.2,30.2,27.5,22.4,25.4
08570099999,CASTELO BRANCO PO,39.83333,-7.48333,384.0,nan,29.4,30.4,27.7,29.8,36.2,30.3,29.2,37.2,26.7,33.6,33.5,30.9,26.9,28.8
10018099999,WESTERLAND SYLT GM,54.91325,8.34047,15.5,nan,26.7,17.6,22.0,22.6,23.3,18.4,20.9,17.9,21.1,24.7,17.4,18.3,19.4,16.6
10162499999,SCHWERIN PARCHIM GM,53.42700,11.78344,50.6,nan,30.0,20.6,26.1,27.1,28.3,19.7,23.1,22.4,24.0,30.3,20.9,21.0,26.0,nan
10338099999,HANNOVER GM,52.46106,9.68508,55.8,nan,28.0,19.7,nan,26.7,27.3,19.3,23.0,23.4,24.3,30.3,21.0,22.4,25.9,22.1
10439099999,FRITZLAR GM,51.11450,9.28583,172.5,nan,28.9,20.2,25.3,26.5,27.2,20.1,23.0,23.4,24.4,32.3,21.1,24.0,26.0,23.7
10613099999,BUCHEL GM,50.17383,7.06333,477.9,nan,26.4,17.0,21.7,23.4,25.8,18.9,19.3,20.6,22.3,30.7,18.9,22.7,23.9,22.4
10727599999,KARLSRUHE BADEN BADEN GM,48.77935,8.08050,124.3,nan,29.6,20.6,26.7,28.0,29.7,24.4,24.1,24.6,27.0,35.1,23.6,27.1,27.6,27.9
10837099999,LAUPHEIM GM,48.22030,9.91002,538.3,nan,26.5,20.3,24.8,24.0,26.0,22.3,21.9,22.6,23.3,31.1,22.4,24.3,23.3,26.4
11001099999,WOLFSEGG AU,48.10000,13.66667,615.6,nan,22.6,nan,23.1,22.5,25.1,19.6,25.1,22.8,23.2,28.7,23.0,24.6,nan,26.1
11022099999,RETZ AU,48.76667,15.95000,323.0,nan,25.0,23.8,25.7,26.7,27.5,23.2,31.8,26.0,26.3,32.9,26.1,27.7,26.3,29.6
11040099999,WIEN UNTERLAA AU,48.13333,16.41667,199.0,nan,25.1,24.8,27.1,27.7,28.1,23.2,33.5,27.0,26.8,32.7,27.0,28.1,27.0,30.8
11082099999,GUMPOLDSKIRCHEN AU,48.03333,16.28333,233.0,nan,25.1,24.8,27.0,27.6,28.4,23.5,33.3,27.1,26.9,33.2,27.4,28.0,27.2,30.5
11121099999,INNSBRUCK FLUGHAFEN AU,47.25000,11.35000,579.0,nan,nan,nan,nan,nan,nan,nan,nan,nan,25.6,33.4,26.4,26.2,24.6,29.2
11142099999,ST. JOHANN PONGAU AU,47.31667,13.18333,647.0,nan,26.0,20.4,24.8,23.6,25.8,22.4,27.6,25.0,26.2,33.0,24.5,25.1,nan,20.6
11161099999,PRAEBICHL AU,47.51667,14.95000,1214.2,nan,nan,nan,nan,nan,nan,nan,nan,nan,20.3,27.5,19.2,20.3,19.8,24.4
11190099999,EISENSTADT AU,47.85000,16.53333,189.3,nan,25.3,25.9,27.6,28.1,28.5,23.8,34.0,27.3,26.9,32.5,27.6,28.0,27.2,30.4
11229099999,ST. ANDRAE I.L. AU,46.76667,14.83333,404.0,nan,25.8,25.1,29.0,25.6,28.7,26.1,31.7,27.6,27.4,32.5,28.0,28.0,nan,29.9
11260099999,MALLNITZ BAD AU,47.00000,13.16667,1201.2,nan,nan,nan,nan,nan,nan,nan,nan,nan,21.3,28.3,21.4,21.5,nan,nan
11292099999,LASSNITZHOEHE AU,47.06667,15.58333,533.0,nan,23.2,24.3,26.8,25.9,26.8,23.8,29.7,25.4,25.0,29.7,25.3,26.0,23.1,27.6
11318099999,BRUNNENKOGEL OETZTALER ALPEN AU,46.91667,10.86667,3429.5,nan,7.0,nan,5.2,nan,nan,nan,nan,nan,-3.0,12.9,6.7,5.3,nan,7.5
11348099999,MARIAPFARR AU,47.15000,13.75000,1151.0,nan,21.9,18.4,22.9,21.4,23.1,20.0,26.0,22.1,22.4,29.7,22.9,23.0,nan,nan
11365099999,ZELTWEG AUTOM. STAT. AU,47.20000,14.76667,682.0,nan,nan,nan,nan,nan,nan,nan,nan,nan,25.7,31.6,25.0,25.9,nan,28.9
11386099999,KRUMBACH ID BUCKLIGEN WELT AU,47.51667,16.18333,545.0,nan,nan,nan,nan,nan,nan,nan,nan,nan,23.4,30.6,25.1,24.4,nan,nan
11423399999,KUNOVICE EZ,49.02944,17.43972,177.1,nan,26.0,23.5,26.4,28.8,27.5,21.3,32.0,25.8,25.4,30.8,24.4,23.5,26.0,27.5
11519099999,PRAHA KARLOV KLEMENTINUM EZ,50.06667,14.43333,254.0,nan,nan,22.5,26.4,27.6,28.4,22.0,29.0,24.3,26.9,32.1,24.4,24.8,25.5,26.5
11643099999,PEC POD SNEZKOU EZ,50.70000,15.73333,820.6,nan,23.1,16.6,20.3,21.8,22.0,16.5,23.3,20.1,20.6,25.4,18.6,18.2,19.6,20.4
11723099999,TURANY EZ,49.15127,16.69443,237.1,nan,24.7,24.2,26.3,27.7,26.9,22.7,33.1,26.0,26.6,31.8,26.0,26.8,26.7,27.9
11816099999,M R STEFANIK LO,48.17017,17.21267,132.9,nan,26.4,25.9,28.2,29.1,28.6,23.4,35.0,27.9,27.7,33.2,27.5,27.6,26.4,30.0
11903099999,SLIAC LO,48.65000,19.15000,315.0,nan,nan,nan,26.5,nan,nan,nan,nan,nan,nan,nan,nan,nan,26.3,28.2
11934099999,TATRY LO,49.07359,20.24114,718.1,nan,22.4,21.5,24.3,25.0,23.7,17.2,29.9,23.6,23.1,27.2,22.6,20.8,22.3,26.1
12100099999,KOLOBRZEG PL,54.18333,15.58333,5.0,nan,25.8,19.5,20.6,21.5,23.5,18.1,21.5,21.9,24.5,25.3,22.5,18.2,19.4,19.0
12120099999,LEBA PL,54.75000,17.53333,6.0,nan,26.6,18.6,21.2,22.3,22.2,18.2,21.4,21.1,23.0,24.9,21.8,18.2,20.4,19.3
12155099999,GDANSK SWIBNO PL,54.33333,18.93333,9.0,nan,nan,nan,nan,nan,nan,nan,nan,nan,nan,nan,nan,nan,19.6,22.8
12226099999,MIROSLAWIEC PL,53.39507,16.08281,150.9,nan,29.3,19.4,24.8,25.8,25.6,22.5,24.8,24.1,24.5,28.6,22.3,18.9,24.0,18.8
12312099999,BABIMOST PL,52.13852,15.79856,59.1,nan,nan,nan,nan,nan,28.4,nan,nan,25.7,27.3,30.6,23.7,20.9,24.9,22.6
12376799999,SZWEDEROWO PL,53.10000,17.98300,235.0,nan,29.5,nan,26.3,26.6,26.3,20.0,27.1,25.9,27.0,29.9,23.4,20.7,24.0,20.9
12469099999,SULEJOW PL,51.35000,19.86667,189.0,nan,26.9,20.9,26.1,27.1,25.4,19.7,31.2,25.6,25.4,30.3,24.7,21.8,24.6,24.6
12550099999,CZESTOCHOWA PL,50.81667,19.10000,295.0,nan,26.3,21.6,25.6,26.6,25.3,19.8,30.4,25.4,25.3,nan,24.2,22.3,24.0,25.3
12650099999,KASPROWY WIERCH PL,49.23333,19.98333,1989.0,nan,12.6,9.6,12.8,13.7,11.8,5.9,19.1,11.7,11.1,17.5,11.8,9.0,10.5,16.4
12812099999,SZOMBATHELY AIRPORT VAS HU,47.28333,16.63333,223.1,nan,24.8,26.9,29.2,27.9,28.5,24.7,35.5,27.3,27.0,32.7,27.2,27.4,25.9,30.4
12851099999,KEKESTETO HU,47.86667,20.01667,1015.0,nan,18.8,18.1,19.8,21.7,18.9,14.7,27.2,19.2,20.1,23.9,20.7,19.3,18.6,22.5
12922099999,SARMELLEK HU,46.68333,17.16667,125.0,nan,24.5,27.1,29.6,28.1,28.7,25.8,35.2,27.6,27.7,31.7,27.0,28.6,24.7,30.2
13014599999,CERKLJE SI,45.89997,15.53019,155.4,nan,26.0,28.1,30.0,27.4,29.4,27.0,33.1,27.7,28.0,31.6,26.6,29.9,25.6,30.0
13262099999,LOZNICA RI,44.55000,19.23333,122.0,nan,26.5,29.1,30.3,28.4,27.9,26.7,35.8,28.5,28.4,31.4,28.2,29.0,26.2,31.8
13295099999,NEGOTIN RI,44.23333,22.55000,44.0,nan,26.1,30.8,31.3,29.7,28.5,25.9,34.9,29.2,28.6,32.4,30.8,30.4,29.8,33.4
13383099999,KRUSEVAC RI,43.56667,21.35000,167.0,nan,26.5,30.3,30.7,29.2,27.1,24.7,35.7,27.7,28.4,30.1,29.2,29.7,27.2,33.1
13462499999,PODGORICA TITOGRAD MJ,42.43333,19.28333,53.0,nan,30.4,31.1,33.1,29.7,32.3,27.9,36.0,32.1,31.0,34.3,33.1,33.1,31.1,35.9
13580099999,PRETOR PGC MK,40.98333,21.06667,910.0,nan,nan,nan,nan,nan,nan,nan,nan,nan,nan,nan,29.3,29.6,28.4,31.2
13595099999,STRUMICA MK,41.43333,22.65000,224.0,nan,nan,nan,nan,nan,nan,nan,nan,nan,nan,nan,32.2,33.9,31.8,35.1
13623099999,SAZAN ISLAND AL,40.50000,19.28333,240.0,nan,nan,nan,nan,nan,nan,28.4,35.4,30.9,30.4,33.8,32.5,32.5,31.0,35.0
14015099999,LJUBLJANA BEZIGRAD SI,46.06667,14.51667,298.0,nan,26.7,26.4,29.7,26.9,29.1,26.4,32.2,28.4,27.8,33.0,27.4,28.8,26.4,30.8
14120099999,CRNOMELJ SI,45.56667,15.15000,157.0,nan,nan,nan,nan,nan,nan,nan,nan,28.2,28.6,32.8,27.7,30.2,26.7,30.6
14241099999,ZAGREB HR,45.74293,16.06878,107.6,nan,25.9,29.1,30.9,28.7,29.7,27.6,33.9,28.6,28.3,32.2,27.4,30.0,25.9,30.8
14307099999,PULA HR,44.89353,13.92219,83.5,nan,28.1,28.2,30.6,29.9,31.0,26.4,33.2,29.3,27.4,32.2,29.8,28.6,28.1,30.8
14428099999,ZADAR PUNTAMIKA HR,44.13333,15.21667,7.0,nan,28.5,28.4,30.7,28.6,30.2,26.4,31.9,29.4,28.2,31.2,30.3,29.3,28.8,30.9
14452099999,LASTOVO HR,42.76667,16.90000,187.0,nan,27.4,28.7,30.2,26.7,30.2,25.9,31.9,28.3,26.8,31.8,30.7,29.0,28.1,31.3
14549099999,ZENICA BK,44.21667,17.90000,348.0,nan,nan,nan,29.3,27.3,28.3,27.4,37.6,28.9,30.4,33.0,31.1,30.3,29.6,32.6
15000199999,BOBOC AIR BASE RO,45.21000,26.97000,103.0,nan,nan,nan,nan,29.7,26.7,23.4,32.4,26.3,26.9,27.7,28.7,27.0,26.9,29.9
15033099999,IEZER RO,47.60000,24.65000,1786.0,nan,nan,nan,nan,nan,nan,nan,nan,nan,14.0,15.5,13.8,12.7,11.4,15.8
15085099999,BISTRITA RO,47.15000,24.51667,367.0,nan,nan,nan,nan,nan,nan,nan,nan,nan,27.6,28.9,27.3,24.7,25.3,28.2
15113099999,NEGRESTI RO,46.85000,27.45000,131.0,nan,nan,nan,nan,nan,nan,nan,nan,nan,27.3,29.9,28.4,27.2,26.1,29.4
15143099999,TURDA RO,46.58333,23.78333,428.0,nan,nan,nan,nan,nan,nan,nan,nan,nan,26.0,29.0,26.1,24.8,25.5,29.9
15170099999,MIERCUREA CIUC RO,46.36667,25.73333,662.0,nan,23.1,25.0,25.2,25.7,23.1,19.4,31.7,24.0,24.7,26.0,24.9,23.1,23.0,26.6
15206099999,TEBEA RO,46.16667,22.72611,264.0,nan,nan,nan,nan,nan,nan,nan,nan,nan,26.3,30.3,27.5,26.8,25.9,29.0
15245099999,JIMBOLIA RO,45.78333,20.70000,80.0,nan,nan,nan,nan,nan,nan,nan,nan,nan,28.3,33.0,29.0,30.0,27.3,30.6
15279099999,BALEA LAC RO,45.60000,24.61667,2038.0,nan,nan,nan,nan,nan,nan,nan,nan,nan,12.3,10.0,12.8,11.9,10.5,15.9
15302099999,PREDEAL RO,45.50000,25.58333,1093.0,nan,nan,nan,nan,nan,nan,nan,nan,nan,20.2,21.5,20.7,20.8,19.5,24.7
15325099999,SINAIA 1500 RO,45.35000,25.50000,1510.0,nan,nan,nan,nan,nan,nan,nan,nan,nan,18.0,20.9,20.1,18.7,17.9,23.1
15345099999,MORARESTI RO,45.00000,24.53333,550.0,nan,nan,nan,nan,nan,nan,nan,nan,nan,24.4,27.3,25.7,24.9,24.4,27.2
15375099999,TARGOVISTE RO,44.93333,25.43333,297.7,nan,nan,nan,nan,nan,nan,nan,nan,nan,27.2,29.7,29.3,27.6,27.1,30.9
15410099999,DROBETA TURNU SEVERIN RO,44.63333,22.63333,80.0,nan,27.5,32.2,31.6,30.5,28.4,26.6,35.7,30.1,28.8,33.3,31.0,31.4,29.4,33.7
15434099999,SLATINA RO,44.43333,24.35000,173.0,nan,nan,nan,nan,nan,nan,nan,nan,nan,28.4,30.2,31.1,30.1,27.9,32.1
15475099999,OLTENITA RO,44.06667,26.63333,16.0,nan,nan,nan,nan,nan,nan,nan,nan,nan,28.2,29.1,31.0,29.2,29.1,32.7
15498099999,ZIMNICEA RO,43.66667,25.35000,34.0,nan,nan,nan,nan,nan,nan,nan,nan,nan,28.8,29.9,31.3,30.4,29.3,33.7
15552099999,VARNA BU,43.23207,27.82511,70.1,nan,27.8,30.0,29.7,30.4,29.2,26.2,31.1,27.8,26.9,27.7,29.5,28.4,27.7,30.5
16008399999,RESIA PASS IT,46.83333,10.50000,1800.0,nan,22.3,16.7,19.7,20.4,24.6,19.7,20.4,22.2,17.3,27.1,21.0,21.0,21.1,23.0
16052099999,PIAN ROSA MTN TOP IT,45.93333,7.70000,3488.0,nan,nan,nan,2.8,nan,nan,nan,nan,nan,3.4,11.5,7.2,5.9,7.3,8.3
16076099999,BERGAMO ORIO AL SERIO IT,45.67389,9.70417,238.3,nan,29.9,28.7,30.6,30.3,31.0,27.5,30.5,29.6,26.6,33.7,29.4,29.6,29.9,32.8
16105099999,VENEZIA TESSERA IT,45.50514,12.35188,2.1,nan,28.0,28.0,29.8,29.2,31.5,26.1,31.2,28.7,27.4,30.6,28.7,28.1,28.6,30.4
16123099999,CHIAVARI IT,44.31667,9.33333,30.0,nan,27.8,24.8,28.1,nan,nan,nan,nan,nan,nan,nan,27.5,26.1,27.6,30.3
16147099999,FORLI IT,44.19475,12.07009,29.6,nan,29.0,29.4,32.5,30.7,31.8,29.4,33.9,30.5,28.9,33.8,30.8,32.8,30.2,32.4
16179099999,FRONTONE IT,43.51667,12.73333,574.0,nan,27.0,29.3,31.2,28.6,30.9,26.9,34.0,27.1,28.7,32.5,30.1,29.8,29.9,31.9
16216099999,VITERBO IT,42.43018,12.06416,301.8,nan,30.8,29.2,31.3,28.8,32.0,27.9,33.8,29.4,29.0,34.6,32.1,31.7,30.5,34.5
16239099999,CIAMPINO IT,41.79936,12.59494,130.1,nan,32.2,29.2,32.4,30.2,32.5,29.3,32.7,30.5,28.9,33.0,31.6,31.9,31.0,33.7
16259399999,MONTICHIARI IT,45.42889,10.33056,108.5,nan,28.6,28.4,30.0,29.4,31.7,27.6,31.4,29.4,27.4,33.7,30.6,30.1,29.9,33.1
16292399999,PONTECAGNANO IT,40.62040,14.91129,37.5,nan,nan,nan,nan,27.6,27.7,27.1,29.9,27.6,28.1,29.3,28.9,29.1,28.1,29.1
16325099999,MARINA DI GINOSA IT,40.43333,16.88333,12.0,nan,32.0,31.6,33.3,28.5,31.1,28.1,31.3,29.8,31.3,33.5,33.1,33.7,33.4,35.8
16365099999,CATANZARO IT,38.90000,16.60000,358.0,nan,nan,27.0,29.6,nan,nan,nan,nan,nan,nan,nan,28.2,26.5,26.7,29.1
16450099999,ENNA IT,37.56667,14.28333,965.0,nan,28.9,26.9,31.5,29.9,30.2,28.8,31.5,26.5,30.1,26.6,30.3,28.1,29.1,30.8
16490099999,LAMPEDUSA IT,35.49791,12.61808,21.3,nan,33.0,28.4,30.7,30.5,28.1,27.1,29.3,24.9,26.6,27.9,26.9,27.0,27.4,29.7
16564099999,CAPE CARBONARA IT,39.10000,9.51667,118.0,nan,31.6,29.4,31.5,31.0,31.3,30.2,31.1,29.2,27.8,30.6,30.2,29.0,29.1,30.4
16627099999,DIMOKRITOS GR,40.85587,25.95626,7.3,nan,28.6,31.2,31.7,30.7,30.6,28.0,32.9,30.0,30.5,29.9,32.5,33.7,32.2,33.5
16667099999,MITILINI GR,39.05667,26.59833,18.3,nan,28.9,32.5,33.0,32.7,33.3,31.7,32.6,30.0,31.3,30.3,32.9,33.6,33.7,33.1
16713199999,NAFPLION GR,37.58300,22.76700,2.0,nan,nan,nan,nan,nan,nan,nan,nan,nan,nan,nan,36.1,33.2,35.8,35.9
16726499999,SYROS GR,37.42279,24.95094,71.9,nan,26.9,29.1,29.6,29.0,29.1,28.4,29.1,27.4,27.6,26.4,30.6,30.8,31.3,29.4
16749099999,DIAGORAS GR,36.40542,28.08619,5.8,nan,29.3,29.8,29.9,29.2,30.4,28.3,29.7,28.4,29.4,28.6,31.2,31.9,31.8,31.4
17026099999,SINOP TU,42.03333,35.16667,32.0,nan,24.3,27.0,26.5,27.6,27.3,24.6,25.7,24.8,25.5,25.6,25.7,26.7,27.6,28.6
17050099999,EDIRNE TU,41.66667,26.56667,51.0,nan,27.7,33.3,33.5,32.6,31.4,30.1,35.0,31.0,31.0,31.4,33.9,34.5,32.1,35.7
17067499999,ANTALYA GAZIPASA TU,36.30000,32.30000,28.0,nan,nan,nan,29.4,nan,nan,28.7,33.0,29.6,32.1,31.1,33.6,36.1,33.3,33.6
17086099999,TOKAT TU,40.30000,36.56667,608.0,nan,23.5,28.4,28.5,30.1,30.2,30.5,24.8,28.8,28.4,25.8,28.5,31.2,26.8,28.6
17100099999,IGDIR TU,39.91667,44.05000,858.0,nan,nan,nan,30.0,29.6,nan,nan,28.9,31.3,32.0,36.8,32.1,35.6,38.3,30.8
17124099999,ESKISEHIR TU,39.78414,30.58211,786.7,nan,27.0,29.4,28.8,30.0,28.6,27.6,28.7,26.9,28.4,25.5,29.2,31.6,30.0,30.8
17155099999,KUTAHYA TU,39.41667,29.96667,969.0,nan,25.5,29.9,29.0,28.5,29.1,26.9,26.0,26.1,28.4,24.7,28.3,31.5,29.2,29.2
17189099999,AFYONKARAHISAR TU,38.73000,30.60000,1012.0,nan,nan,nan,30.3,nan,nan,nan,nan,nan,nan,nan,nan,31.7,29.3,nan
17200699999,ANADOLU TU,39.80986,30.51938,788.8,nan,23.8,nan,28.1,nan,nan,26.7,27.7,25.6,27.9,24.9,28.0,30.9,29.1,30.3
17220099999,IZMIR GUZELYALI TU,38.43333,27.16667,29.0,nan,nan,nan,33.8,30.9,32.0,31.1,33.5,31.2,31.3,31.4,34.5,36.2,34.5,34.1
17244099999,KONYA TU,37.97900,32.56186,1030.5,nan,nan,29.9,29.2,30.9,31.9,30.4,nan,nan,30.6,28.5,29.0,32.4,30.4,28.9
17275099999,MARDIN TU,37.30000,40.73333,1050.0,nan,nan,nan,nan,nan,nan,38.4,35.0,38.1,41.0,40.6,40.0,42.4,40.4,38.1
17297099999,DATCA TU,36.70000,27.66667,28.0,nan,nan,nan,nan,31.4,32.1,30.8,30.6,30.2,32.6,30.5,33.6,34.3,35.8,33.6
17355099999,OSMANIYE TU,37.10000,36.25000,94.0,nan,nan,nan,nan,nan,nan,29.5,32.5,32.0,32.9,31.3,32.5,37.0,32.5,32.3
17515099999,LEFKOSA CY,35.20000,33.35000,131.0,nan,35.0,36.7,37.5,36.1,37.0,35.5,36.4,35.7,38.8,36.5,37.5,39.6,37.3,36.1
20046099999,POLARGMO IM. E.T. KRENKELJA RS,80.61667,58.05000,22.0,nan,1.2,2.8,nan,1.5,1.5,1.4,1.1,1.0,-0.2,1.3,2.4,1.0,0.9,2.8
20871099999,SOPOCHNAYA KARGA RS,71.88333,82.70000,5.9,nan,nan,nan,nan,nan,nan,nan,13.6,12.2,11.8,10.2,18.3,8.2,9.1,16.4
21721099999,IM YU A HABAROVA RS,72.40000,126.35000,19.6,nan,nan,nan,nan,nan,nan,nan,nan,7.9,10.8,11.7,10.6,3.1,13.3,10.4
21946099999,CHOKURDAH RS,70.61667,147.88333,61.0,nan,9.9,6.9,8.3,11.5,25.6,15.4,9.3,15.6,9.2,14.7,10.5,10.7,20.4,10.9
22165099999,KANIN NOS RS,68.65000,43.30000,49.0,nan,7.2,10.8,8.2,5.4,10.7,8.2,11.4,17.0,5.6,7.3,22.3,16.0,12.4,11.9
22324099999,UMBA RS,66.68333,34.35000,40.0,nan,14.9,16.8,15.0,13.3,19.6,18.1,17.6,22.4,16.7,13.8,24.9,17.8,18.1,15.3
22456099999,KEPINO RS,65.38333,41.88333,68.6,nan,nan,nan,nan,nan,nan,nan,21.7,25.5,20.2,12.0,26.7,24.3,22.5,20.1
22563099999,PINEGA RS,64.70000,43.38333,31.0,nan,16.2,24.4,19.3,13.3,24.3,20.9,21.7,26.2,20.6,13.7,25.7,22.0,22.0,20.1
22676099999,SURA RS,63.58333,45.63333,62.0,nan,15.3,28.1,21.9,14.3,24.5,24.4,21.6,27.7,21.7,15.3,26.3,22.8,21.7,20.7
22798099999,JARENSK RS,62.16667,49.11667,92.0,nan,nan,nan,nan,nan,nan,nan,22.6,29.1,23.6,17.1,27.2,20.5,22.9,21.3
22876099999,KRASNOBORSK RS,61.55000,45.93333,59.6,nan,nan,nan,nan,nan,nan,nan,23.1,27.9,20.9,17.8,26.5,18.2,20.3,20.0
22954099999,VOZEGA RS,60.46667,40.20000,202.0,nan,18.4,23.3,21.2,16.7,26.5,24.9,23.8,26.5,20.8,17.8,24.7,17.0,17.5,18.3
23174099999,POTAPOVO RS,68.66667,86.25000,41.0,nan,nan,nan,nan,nan,nan,nan,18.8,17.1,19.5,15.5,24.0,11.8,16.0,24.1
23324099999,PETRUN RS,66.43333,60.76667,62.0,nan,nan,nan,nan,13.1,15.3,13.0,19.5,25.4,17.3,11.5,26.5,18.9,21.5,24.4
23426099999,MUZHI RS,65.48333,64.71667,19.0,nan,11.3,27.8,17.9,15.2,15.0,15.6,22.5,23.8,18.9,13.0,23.1,17.2,22.9,24.8
23527099999,SARAN PAUL RS,64.28333,60.88333,29.0,nan,nan,nan,nan,nan,nan,nan,24.4,26.8,22.2,14.6,25.2,20.5,24.9,23.3
23662099999,TOL KA RS,63.98333,82.08333,33.0,nan,nan,nan,nan,19.3,17.6,15.6,26.8,21.2,26.6,18.8,25.4,16.8,18.4,27.8
23758099999,RADUZHNY RS,62.15833,77.31250,78.0,nan,nan,nan,nan,nan,nan,nan,26.4,21.3,26.4,16.9,24.3,nan,nan,nan
23849099999,SURGUT RS,61.34369,73.40184,61.0,nan,19.0,27.9,18.3,19.2,17.8,18.2,27.3,22.3,24.6,16.6,23.9,18.1,21.5,26.5
23939099999,ALTAY RS,60.33333,68.96667,32.3,nan,nan,nan,nan,nan,nan,nan,28.0,23.4,24.1,15.4,25.5,nan,nan,nan
23992099999,UST KAMO RS,60.71667,97.51667,178.0,nan,nan,nan,nan,nan,nan,nan,28.4,21.7,24.4,24.9,25.2,24.0,23.9,28.2
24322099999,POLIARNY RS,66.40043,112.03033,506.0,nan,16.9,20.0,nan,16.6,18.4,23.1,21.6,13.0,17.8,23.0,18.6,17.3,21.4,17.4
24507099999,TURA RS,64.26667,100.23333,168.0,nan,26.2,25.2,16.8,21.5,20.8,25.4,28.9,18.4,24.5,26.0,22.7,21.4,21.2,26.5
24644099999,VERHNEVILJUJSK RS,63.45000,120.31667,115.3,nan,nan,nan,nan,nan,nan,nan,nan,16.7,22.1,24.6,21.6,23.8,30.3,19.9
24724099999,CHERNISHEVSKIJ RS,63.03333,112.48333,422.0,nan,21.2,21.7,15.8,17.9,17.9,23.1,24.1,16.0,20.6,26.4,22.9,20.4,23.8,22.6
24790099999,SUSUMAN RS,62.78333,148.16667,655.0,nan,nan,nan,nan,18.7,24.0,17.8,21.3,21.7,15.3,22.7,25.4,22.7,23.4,18.1
24908099999,VANAVARA RS,60.33333,102.26667,260.0,nan,29.8,27.3,19.1,22.8,22.5,25.5,29.2,20.1,23.6,26.4,26.8,22.5,25.7,30.0
24967099999,TEGYULTYA RS,60.46667,130.00000,171.0,nan,nan,nan,nan,25.5,27.3,22.3,25.8,23.0,21.2,26.3,25.5,28.5,31.4,20.6
25123099999,CHERSKIJ RS,68.75000,161.28333,28.0,nan,21.7,16.7,14.9,17.8,19.9,22.4,14.8,nan,nan,26.5,14.9,15.8,21.8,16.6
25378099999,EGVEKINOT RS,66.35000,-179.11667,26.0,nan,13.5,12.3,14.4,12.6,18.3,12.7,12.3,12.8,9.5,15.9,12.5,10.8,13.6,12.8
25627099999,LABAZNAYA RS,63.30000,158.50000,709.0,nan,nan,nan,nan,nan,nan,nan,15.6,19.7,14.7,24.0,21.5,19.1,21.9,20.9
25904099999,MADAUN RS,60.60000,150.70000,521.9,nan,nan,nan,nan,nan,nan,nan,19.2,20.1,14.5,20.1,24.6,21.6,22.6,18.4
26038199999,PARNU EN,58.41700,24.46700,47.0,nan,25.9,25.2,19.6,22.4,26.8,27.7,25.1,23.6,22.5,24.5,21.9,19.1,19.7,19.7
26094099999,TIHVIN RS,59.65000,33.55000,61.0,nan,23.8,23.2,22.3,18.5,27.5,26.0,24.6,nan,nan,22.3,23.2,18.2,18.6,20.7
26135099999,TURI EN,58.81667,25.41667,65.0,nan,27.4,24.7,21.5,22.4,27.4,26.6,24.3,25.0,22.4,25.3,23.7,18.8,20.5,19.9
26227099999,RUHNU EN,57.78333,23.25000,2.0,nan,24.9,21.6,20.5,21.8,23.6,24.6,20.3,22.3,20.6,22.8,22.1,19.1,18.1,19.0
26285099999,KRESTCY RS,58.26667,32.53333,63.0,nan,nan,nan,nan,nan,nan,nan,nan,24.8,22.2,23.1,23.5,18.1,18.7,11.9
26348099999,GULBENE LG,57.13333,26.71667,143.0,nan,nan,nan,nan,20.6,25.5,24.5,24.3,24.0,22.2,23.6,20.3,17.2,18.1,16.5
26422599999,RIGA LG,56.96667,24.05000,26.0,nan,27.3,22.0,21.0,22.5,24.8,24.8,25.0,24.3,23.2,25.2,22.9,18.9,19.0,19.4
26479099999,TOROPEC RS,56.48333,31.63333,187.0,nan,nan,nan,nan,nan,nan,nan,26.2,23.6,21.8,nan,nan,nan,nan,nan
26547099999,DUKSTAS LH,55.51667,26.30000,168.0,nan,nan,nan,nan,nan,nan,nan,nan,nan,22.9,nan,nan,nan,nan,nan
26653099999,POLOTSK BO,55.46667,28.76667,133.0,nan,26.3,21.6,22.9,21.2,25.3,nan,nan,nan,24.4,26.7,29.4,17.9,22.7,30.2
26763099999,ORSHA BO,54.50000,30.41667,185.0,nan,25.0,20.4,22.7,20.6,25.1,nan,27.6,26.0,24.5,26.5,29.6,20.1,23.6,29.1
26878099999,SLAVGOROD BO,53.45000,31.01667,170.0,nan,25.6,20.9,23.2,21.0,26.6,nan,nan,nan,24.7,28.2,30.7,20.3,nan,24.5
26997099999,TRUBCHEVSK RS,52.58333,33.76667,178.0,nan,22.9,22.4,22.6,20.0,26.5,23.0,28.8,26.5,25.2,26.4,24.7,19.5,19.9,22.2
27199099999,KIROV RS,58.56667,49.56667,158.0,nan,16.3,26.7,23.4,16.8,26.1,27.0,24.0,27.8,24.2,18.4,26.1,16.1,26.0,19.8
27283099999,KOTEL NIC RS,58.30000,48.35000,127.0,nan,nan,nan,nan,nan,nan,nan,23.7,28.2,nan,19.2,26.1,16.4,26.7,19.4
27393099999,NOLINSK RS,57.55000,49.95000,136.0,nan,17.1,25.8,22.5,16.6,26.6,28.1,24.6,nan,nan,19.8,26.4,18.4,26.3,20.4
27515599999,SHEREMETYEVO RS,55.97264,37.41459,189.6,nan,20.9,23.3,22.4,18.1,27.9,27.9,25.7,28.7,25.0,24.3,25.4,19.1,21.3,20.1
27611099999,NARO FOMINSK RS,55.38333,36.70000,193.0,nan,nan,nan,nan,nan,nan,nan,26.5,26.2,24.8,24.7,nan,nan,20.4,19.0
27703099999,KALUGA RS,54.55000,36.36667,198.8,nan,nan,nan,nan,nan,nan,nan,27.4,26.1,24.4,nan,25.3,20.2,21.1,20.9
27799099999,DIMITROVGRAD RS,54.23333,49.60000,73.0,nan,nan,nan,nan,nan,nan,nan,27.7,29.1,27.9,nan,28.6,nan,nan,24.4
27906099999,OREL RS,52.93333,36.00000,196.0,nan,22.0,22.6,22.7,20.8,28.5,26.1,29.4,27.5,nan,27.5,25.6,20.9,22.7,22.6
27962299999,CHEBOKSARY RS,56.09027,47.34725,170.1,nan,nan,nan,nan,17.3,27.7,27.1,25.3,28.3,24.1,20.4,26.1,20.5,26.6,20.1
28097099999,TAUROVO RS,59.58333,73.28333,60.3,nan,nan,nan,nan,nan,nan,nan,26.7,22.7,25.2,17.8,24.4,20.7,25.7,26.3
28319099999,NOZOVKA RS,57.08333,54.75000,131.0,nan,15.7,27.4,23.0,18.0,24.7,28.2,27.1,27.6,nan,nan,nan,nan,nan,19.5
28465099999,JALTUROVOSK RS,56.68333,66.35000,61.0,nan,19.0,27.9,23.7,23.7,22.5,23.5,27.9,23.7,24.2,19.1,24.7,21.1,26.5,nan
28552099999,SADRINSK RS,56.06667,63.65000,89.0,nan,18.4,27.8,22.3,23.7,24.9,25.8,29.2,25.2,24.6,nan,nan,nan,nan,21.5
28687099999,BULAJEVO KZ,54.90000,70.45000,134.0,nan,nan,nan,nan,nan,nan,nan,nan,nan,nan,nan,nan,nan,26.1,23.7
28775199999,JAVLENKA KZ,54.40000,68.40000,115.0,nan,nan,nan,nan,nan,nan,nan,nan,nan,nan,nan,nan,nan,26.0,24.7
28867099999,SARYKOL KZ,53.31667,65.55000,216.0,nan,24.0,27.2,23.1,26.9,25.4,26.4,29.3,23.7,26.4,22.3,22.5,23.4,26.6,25.0
28978099999,BALKASINO KZ,52.53333,68.75000,398.0,nan,23.8,26.1,23.5,25.8,24.1,23.7,26.4,19.8,22.4,22.6,21.9,23.7,24.3,23.5
29209099999,MAJSK RS,57.80000,77.21667,99.0,nan,25.5,26.7,21.5,20.8,20.0,19.2,27.7,23.2,25.6,23.2,24.3,20.9,22.8,25.5
29348099999,PERVOMAJSKOE RS,57.06667,86.21667,114.0,nan,24.9,27.2,23.0,23.0,22.8,20.7,27.2,22.2,26.7,24.0,25.2,22.4,22.3,26.3
29464099999,BOL SOJ ULUJ RS,56.65000,90.55000,231.0,nan,nan,nan,nan,nan,nan,nan,25.5,21.4,25.5,24.7,25.2,23.4,21.9,23.5
29561099999,NAZAROVO RS,56.03333,90.31667,255.9,nan,nan,nan,nan,nan,nan,nan,26.5,21.9,26.9,26.1,25.3,23.7,22.6,23.7
29594099999,TAJSHET RS,55.95000,98.00000,307.0,nan,29.5,25.7,25.4,24.2,23.7,21.9,25.0,21.6,24.3,25.5,26.5,23.8,24.1,28.3
29653099999,UZUR RS,55.30000,89.81667,387.0,nan,24.5,26.0,24.2,22.7,21.5,19.8,24.4,18.4,22.9,25.4,24.3,22.5,21.5,22.2
29736099999,MASLJANINO RS,54.33333,84.21667,198.0,nan,25.6,25.9,23.8,23.9,23.6,20.8,25.3,21.1,25.2,24.1,25.1,22.5,24.0,24.5
29814099999,KARASUK RS,53.73333,78.01667,115.0,nan,27.0,25.5,26.2,25.0,25.7,22.5,27.6,nan,23.8,25.8,25.1,25.4,26.1,25.8
29923099999,REBRIHA RS,53.06667,82.30000,219.0,nan,26.6,26.6,24.2,24.9,24.1,21.9,25.7,20.4,24.0,24.9,25.4,25.6,24.2,25.9
30127099999,TOKMA RS,58.23333,105.73333,438.8,nan,nan,nan,nan,nan,nan,nan,25.7,17.9,20.9,25.3,24.2,23.2,23.6,27.6
30372099999,CHARA RS,56.90000,118.26667,711.0,nan,25.0,25.7,22.5,21.2,20.8,25.3,23.2,20.3,19.7,28.3,21.8,27.6,23.6,24.0
30521099999,ZHIGALOVO RS,54.80000,105.16667,418.0,nan,29.6,28.0,26.1,23.7,26.1,25.0,26.0,20.8,20.3,29.4,28.5,24.8,24.7,30.5
30650099999,ROMANOVKA RS,53.20000,112.78333,923.0,nan,28.7,26.4,23.6,21.9,25.1,24.1,24.6,23.2,22.7,29.3,29.8,nan,20.6,nan
30745099999,SOSNOVO OZERSKOE RS,52.53333,111.55000,952.0,nan,26.9,26.2,24.3,21.9,24.4,23.3,24.6,22.1,21.8,28.4,nan,nan,22.7,26.4
30838099999,PETROVSKIJ ZAVOD RS,51.31667,108.86667,806.0,nan,29.5,28.4,25.7,23.4,27.1,22.3,27.6,21.6,22.8,29.2,30.0,27.7,23.3,28.0
30965099999,BORZYA RS,50.40000,116.51667,676.0,nan,27.5,29.6,24.4,23.8,28.0,27.5,28.2,22.8,24.4,30.4,32.4,30.9,24.7,25.0
31087099999,UL YA RS,58.81667,141.85000,5.0,nan,nan,nan,nan,nan,nan,nan,nan,11.6,11.1,13.8,14.5,19.4,13.1,11.4
31285099999,UDSKOE RS,54.50000,134.41667,62.0,nan,nan,nan,nan,nan,18.8,22.4,23.7,22.2,19.2,16.1,19.7,34.4,16.1,17.6
31418099999,VESELAJA GORKA RS,52.28333,135.80000,201.0,nan,24.4,23.9,25.2,27.0,20.1,21.8,26.9,25.2,25.1,15.4,24.3,35.0,20.9,25.9
31527099999,ZAVITAJA RS,50.11667,129.46667,241.0,nan,29.4,27.6,24.4,26.5,25.4,26.9,28.2,25.1,27.8,24.6,26.2,31.8,26.3,24.3
31683099999,TUMNIN RS,49.65000,140.08333,58.0,nan,nan,nan,nan,nan,22.5,25.8,27.0,24.8,23.6,16.6,26.2,32.7,21.2,22.6
31825099999,AGZU RS,47.60000,138.40000,165.0,nan,29.9,29.0,28.4,24.7,24.4,25.8,26.4,23.0,nan,17.5,26.3,31.3,21.9,21.2
31960099999,VLADIVOSTOK RS,43.11667,131.93333,183.0,nan,23.4,18.2,25.1,16.0,18.7,21.9,20.4,19.6,20.1,17.0,20.7,24.5,16.9,15.9
32053099999,NOGLIKI RS,51.91667,143.13333,34.0,nan,17.1,21.0,25.0,22.2,12.8,16.3,22.1,21.8,16.6,11.9,18.4,24.5,13.4,15.0
32215099999,SEVERO KURIL SK RS,50.68333,156.13333,23.0,nan,11.8,10.4,12.0,15.8,12.4,11.5,14.5,15.6,nan,9.2,15.5,13.6,10.5,10.1
32562099999,BOL SHERETZK RS,52.83333,156.30000,30.0,nan,nan,nan,nan,nan,nan,nan,18.0,14.7,15.7,nan,nan,nan,nan,nan
33036099999,MOZYR BO,52.03639,29.16667,190.0,nan,26.2,20.7,23.3,23.2,26.7,nan,30.3,27.3,24.6,29.1,29.1,21.5,26.3,28.2
33301299999,MYKOLAIV UP,47.05000,31.91700,58.0,nan,27.0,28.4,27.4,30.7,28.3,23.7,32.6,27.7,30.3,27.8,28.4,27.0,27.7,30.0
33466099999,MYRONIVKA UP,49.66667,31.00000,153.0,nan,25.2,27.9,26.0,27.0,28.2,21.8,31.2,28.2,26.7,27.6,27.4,25.4,24.4,26.8
33679099999,CAMENCA MD,48.03333,28.70000,154.0,nan,nan,nan,nan,nan,nan,nan,nan,nan,nan,nan,27.1,27.4,25.8,28.8
33815099999,CHISINAU MD,47.01667,28.98333,173.0,nan,26.4,29.4,28.0,31.2,25.8,23.0,33.6,25.3,27.7,28.9,27.5,26.0,26.3,29.1
33902099999,KHERSON UP,46.63333,32.56667,54.0,nan,27.3,30.0,28.0,31.1,28.2,25.1,32.5,28.6,30.1,27.4,29.9,28.1,28.9,30.2
34072099999,KARABULAK RS,52.33333,46.36667,302.0,nan,nan,nan,nan,nan,nan,nan,26.6,27.2,24.6,nan,26.2,25.3,nan,nan
34163099999,OKTJABR SKIJ GORODOK RS,51.63333,45.45000,201.0,nan,nan,nan,nan,21.2,28.2,29.6,27.6,28.9,25.7,26.6,28.1,24.6,nan,nan
34254099999,NOVOANNENSKIJ RS,50.53333,42.68333,98.0,nan,nan,nan,nan,nan,nan,nan,nan,29.2,26.7,nan,nan,21.7,nan,nan
34363099999,KAMYSIN RS,50.06667,45.36667,119.0,nan,23.0,29.7,26.7,25.1,31.2,31.5,30.2,30.0,29.5,nan,nan,nan,nan,nan
34476099999,EL TON RS,49.13333,46.85000,6.0,nan,nan,nan,nan,nan,nan,nan,nan,nan,33.3,nan,nan,26.1,nan,nan
34646099999,CIMLJANSK RS,47.63333,42.11667,65.0,nan,nan,nan,nan,nan,nan,nan,nan,29.6,28.6,nan,nan,24.7,nan,nan
34772099999,YUSTA RS,47.13333,46.31667,2.6,nan,nan,nan,nan,nan,nan,nan,nan,32.7,36.0,32.1,nan,nan,32.2,nan
34880099999,ASTRAHAN RS,46.28333,47.98333,-21.6,nan,29.2,33.0,28.6,30.2,35.1,34.8,29.9,31.2,32.6,nan,27.0,29.0,nan,nan
35011099999,SOROCHINSK RS,52.43333,53.13333,123.0,nan,nan,nan,nan,22.3,30.7,32.8,31.1,28.3,29.3,25.1,28.4,26.9,32.7,26.0
35108099999,URALSK KZ,51.15083,51.54306,38.1,nan,22.5,30.6,28.3,25.2,33.9,35.4,31.0,30.7,32.9,29.8,29.3,31.4,34.7,26.7
35229099999,AKTYUBINSK KZ,50.24583,57.20667,224.9,nan,24.4,31.2,28.1,27.8,34.5,36.6,35.9,27.2,33.4,29.3,28.8,33.2,36.0,27.0
35357099999,BARSHINO KZ,49.68333,69.51667,349.0,nan,nan,nan,nan,29.6,28.4,29.2,29.5,21.5,24.5,30.1,26.1,33.6,31.7,30.2
35426099999,TEMIR KZ,49.15000,57.11667,234.0,nan,25.8,31.6,27.3,29.6,36.0,38.3,36.4,26.2,34.4,31.8,30.2,35.7,38.7,29.3
35615099999,MAKAT KZ,47.63333,53.31667,-22.0,nan,nan,nan,nan,nan,nan,nan,nan,nan,36.8,33.9,32.7,37.2,39.4,31.5
35796099999,BALHASH KZ,46.80000,75.08333,350.0,nan,29.5,28.1,29.0,28.2,30.3,29.5,28.4,26.4,27.2,30.6,27.4,31.0,29.4,28.9
36015099999,LEBJAZJE KZ,51.48300,77.76700,144.0,nan,nan,nan,nan,nan,nan,nan,nan,nan,nan,nan,nan,nan,27.4,27.9
36083099999,UST USA RS,52.05000,92.16667,576.9,nan,nan,nan,nan,nan,nan,nan,24.5,23.2,24.1,nan,25.3,24.0,22.4,24.1
36197099999,TAVRIA KZ,50.16667,82.03333,270.0,nan,nan,nan,nan,nan,nan,nan,nan,nan,24.8,25.2,27.7,nan,26.9,28.4
36418099999,SAMARSKOE KZ,49.03300,83.38300,524.0,nan,nan,nan,nan,nan,nan,nan,nan,nan,nan,nan,nan,nan,28.8,29.2
36665099999,ZAJSAN KZ,47.46700,84.91700,603.0,nan,nan,nan,nan,nan,nan,nan,nan,nan,nan,nan,nan,nan,27.7,28.3
36819099999,AYDARLI KZ,44.13300,75.85000,499.0,nan,nan,nan,nan,nan,nan,nan,nan,nan,nan,nan,nan,nan,33.2,33.9
36870099999,ALMATY KZ,43.23333,76.93333,851.0,nan,nan,nan,32.4,nan,nan,nan,30.7,28.7,29.8,31.8,27.6,33.3,29.3,30.6
36911099999,TOKMAK KG,42.83333,75.28333,817.0,nan,30.6,32.1,33.6,30.1,33.1,30.9,31.8,30.0,30.6,33.7,28.9,34.6,31.6,32.3
37054099999,MINERALNYYE VODY RS,44.22507,43.08189,321.2,nan,25.4,30.2,27.5,30.3,31.1,29.3,25.7,29.1,30.8,28.7,29.7,30.6,30.9,30.9
37193099999,TEBERDA RS,43.45000,41.73333,1325.0,nan,nan,nan,nan,nan,nan,nan,nan,22.7,24.4,nan,nan,nan,nan,nan
37463099999,GUNIB RS,42.40000,46.96667,1399.0,nan,nan,nan,nan,nan,nan,nan,nan,20.6,24.9,25.3,21.9,26.0,30.2,nan
37609099999,ASHOTSK AM,41.02944,43.87639,2015.0,nan,nan,nan,nan,nan,nan,nan,nan,nan,nan,24.8,21.5,25.3,26.7,20.8
37735299999,UYTASH RS,42.81682,47.65229,3.6,nan,25.9,29.7,26.9,28.4,32.3,30.6,26.9,29.0,30.3,30.6,30.7,32.5,35.0,30.6
37863099999,GYANDZHA AJ,40.73300,46.40000,330.0,nan,27.0,31.1,29.6,29.7,36.0,35.1,28.3,32.6,32.1,34.0,30.1,34.9,38.1,31.6
38008099999,TUSHCHIBEK KZ,44.15000,51.95000,240.0,nan,nan,nan,nan,nan,nan,nan,nan,nan,nan,nan,nan,nan,40.2,31.5
38141299999,TURKMENBASHI TX,40.06333,53.00722,85.0,nan,30.4,33.9,31.6,32.7,37.0,34.4,32.0,33.8,35.6,36.7,33.3,36.9,40.9,31.3
38202199999,BAIKADAM KZ,43.80000,69.90000,336.0,nan,nan,nan,nan,nan,nan,nan,nan,nan,nan,nan,nan,nan,35.8,36.6
38313099999,BUGUN KZ,43.71667,69.00000,405.0,nan,nan,nan,nan,nan,nan,nan,nan,nan,34.5,38.2,34.8,40.2,37.6,36.2
38353099999,BISHKEK KG,42.85000,74.53333,760.0,nan,31.0,32.8,33.7,30.2,33.3,31.2,33.6,30.5,31.0,34.3,29.9,35.7,32.7,33.4
38452099999,KARATAS KZ,41.86700,69.43300,637.0,nan,nan,nan,nan,nan,nan,nan,nan,nan,nan,nan,nan,nan,35.8,34.9
38567099999,NAVOI UZ,40.13333,65.35000,341.0,nan,nan,nan,nan,34.3,38.3,37.9,37.9,34.3,35.3,39.1,36.4,40.4,38.7,36.6
38647099999,GAZANDZHYK TX,39.25000,55.51667,31.0,nan,36.7,38.2,36.7,36.1,41.2,40.1,39.5,38.0,37.0,41.0,36.4,41.4,43.1,35.3
38725099999,MADRUSHKAT TI,39.43333,69.66667,2234.0,nan,25.4,22.5,nan,21.3,23.4,26.9,28.6,25.7,25.7,28.6,23.7,25.6,28.5,27.6
38838099999,ISAMBAJ TI,38.05000,68.35000,563.0,nan,38.3,38.7,40.2,35.9,39.4,39.9,40.4,38.1,37.8,41.9,38.5,40.3,39.0,38.8
38880099999,ASHGABAT TX,37.98681,58.36097,210.9,nan,36.4,37.8,35.8,35.9,41.1,39.9,39.4,37.8,37.4,42.0,37.0,41.8,41.5,35.8
38944099999,PARKHAR TI,37.48333,69.38333,448.0,nan,38.0,40.2,nan,36.2,39.2,39.0,40.4,39.0,37.9,41.1,39.0,39.5,38.7,38.4
40016099999,HASSAKAH SY,36.50000,40.75000,308.0,nan,nan,nan,nan,39.5,42.0,39.5,36.8,nan,nan,nan,nan,44.0,47.0,41.0
40153099999,HAR KNAAN ZEFAT IS,32.96667,35.50000,934.0,nan,28.6,28.3,30.7,28.6,29.8,28.7,29.4,28.1,30.3,29.7,30.1,33.8,30.1,29.7
40199099999,EILAT IS,29.56128,34.96008,12.8,nan,40.0,38.9,40.9,39.9,40.1,39.2,40.4,39.4,41.7,39.5,40.1,42.2,40.4,40.5
40356099999,TURAIF SA,31.69268,38.73120,854.4,nan,35.9,34.3,35.3,35.6,38.3,36.3,35.5,37.4,37.0,37.6,35.4,41.4,39.1,36.7
40405099999,GASSIM SA,26.30000,43.76667,648.0,nan,41.9,42.1,43.5,43.9,43.6,42.4,44.0,42.9,43.6,44.1,43.5,46.0,46.4,44.7
40439099999,YENBO SA,24.14424,38.06335,7.9,nan,41.3,37.5,40.5,40.9,42.3,37.5,41.8,43.9,42.4,42.3,40.3,41.9,42.7,39.2
40582099999,KUWAIT INTERNATIONAL KU,29.22657,47.96893,62.8,nan,45.3,45.5,44.8,44.9,46.9,43.5,44.4,45.6,46.6,47.8,46.3,47.9,48.3,47.2
40621099999,KIRKUK AB IZ,35.46948,44.34893,323.4,nan,40.6,42.1,nan,40.6,43.5,41.6,39.8,42.1,44.9,44.5,46.1,46.6,46.4,42.7
40637099999,KHANAQIN IZ,34.35000,45.38333,202.0,nan,nan,nan,nan,nan,44.8,nan,42.0,43.8,47.0,45.5,44.8,48.6,48.1,46.1
40656099999,KERBELA IZ,32.56667,44.05000,29.0,nan,nan,nan,nan,nan,44.6,41.9,42.2,42.2,46.2,44.6,44.4,48.5,46.4,44.7
40674099999,SAMAWA IZ,31.26667,45.26667,6.0,nan,nan,nan,nan,nan,nan,nan,42.7,41.7,46.3,45.2,44.6,48.4,46.6,44.9
40703699999,LAMERD IR,27.37274,53.18879,409.9,nan,nan,nan,nan,nan,45.0,43.6,45.2,45.1,41.2,42.0,nan,46.4,46.5,47.6
40718099999,ANZALI IR,37.46667,49.46667,-26.0,nan,26.6,28.2,26.3,27.9,31.5,31.0,25.5,29.7,28.4,31.8,30.1,31.3,34.3,29.1
40735099999,GONBAD GHABUS IR,37.25000,55.10000,32.6,nan,31.0,34.5,32.3,nan,39.0,35.4,34.5,36.7,36.3,nan,34.1,40.1,nan,34.6
40757099999,SEMNAN IR,35.59109,53.49509,1117.1,nan,37.6,38.8,37.0,nan,41.4,41.5,39.0,37.7,35.5,40.7,38.6,38.8,39.1,38.3
40780699999,HAMADAN IR,34.86700,48.55000,1801.0,nan,33.9,35.4,30.4,33.2,37.5,36.6,34.6,35.5,33.8,37.7,34.7,35.4,35.6,35.0
40785099999,KASHAN IR,33.89533,51.57704,1056.1,nan,39.6,41.2,39.0,38.2,43.2,42.9,41.7,40.6,40.2,43.1,40.9,41.0,41.9,41.9
40818099999,ABADEH IR,31.18333,52.66667,2004.0,nan,35.3,35.3,33.5,nan,36.0,36.1,34.4,34.8,nan,33.8,36.1,34.4,32.6,37.0
40835499999,MINAB IR,27.12000,57.10000,27.0,nan,39.5,41.3,40.4,nan,39.0,37.9,41.5,39.6,39.1,nan,40.9,43.3,nan,40.7
40853099999,BAFT IR,29.23333,56.56667,2280.0,nan,34.0,33.3,32.3,nan,34.2,33.3,32.9,33.4,31.5,32.8,33.7,32.6,32.3,35.4
40883099999,BANDAR LENGEH IR,26.53200,54.82485,20.4,nan,36.8,36.9,36.9,nan,37.2,35.5,39.4,38.1,38.5,38.1,38.2,38.9,38.9,38.7
41024099999,KING ABDULAZIZ INTERNATIONAL SA,21.67956,39.15654,14.6,nan,41.3,40.5,41.0,38.8,40.3,40.6,40.3,36.9,39.8,36.3,38.3,41.0,36.4,37.7
41136099999,SHARURAH SA,17.46688,47.12143,720.2,nan,43.1,42.2,44.5,43.6,43.5,43.7,43.2,41.6,44.2,42.9,43.7,43.9,43.6,44.7
41176099999,UMM SAID QA,24.95000,51.56667,5.0,nan,nan,nan,nan,nan,nan,nan,40.0,39.3,40.9,nan,nan,nan,nan,43.4
41216399999,DELMA AE,24.50994,52.33522,25.0,nan,nan,nan,nan,42.6,nan,nan,41.0,39.9,nan,nan,nan,nan,nan,45.9
41250099999,SUNAYNAH MU,23.71667,55.90000,257.0,nan,nan,nan,nan,nan,nan,nan,nan,45.7,44.3,45.0,46.0,48.0,46.1,nan
41263099999,BAHLA MU,22.91222,57.25722,592.0,nan,43.2,43.6,42.1,43.8,42.7,42.7,44.0,42.0,40.0,42.7,44.7,44.2,44.4,nan
41276099999,UMZAMAIM MU,20.80000,57.11667,126.0,nan,nan,nan,nan,nan,nan,nan,nan,43.6,40.8,44.0,44.6,45.3,43.3,nan
41304099999,MARMUL MU,18.13333,55.18333,273.0,nan,43.2,42.9,42.5,45.4,43.5,nan,nan,nan,nan,43.5,44.7,44.7,43.4,nan
41518099999,BUNJI PK,35.66667,74.63333,1470.0,nan,nan,nan,nan,nan,nan,nan,nan,nan,nan,nan,nan,nan,nan,nan
41536099999,BALAKOT PK,34.38333,73.35000,981.0,nan,nan,32.4,33.5,33.8,33.4,33.0,38.1,33.3,31.8,33.3,34.0,33.6,32.0,36.6
41600099999,SIALKOT PK,32.50000,74.53333,256.0,nan,37.2,34.8,34.0,38.4,37.1,33.6,39.6,36.7,34.6,35.8,34.1,35.9,34.3,39.5
41685099999,BAR KHAN PK,29.88333,69.71667,1098.0,nan,37.2,35.1,36.8,36.2,34.8,35.0,40.1,35.1,33.8,33.7,36.9,35.1,36.1,36.2
41739099999,PANJGUR PK,26.95455,64.13252,1002.5,nan,40.9,39.4,41.6,39.6,40.9,38.6,42.2,40.1,38.6,39.2,41.5,39.4,40.5,40.2
41785099999,BADIN PK,24.63333,68.90000,11.0,nan,38.6,35.4,36.0,39.4,38.5,36.6,37.3,35.7,35.9,35.9,35.6,34.4,35.9,37.4
41907099999,ISHURDI BG,24.15250,89.04945,13.7,nan,33.8,33.1,30.5,33.0,33.9,32.0,32.2,34.6,32.7,34.0,32.3,31.7,33.6,33.6
41941099999,CHANDPUR BG,23.26667,90.70000,7.0,nan,nan,nan,nan,nan,nan,30.2,32.7,33.0,31.5,33.4,31.2,32.1,31.9,32.8
41964099999,SANDWIP BG,22.48333,91.43333,6.0,nan,nan,nan,nan,nan,nan,nan,32.0,31.9,30.7,31.7,30.5,28.8,30.5,31.1
42045099999,BANIHAL IN,33.50000,75.16667,1630.0,nan,nan,nan,nan,nan,nan,nan,nan,nan,nan,nan,29.7,29.2,26.7,30.4
42105099999,CHANDIGARH IAFB IN,30.73333,76.88333,347.0,nan,nan,nan,nan,nan,nan,nan,nan,nan,nan,nan,35.9,36.1,33.9,38.3
42181099999,INDIRA GANDHI INTERNATIONAL IN,28.56650,77.10309,236.8,nan,39.4,36.3,34.4,37.4,34.6,35.7,39.3,35.4,36.4,36.9,37.4,35.3,37.4,40.4
42328099999,JAISALMER IN,26.90000,70.91667,231.0,nan,43.4,41.0,40.1,42.1,40.5,39.5,42.5,40.9,38.7,39.5,40.1,39.3,38.1,42.2
42403099999,COOCH BEHAR IN,26.33333,89.46667,43.0,nan,nan,nan,nan,nan,nan,nan,nan,nan,nan,nan,nan,nan,nan,34.4
42488099999,CHAPRA IN,25.78333,84.73333,58.0,nan,nan,nan,nan,nan,nan,nan,nan,nan,nan,nan,nan,nan,nan,nan
42559099999,GUNA IN,24.65000,77.31667,478.0,nan,34.4,28.0,32.1,37.1,34.6,33.7,36.6,nan,39.3,35.6,31.5,32.2,34.9,31.2
42647099999,AHMEDABAD IN,23.07724,72.63465,57.6,nan,34.2,31.4,34.1,39.5,33.7,38.2,36.5,33.4,40.0,37.7,36.1,32.7,35.9,35.1
42705699999,BANGALURU INTERNATIONAL AIRPORT IN,13.20000,77.70000,915.0,nan,nan,nan,nan,27.6,27.0,27.3,29.4,28.0,32.7,33.7,28.0,29.1,28.4,30.4
42763099999,HOSHANGABAD IN,22.76667,77.76667,302.0,nan,nan,nan,nan,nan,nan,nan,nan,nan,nan,nan,30.7,31.8,31.4,28.3
42838099999,BHAUNAGAR IN,21.75000,72.20000,5.0,nan,nan,nan,nan,nan,nan,nan,nan,nan,nan,nan,34.5,35.7,36.0,34.1
42895099999,BALASORE IN,21.51667,86.93333,20.0,nan,33.5,30.6,32.3,31.8,32.0,31.1,32.7,31.8,32.1,34.4,31.1,31.6,32.8,31.7
42946099999,BRAMHAPURI IN,20.60000,79.85000,229.0,nan,nan,nan,nan,nan,nan,nan,nan,nan,nan,nan,nan,nan,32.9,29.0
43029099999,CHANDRAPUR IN,19.96667,79.30000,193.0,nan,nan,nan,nan,nan,nan,nan,nan,nan,nan,nan,nan,nan,31.4,30.6
43110099999,RATNAGIRI IN,16.98333,73.33333,67.0,nan,28.6,29.0,30.1,27.8,29.2,29.2,29.1,28.6,30.4,31.3,28.0,30.1,28.6,29.6
43181099999,VIJAYAWADA IN,16.53043,80.79685,25.0,nan,nan,nan,nan,nan,29.2,34.0,35.1,36.4,39.6,36.9,34.2,35.6,36.2,35.5
43201199999,HUBLI IN,15.35000,75.08333,661.3,nan,nan,nan,nan,nan,nan,nan,nan,nan,nan,nan,nan,nan,27.6,nan
43257099999,AGUMBE EMO IN,13.50000,75.08333,659.0,nan,nan,nan,nan,nan,nan,nan,nan,nan,nan,nan,23.8,nan,nan,nan
43314099999,KOZHIKODE IN,11.25000,75.78333,5.0,nan,31.1,29.8,30.7,27.2,29.3,31.1,31.7,30.0,32.8,33.9,31.0,30.9,33.3,32.6
43348099999,ATIRAMAPATTINAM IN,10.33333,79.38333,6.0,nan,nan,nan,nan,nan,nan,nan,nan,nan,nan,nan,35.1,38.4,35.5,34.6
43399099999,PARO BT,27.40319,89.42461,2234.8,nan,nan,nan,nan,nan,nan,nan,24.0,26.0,25.9,24.9,24.0,25.6,28.0,30.7
43444099999,KANDY CE,7.33333,80.63333,477.0,nan,nan,29.1,29.5,27.0,28.0,29.3,28.1,27.1,28.6,29.2,30.2,29.2,29.0,30.8
43497099999,HAMBANTOTA CE,6.11667,81.13333,20.0,nan,31.4,32.2,29.5,32.1,30.7,33.7,30.4,31.8,34.9,34.7,35.6,35.1,33.7,33.0
44213099999,BARUUNTURUUN MG,49.65000,94.40000,1232.0,nan,27.3,25.7,26.2,24.7,26.5,21.3,25.7,25.4,22.5,26.2,29.1,24.5,21.0,25.0
44229099999,TARIAT MG,48.08333,99.55000,2041.0,nan,23.6,21.3,20.2,20.1,19.8,16.5,21.0,21.1,19.2,22.4,22.7,19.3,17.9,20.1
44256099999,DASHBALBAR MG,49.55000,114.40000,705.0,nan,29.0,29.3,25.4,23.5,27.4,23.4,27.3,24.8,21.9,29.8,34.4,31.4,25.1,25.4
44285099999,HUJIRT MG,46.90000,102.76667,1662.0,nan,27.7,25.5,20.8,25.2,25.2,19.2,25.2,24.0,22.2,27.6,25.0,23.8,21.0,23.9
44305099999,BARUUN URT MG,46.68333,113.28333,981.0,nan,29.2,31.3,26.6,28.1,30.2,22.9,27.1,27.1,26.5,29.6,33.6,32.5,29.2,25.9
44348099999,BAYAN DOBO SUMA MG,44.56667,107.18333,1093.0,nan,29.3,29.1,27.2,28.0,29.7,22.7,28.5,29.7,28.9,30.0,32.3,30.1,28.5,26.8
44409099999,DHANGADHI ATARIYA NP,28.80000,80.55000,187.0,nan,nan,nan,nan,nan,nan,nan,nan,nan,33.2,32.5,32.5,31.3,30.6,34.9
44474099999,TAPLEJUNG NP,27.35000,87.66667,1732.0,nan,nan,nan,nan,nan,nan,nan,nan,nan,25.5,26.7,24.8,26.1,22.0,27.6
46686099999,CHIANG KAI SHEK INTERNATIONAL TW,25.07773,121.23282,32.6,nan,34.9,33.3,33.0,32.3,33.9,32.4,32.7,33.9,33.9,34.4,34.3,34.0,35.1,33.1
47016099999,HYESAN KN,41.40000,128.16667,714.0,nan,27.9,25.2,27.9,24.3,26.6,26.4,27.5,26.7,29.8,23.2,26.2,28.2,26.0,26.4
47039099999,HUICHON KN,40.16667,126.25000,155.0,nan,29.2,27.2,26.8,27.3,29.0,28.8,28.7,28.6,31.7,28.9,27.7,31.9,28.7,29.4
47067099999,SINGYE KN,38.50000,126.53333,97.0,nan,25.8,27.5,25.6,27.6,29.6,26.7,28.0,28.3,29.7,30.2,25.4,28.6,26.8,30.8
47098099999,DONGDUCHEON KS,37.90000,127.06667,112.0,nan,26.5,26.3,27.9,28.5,29.3,28.3,27.6,29.7,30.4,29.8,27.5,29.9,27.1,30.8
47107099999,GANGNEUNG KS,37.75356,128.94362,10.7,nan,nan,nan,nan,24.1,nan,nan,nan,nan,nan,nan,nan,nan,27.5,nan
47112099999,INCHEON KS,37.46667,126.63333,70.0,nan,24.7,24.5,25.4,26.0,26.7,25.4,24.8,26.8,27.9,26.8,25.2,27.6,27.3,28.1
47122399999,KOTAR RANGE KS,37.10000,128.90000,792.0,nan,nan,nan,nan,nan,nan,nan,nan,nan,nan,nan,nan,nan,23.0,nan
47134099999,YECHEON KS,36.63193,128.35485,107.9,nan,nan,nan,nan,26.4,nan,nan,nan,nan,nan,nan,nan,nan,26.5,nan
47145099999,CHEONAN KS,36.76250,127.29278,81.5,nan,nan,nan,nan,28.4,29.7,29.3,28.8,29.7,29.6,28.1,27.1,28.7,27.2,29.0
47159099999,BUSAN KS,35.10000,129.03333,71.0,nan,23.3,23.8,25.9,26.3,27.3,26.5,27.4,25.8,25.3,24.8,25.5,26.5,25.6,26.3
47172099999,GOCHANG KS,35.34889,126.59889,55.0,nan,nan,nan,nan,28.6,30.2,28.6,28.5,28.4,27.1,26.6,28.3,29.7,27.7,28.9
47189099999,SEOGWIPO KS,33.25000,126.56667,51.0,nan,26.6,26.4,26.7,26.9,28.7,27.1,26.5,27.0,25.5,24.3,26.3,27.7,26.4,24.7
47412099999,SAPPORO JA,43.06667,141.33333,26.2,nan,24.1,23.8,27.9,23.8,25.5,26.0,25.7,25.9,25.1,22.1,23.5,26.3,21.5,23.3
47428099999,ESASHI JA,41.86667,140.11667,12.1,nan,21.9,21.9,22.7,22.4,25.1,22.6,23.8,24.9,24.0,20.6,21.7,21.1,22.1,22.4
47479099999,SAPPORO JA,43.11614,141.38022,7.6,nan,23.3,23.1,26.9,22.9,26.0,24.9,24.9,26.0,24.9,20.6,22.4,25.4,20.9,22.7
47542099999,AOMORI JA,40.73472,140.69083,202.4,nan,19.0,21.6,26.1,23.4,25.1,24.7,23.7,25.3,24.4,23.6,22.3,25.1,23.0,22.4
47576099999,MUTSU JA,41.28333,141.21667,4.8,nan,17.5,21.5,26.4,23.1,24.8,25.6,22.3,25.3,23.9,23.3,21.9,25.4,22.3,21.2
47590099999,SENDAI JA,38.26667,140.90000,43.8,nan,24.0,22.7,26.5,24.8,28.2,28.4,23.8,26.0,25.2,24.9,25.2,29.0,27.9,24.8
47606099999,FUSHIKI JA,36.80000,137.05000,13.1,nan,26.0,24.1,30.1,25.5,27.0,28.4,26.9,31.0,26.1,25.2,31.1,28.2,27.1,26.7
47624099999,MAEBASHI JA,36.40000,139.06667,114.4,nan,28.6,28.0,30.1,26.7,30.4,32.8,28.0,28.9,26.4,24.0,30.9,30.7,30.4,26.5
47638099999,KOFU JA,35.66667,138.55000,281.5,nan,28.8,28.8,30.3,28.7,31.2,32.8,27.8,29.3,28.5,23.9,34.6,30.6,31.4,27.4
47653099999,IRAKO JA,34.63333,137.10000,7.7,nan,27.9,27.9,29.2,27.4,29.7,30.8,27.7,28.7,27.8,23.4,32.5,31.6,28.3,26.6
47668099999,AJIRO JA,35.05000,139.10000,67.9,nan,28.4,26.0,28.1,27.2,29.5,31.0,26.6,27.5,26.0,24.0,30.4,29.7,30.2,25.2
47678099999,HACHIJOJIMA JA,33.11667,139.78333,152.6,nan,26.2,25.9,26.2,25.8,25.6,27.9,26.0,25.0,24.4,25.9,27.6,25.5,29.0,24.6
47690099999,NIKKO JA,36.73333,139.50000,1294.0,nan,20.8,19.0,21.3,19.3,20.9,23.6,19.8,21.8,19.0,17.5,24.5,22.3,22.1,18.8
47741099999,MATSUE JA,35.45000,133.06667,22.4,nan,25.8,25.5,29.5,27.6,27.9,28.0,27.5,30.2,26.0,25.6,31.3,30.0,27.7,26.9
47756099999,TSUYAMA JA,35.06667,134.01667,147.8,nan,28.0,27.5,30.3,28.1,29.1,28.0,26.7,28.9,27.1,25.9,31.7,30.2,26.9,28.7
47770099999,KOBE JA,34.70000,135.21667,30.6,nan,27.5,27.3,30.0,27.9,29.8,29.1,28.0,28.0,27.2,25.4,31.6,29.0,28.3,28.0
47783099999,IWAMI JA,34.67639,131.79028,56.1,nan,25.0,25.7,28.9,26.3,26.6,27.4,26.6,28.7,24.4,22.7,30.6,29.1,26.6,24.7
47800099999,IZUHARA JA,34.19778,129.29194,3.6,nan,24.8,26.0,27.5,26.9,28.4,27.8,26.7,26.8,25.2,24.3,29.3,28.6,25.8,26.7
47814099999,HITA JA,33.31667,130.93333,84.4,nan,29.0,28.2,32.6,29.7,29.9,29.3,28.4,30.6,27.6,26.4,34.7,30.9,29.6,28.8
47830099999,MIYAZAKI JA,31.93333,131.41667,15.0,nan,29.2,30.4,32.4,28.7,30.8,30.3,31.3,30.9,27.4,23.7,32.6,32.5,28.9,26.0
47851099999,KAGOSHIMA JA,31.80340,130.71941,276.1,nan,26.9,27.0,30.3,26.9,26.7,26.9,27.3,28.4,26.6,22.7,30.1,29.0,26.4,26.6
47880099999,TAKAMATSU JA,34.21417,134.01556,185.0,nan,26.6,25.7,29.7,27.9,28.3,28.4,26.9,30.7,26.4,24.1,32.3,29.4,27.7,26.6
47897099999,SUKUMO JA,32.91667,132.70000,10.9,nan,26.9,27.5,29.3,27.6,28.5,28.9,28.8,28.4,27.4,24.8,30.4,28.8,28.3,26.5
47929099999,KUMEJIMA JA,26.36351,126.71381,7.0,nan,33.4,33.2,32.5,31.7,31.5,31.5,32.3,33.2,33.1,33.0,33.3,32.3,29.0,30.7
47971042402,CHICHIJIMA JA,27.09200,142.19100,8.0,nan,30.8,29.0,28.3,30.0,29.7,31.0,29.3,28.2,30.7,31.0,31.7,31.3,29.8,30.7
48025099999,KALEWA BM,23.20000,94.30000,109.0,nan,32.3,31.6,29.2,nan,33.6,32.9,35.0,33.4,34.7,37.8,32.6,32.1,34.6,32.9
48053099999,MEIKTILA BM,20.83333,95.83333,220.0,nan,32.9,32.1,30.3,30.0,35.1,32.5,35.8,34.7,34.9,35.0,31.0,31.1,33.1,31.8
48078099999,TOUNGOO BM,18.91667,96.46667,49.0,nan,29.1,nan,28.7,nan,33.3,30.8,30.7,31.3,30.7,31.6,29.1,27.3,32.1,29.2
48101099999,PHYAPON BM,16.26667,95.66667,2.1,nan,nan,nan,nan,nan,nan,nan,30.0,30.4,31.1,28.9,29.9,28.3,29.9,29.9
48303199999,CHIANG RAI INTERNATIONAL TH,19.95234,99.88293,390.1,nan,30.6,30.9,29.6,27.6,32.4,30.9,30.9,32.7,31.0,34.1,29.1,29.6,31.9,31.0
48328099999,LAMPANG TH,18.27093,99.50417,247.2,nan,32.9,33.7,33.5,30.5,35.0,33.4,32.8,35.0,35.0,36.8,30.7,32.3,34.5,33.6
48354099999,UDON THANI TH,17.38644,102.78825,176.5,nan,32.7,33.4,31.8,31.0,34.5,33.4,31.6,33.6,34.2,38.8,30.0,31.7,34.6,31.4
48375099999,MAE SOT TH,16.69986,98.54506,210.3,nan,29.1,29.1,30.1,29.7,32.9,31.4,30.9,32.9,32.2,31.9,29.9,30.3,30.8,29.3
48385099999,UMPHANG TH,16.01667,98.86667,460.0,nan,27.9,27.4,28.5,28.5,32.7,29.7,28.6,31.4,31.3,29.9,29.3,28.9,29.6,27.6
48407099999,UBON RATCHATHANI TH,15.25128,104.87023,123.7,nan,31.8,31.5,33.0,32.8,34.8,33.9,31.1,34.5,34.0,36.8,31.5,32.2,34.7,31.8
48420099999,SAMUTPRAKAN AGROMET TH,13.51667,100.75000,3.0,nan,nan,nan,nan,31.2,31.7,31.2,31.6,32.5,33.0,32.3,31.0,31.9,31.9,31.2
48433099999,SURIN AGROMET TH,14.88333,103.45000,145.0,nan,nan,nan,33.6,33.3,34.9,33.8,33.3,35.0,34.0,36.7,32.2,32.9,34.6,32.3
48454099999,BANGKOK PORT TH,13.70000,100.56667,6.0,nan,nan,nan,nan,nan,32.5,32.6,33.4,32.4,34.5,34.7,33.0,33.8,33.8,31.4
48464099999,RATCHA BURI TH,13.48333,99.78333,5.0,nan,nan,nan,33.5,32.2,33.3,33.0,34.1,34.1,34.2,34.1,32.5,33.6,33.8,30.7
48501099999,KHLONG YAI TH,11.76667,102.88333,4.0,nan,27.9,28.3,30.7,32.0,32.5,32.0,30.5,31.6,30.6,31.6,29.2,31.4,29.8,29.8
48557099999,CHAWANG TH,8.43333,99.51667,30.0,nan,nan,nan,32.9,34.0,32.7,33.5,32.3,30.7,32.6,32.8,33.5,33.1,32.5,33.7
48566099999,KO LANTA TH,7.53333,99.05000,3.0,nan,32.1,31.5,30.6,31.5,31.0,31.6,30.7,30.3,31.0,31.0,32.5,31.8,31.3,32.1
48600099999,LANGKAWI INTERNATIONAL MY,6.32973,99.72867,8.8,nan,31.6,32.1,30.1,31.6,31.0,30.4,30.3,30.9,31.6,31.6,32.6,31.5,30.8,32.2
48620099999,SITIAWAN MY,4.21667,100.70000,8.0,nan,32.4,33.2,31.6,32.6,33.0,32.4,32.3,32.5,32.8,33.4,33.9,32.1,31.6,33.7
48694099999,PAYA LEBAR SN,1.36042,103.90953,19.8,nan,31.7,31.9,30.4,31.0,31.7,31.6,30.4,31.7,31.7,31.3,33.3,31.6,31.1,32.7
48825099999,HA DONG VM,20.96667,105.76667,7.9,nan,nan,nan,nan,nan,nan,nan,nan,34.3,33.5,35.4,31.9,32.4,38.2,34.6
48848099999,DONG HOI VM,17.48333,106.60000,8.0,nan,32.1,33.3,34.8,32.4,36.2,35.7,32.2,33.7,36.3,35.0,31.9,33.1,37.1,33.0
48894099999,NHA BE VM,10.65000,106.71667,3.6,nan,nan,nan,nan,nan,nan,nan,nan,33.3,33.3,33.6,33.1,32.8,32.4,31.4
48921099999,BOUNNEUA LA,21.63333,101.88333,923.0,nan,26.0,21.5,22.7,22.2,29.9,26.5,25.4,25.3,26.2,29.1,25.4,26.1,28.1,26.2
48941099999,PHONHONG LA,18.46667,102.40000,179.0,nan,nan,31.2,30.8,28.5,32.6,31.3,30.4,32.7,32.2,36.8,28.8,30.9,34.1,30.3
48991099999,PHNOM PENH INTERNATIONAL CB,11.54656,104.84414,12.2,nan,30.4,30.0,32.3,31.9,33.1,33.3,33.6,33.6,35.1,35.7,33.9,34.4,33.6,33.1
50632099999,BUGT CH,48.76667,121.91667,739.0,nan,27.5,27.1,23.1,23.3,24.4,25.1,25.0,20.7,23.5,25.0,27.0,29.4,23.1,20.8
50915099999,ULIASTAI CH,45.51667,116.96667,840.0,nan,28.3,31.1,28.3,28.7,30.1,26.0,26.3,26.0,28.6,26.6,33.6,30.4,30.3,24.7
51133099999,TACHENG CH,46.73333,83.00000,535.0,nan,30.9,29.0,31.6,30.8,32.0,28.8,27.3,27.0,26.6,28.0,27.4,30.8,29.2,30.9
51495099999,SHISANJIANFANG CH,43.21667,91.73333,732.0,nan,36.2,34.8,35.8,32.2,34.8,32.9,33.4,34.2,33.7,31.8,36.4,35.9,34.1,36.8
51765099999,TIKANLIK CH,40.63333,87.70000,847.0,nan,34.2,35.6,37.3,32.0,34.7,34.1,35.3,35.2,35.0,33.2,37.4,35.3,31.8,34.3
52378099999,GUAIZIHU CH,41.36667,102.36667,960.0,nan,36.9,34.8,36.6,32.6,35.0,31.0,34.1,34.8,33.8,34.1,37.9,35.2,32.8,34.5
52737099999,DELINGHA CH,37.36667,97.36667,2982.0,nan,21.3,22.4,21.9,21.1,21.5,21.0,20.4,26.2,24.2,17.4,27.6,22.2,18.4,20.6
53068099999,ERENHOT CH,43.65000,112.00000,966.0,nan,31.6,33.6,32.4,30.8,33.6,27.2,27.8,32.0,31.9,29.2,32.9,32.7,31.1,26.9
53480099999,JINING CH,41.03333,113.06667,1416.0,nan,28.3,28.3,27.2,28.0,29.5,25.0,28.8,26.3,25.9,26.1,26.5,28.8,27.7,23.3
53646099999,YULIN CH,38.26667,109.78333,1158.0,nan,32.3,29.4,30.8,31.3,30.5,26.0,29.2,30.7,28.9,29.3,28.9,30.0,28.3,30.8
53863099999,JIEXIU CH,37.03333,111.91667,745.0,nan,32.4,30.5,32.4,32.6,32.7,26.4,31.7,32.4,30.0,32.7,31.0,32.7,31.6,34.8
54094099999,MUDANJIANG CH,44.50000,129.66667,306.5,nan,31.8,25.4,29.8,26.8,27.7,28.1,28.1,27.5,31.8,24.4,28.4,29.7,22.9,25.5
54218099999,CHIFENG CH,42.30000,118.83333,567.0,nan,28.0,31.2,29.8,29.6,31.2,27.7,29.0,29.3,29.8,25.4,30.7,28.6,29.1,26.5
54342099999,SHENYANG CH,41.73333,123.51667,43.0,nan,29.0,27.2,27.7,26.7,29.2,29.0,30.0,28.7,30.5,26.8,29.6,31.9,30.3,29.9
54471099999,YINGKOU CH,40.66667,122.20000,4.0,nan,27.1,27.0,26.3,27.7,29.6,27.8,28.9,28.3,28.0,26.1,27.6,29.2,27.7,28.2
54662099999,ZHOUSHUIZI CH,38.96567,121.53860,32.6,nan,26.9,27.6,25.5,28.3,29.7,27.3,27.7,30.0,28.9,27.4,27.7,29.9,27.1,30.0
54843099999,WEIFANG CH,36.76667,119.18333,22.0,nan,29.8,30.5,31.6,32.3,33.4,30.4,31.8,32.8,31.9,30.1,30.4,32.4,31.2,32.5
55472099999,XAINZA CH,30.95000,88.63333,4670.0,nan,16.6,15.5,15.6,19.5,20.4,15.5,16.7,16.0,16.4,16.0,15.6,16.0,18.2,16.4
56033099999,MADOI CH,34.91667,98.21667,4273.0,nan,14.5,13.6,12.5,15.5,17.1,13.8,13.1,15.8,13.9,11.5,14.5,11.6,13.0,10.2
56146099999,GARZE CH,31.61667,100.00000,3394.0,nan,23.3,24.3,19.9,21.2,24.7,20.6,21.4,21.2,21.9,21.2,19.5,19.0,23.3,18.4
56294099999,SHUANGLIU CH,30.57853,103.94709,495.3,nan,31.4,29.4,30.7,26.4,30.9,29.4,29.9,31.4,29.1,28.7,29.9,32.3,28.9,28.6
56651099999,LIJING CH,26.83333,100.21667,2382.0,nan,24.6,25.5,22.8,22.8,24.9,24.2,23.5,23.0,25.2,25.4,21.2,20.7,24.4,22.0
56786099999,ZHANYI CH,25.58333,103.83333,1900.0,nan,25.7,26.4,21.6,22.4,26.6,26.4,25.9,23.9,25.4,23.4,24.0,23.5,26.4,25.7
56977099999,JIANGCHENG CH,22.61667,101.81667,1121.0,nan,27.8,27.4,25.7,24.6,28.8,27.4,28.1,27.8,28.0,28.6,27.4,26.2,26.3,27.5
57131099999,JINGHE CH,34.43333,108.96667,411.0,nan,nan,27.5,32.3,36.1,34.9,29.4,30.4,33.3,34.4,31.6,33.8,34.1,28.8,33.5
57306099999,LANGZHONG CH,31.58333,105.96667,385.0,nan,30.5,29.5,31.2,29.0,31.4,32.1,28.6,31.9,32.5,29.2,33.6,32.9,28.8,30.0
57494099999,TIANHE CH,30.78376,114.20810,34.4,nan,35.0,35.1,32.8,32.9,34.3,34.3,34.8,33.8,29.0,29.3,27.1,32.2,30.7,32.6
57662099999,CHANGDE CH,29.05000,111.68333,35.0,nan,36.3,36.1,33.5,30.2,35.0,35.7,34.9,33.5,28.4,26.9,25.7,31.6,28.5,31.5
57816099999,LONGDONGBAO CH,26.53852,106.80070,1138.7,nan,28.6,26.9,24.7,23.4,28.5,27.4,27.3,28.9,28.0,23.7,27.6,28.3,29.2,25.6
57972099999,CHENZHOU CH,25.73333,112.96667,368.8,nan,34.5,34.1,34.4,31.6,35.5,35.3,34.4,34.6,34.1,26.7,29.4,28.4,31.7,29.2
58221099999,BENGBU CH,32.85000,117.30000,28.0,nan,30.2,28.4,33.2,31.8,34.2,32.1,29.6,31.6,28.1,27.4,26.5,30.3,27.8,nan
58362099999,SHANGHAI CH,31.40000,121.46667,4.0,nan,33.0,32.3,36.1,31.4,34.0,35.2,35.5,34.7,27.0,24.8,31.6,33.7,29.5,27.9
58556099999,SHENGXIAN CH,29.60000,120.81667,108.0,nan,35.0,36.3,36.5,31.3,33.3,36.6,36.8,36.2,31.3,23.8,34.8,34.3,32.2,28.5
58752099999,RUIAN CH,27.78333,120.65000,38.0,nan,34.4,34.9,33.5,30.6,33.6,34.2,33.9,34.2,31.8,24.9,32.6,31.5,31.7,29.6
58968099999,TAIBEI CH,25.03333,121.51667,9.0,nan,35.1,33.6,33.4,32.8,36.0,33.9,34.4,34.3,34.6,34.7,33.6,33.7,34.4,34.0
59102099999,XUNWU CH,24.95000,115.65000,299.0,nan,34.0,32.4,32.5,30.6,33.8,33.2,33.1,32.8,34.2,29.8,33.5,30.6,31.7,32.2
59287199999,HUANGHUA CH,28.18916,113.21963,66.1,nan,35.3,35.4,34.7,30.0,33.9,34.9,35.6,35.0,31.0,26.6,29.9,32.1,32.1,32.3
59562099999,TAIDONG CH,22.75000,121.15000,10.0,nan,33.2,32.5,31.7,30.8,33.0,31.5,31.1,32.2,33.6,32.2,32.9,32.4,30.8,32.2
59845099999,DANXIAN CH,19.51667,109.58333,169.0,nan,31.8,32.6,33.6,33.3,36.3,35.4,32.8,33.0,34.6,35.5,33.6,33.0,36.0,32.9
60015099999,TENERIFE NORTE SP,28.48265,-16.34154,631.9,nan,21.1,19.5,20.3,25.6,21.7,23.0,21.6,23.6,22.3,23.4,19.8,21.7,22.9,22.4
60096099999,VILLA CISNEROS MIL WI,23.70000,-15.86667,10.0,nan,nan,nan,24.3,nan,nan,nan,nan,nan,nan,nan,nan,nan,27.8,26.6
60150099999,BASSATINE MO,33.87907,-5.51513,576.1,nan,31.2,33.5,34.4,33.0,33.8,34.4,29.9,37.1,28.3,35.5,30.4,33.0,30.6,29.9
60252099999,AL MASSIRA MO,30.32500,-9.41307,76.2,nan,29.5,27.3,29.5,30.3,26.6,32.8,27.7,27.1,29.1,32.9,26.5,27.6,29.1,29.5
60351099999,FERHAT ABBAS AIRPORT AG,36.79514,5.87361,11.0,nan,32.2,29.2,31.4,32.4,28.9,32.6,30.7,26.5,29.8,34.5,30.2,30.8,29.9,31.3
60379099999,REGHAIA AG,36.76667,3.33333,162.2,nan,nan,nan,nan,nan,nan,nan,28.9,25.2,nan,nan,nan,nan,nan,nan
60419099999,MOHAMED BOUDIAF INTERNATIONAL AG,36.27603,6.62039,690.4,nan,36.2,33.5,37.3,36.2,33.2,34.5,36.3,32.1,35.8,36.2,35.7,32.1,37.8,37.9
60459199999,HASSI R MEL AG,32.91700,3.30000,794.0,nan,40.9,38.7,39.6,40.1,37.8,39.6,41.4,35.6,41.3,35.9,40.5,33.6,43.2,40.2
60514099999,KSAR CHELLALA AG,35.16667,2.31667,801.0,nan,39.2,37.6,38.1,37.9,36.8,37.2,38.2,34.6,34.9,38.7,38.8,33.4,37.0,38.8
60545099999,LAGHOUAT AG,33.76402,2.92730,765.0,nan,41.0,38.4,39.1,39.7,37.1,38.6,40.3,35.1,39.4,36.0,40.0,33.9,42.8,39.4
60581099999,OUED IRARA AG,31.67297,6.14044,141.1,nan,46.1,43.1,43.8,44.6,42.5,44.1,46.1,39.6,45.6,38.8,44.1,37.7,48.3,44.1
60620199999,BORDJ MOKHTAR AG,21.33300,0.95000,398.0,nan,45.3,nan,42.1,nan,36.2,43.5,43.5,44.8,44.8,42.2,42.6,43.0,43.9,43.5
60663099999,MOULAY LACHEN AG,24.71667,4.65000,1054.0,nan,nan,nan,nan,nan,40.8,39.9,39.3,39.8,40.4,39.0,40.1,nan,41.5,39.1
60691099999,ANESBARAKA AG,19.43333,4.65000,477.0,nan,nan,nan,nan,nan,nan,nan,nan,nan,42.0,nan,nan,nan,nan,nan
60731099999,ENFIDHA TS,36.08333,10.43333,6.0,nan,nan,nan,nan,nan,31.3,32.0,30.6,30.0,28.8,30.6,31.1,31.3,31.1,33.5
60748099999,SIDI BOUZID TS,35.00000,9.48333,355.0,nan,38.9,36.0,40.0,39.6,36.2,37.6,38.9,34.6,38.7,34.8,37.8,34.5,40.9,39.2
60780099999,EL BORMA TS,31.70428,9.25462,252.1,nan,43.7,39.8,41.8,43.1,40.2,42.2,43.0,37.4,44.6,37.0,42.7,36.1,46.3,40.2
61080099999,MARADI NG,13.50253,7.12675,377.9,nan,37.9,34.5,34.6,37.7,34.0,35.8,32.8,35.3,35.7,37.8,35.9,33.0,34.0,35.1
61265099999,AMBODEDJO ML,14.51280,-4.07956,276.1,nan,38.8,35.4,35.6,38.3,38.4,nan,35.0,36.8,35.0,38.3,36.9,36.9,36.5,38.6
61415099999,NOUADHIBOU MR,20.93307,-17.02996,4.9,nan,29.0,28.7,28.7,29.2,30.1,26.3,29.2,28.5,30.6,26.1,28.7,29.2,27.6,27.9
61679099999,KAOLACK SG,14.14688,-16.05130,7.9,nan,35.5,37.1,32.8,35.1,35.9,36.5,34.8,36.9,35.9,37.4,36.4,34.9,35.0,36.1
61722099999,SAPU GA,13.56667,-15.93333,2.0,nan,nan,nan,nan,nan,36.2,nan,nan,nan,32.0,36.7,32.4,nan,nan,nan
61849099999,N ZEREKORE KONIA GV,7.73333,-8.83333,470.0,nan,28.7,28.0,nan,nan,nan,nan,nan,nan,nan,nan,30.0,nan,nan,nan
61976099999,SERGE FROLOW ILE TROMELIN TE,-15.88333,54.51667,13.0,nan,26.2,26.6,26.2,nan,26.5,nan,26.4,27.0,27.1,27.4,25.6,27.5,26.4,26.8
61998099999,PORT AUX FRANCAIS ILES KERGUELEN FS,-49.35000,70.25000,30.0,nan,5.8,4.1,2.5,1.6,7.2,8.1,2.4,4.9,6.1,3.5,7.3,7.6,6.2,4.9
62052599999,MITIGA LY,32.89408,13.27600,11.0,nan,nan,nan,nan,nan,28.7,nan,31.9,27.3,33.0,27.5,30.9,30.3,29.7,nan
62212099999,GHAT LY,25.14556,10.14265,699.8,nan,40.9,41.3,40.2,nan,39.2,nan,nan,35.2,nan,nan,nan,nan,nan,40.5
62360199999,BORG EL ARAB INTERNATIONAL EG,30.91767,29.69641,53.9,nan,30.4,30.7,31.1,30.3,28.7,nan,30.4,28.1,29.1,28.6,30.4,31.7,30.6,31.1
62417099999,SIWA EG,29.20000,25.48333,-15.0,nan,37.3,37.8,39.6,38.0,37.1,38.4,37.8,35.2,38.0,35.6,38.3,39.2,39.8,40.6
62463099999,HURGHADA INTERNATIONAL EG,27.17832,33.79944,15.8,nan,37.1,36.9,36.9,37.5,36.0,35.1,36.5,36.6,38.9,36.6,39.5,38.6,37.9,38.2
62730099999,KASSALA SU,15.38749,36.32884,509.3,nan,38.0,32.5,38.5,36.7,39.4,40.8,37.0,40.1,nan,nan,nan,nan,nan,nan
63170099999,EGAL INTERNATIONAL SO,9.51817,44.08876,1348.1,nan,31.2,nan,nan,nan,nan,nan,nan,nan,nan,nan,nan,29.2,29.5,31.0
63403099999,GORE ET,8.16667,35.55000,1974.0,nan,20.1,nan,nan,18.7,21.7,21.9,19.6,19.6,20.8,21.0,20.2,19.2,nan,nan
63612099999,LODWAR KE,3.12197,35.60869,522.7,nan,34.5,31.2,34.2,33.1,34.4,35.5,32.8,35.0,34.4,34.7,33.5,34.3,33.6,35.0
63674099999,KASESE UG,0.18333,30.10000,961.0,nan,34.1,26.4,nan,30.2,31.5,26.9,30.1,nan,nan,31.0,nan,nan,nan,nan
63714099999,NAKURU KE,-0.26667,36.10000,1901.0,nan,24.5,22.1,25.9,24.7,23.3,24.9,22.0,24.8,26.0,24.9,24.3,24.0,22.7,23.5
63742099999,NAIROBI WILSON KE,-1.32172,36.81483,1687.4,nan,nan,nan,nan,21.5,23.6,25.9,21.4,22.0,22.0,22.8,25.0,22.4,20.9,23.6
63832099999,TABORA AIRPORT TZ,-5.08333,32.83333,1190.0,nan,28.6,27.9,30.3,27.6,27.3,31.0,29.4,30.1,29.8,30.2,28.4,30.2,27.2,29.1
64006099999,GEMENA CG,3.23537,19.77126,420.0,nan,nan,nan,nan,nan,nan,nan,nan,nan,nan,nan,32.3,29.1,32.4,nan
64328099999,KOLWEZI CG,-10.76589,25.50571,1526.1,nan,nan,nan,nan,nan,nan,nan,nan,nan,nan,nan,nan,nan,nan,nan
64403099999,MAKABANA CF,-3.48333,12.61667,161.0,nan,nan,nan,nan,nan,nan,28.6,27.4,27.7,25.0,28.5,27.4,27.8,26.4,nan
64462099999,KELLE CF,0.10000,13.55000,408.0,nan,nan,nan,nan,nan,nan,27.8,nan,nan,nan,27.8,29.0,26.9,29.6,nan
64560099999,LASTOURSVILLE GB,-0.83333,12.71667,485.0,nan,26.0,27.0,nan,nan,nan,26.4,27.6,nan,nan,nan,28.0,25.9,27.5,26.9
64708599999,BILTINE CD,14.51667,20.90000,512.0,nan,nan,nan,nan,nan,nan,nan,nan,nan,nan,nan,nan,nan,nan,nan
64851099999,SALAK CM,10.45139,14.25736,424.0,nan,nan,nan,nan,33.2,32.7,nan,nan,nan,nan,35.3,nan,nan,31.0,33.2
65028099999,KATSINA NI,13.01667,7.68333,517.0,nan,nan,nan,33.0,nan,32.4,34.1,nan,nan,nan,35.0,nan,nan,nan,nan
65134099999,YAKUBU GOWON NI,9.63983,8.86905,1289.9,nan,nan,nan,nan,nan,nan,27.8,nan,nan,nan,nan,nan,nan,26.0,nan
65252099999,OWERRI NI,5.48333,7.00000,91.0,nan,nan,nan,nan,nan,nan,29.6,nan,nan,nan,nan,nan,nan,nan,nan
65352099999,MANGO SANSANNE TO,10.36667,0.46667,146.0,nan,34.2,31.1,31.2,32.0,32.8,32.4,30.7,32.9,33.2,32.7,33.0,30.7,31.6,33.6
65416099999,BOLE GH,9.03333,-2.48333,301.0,nan,nan,nan,nan,29.8,31.2,31.8,29.2,30.1,31.1,30.6,30.1,29.8,29.7,30.5
65457099999,AKIM ODA GH,5.93333,-0.98333,140.0,nan,nan,nan,28.5,30.4,29.8,nan,28.2,29.5,28.6,29.0,30.7,28.3,29.4,31.1
65501099999,DORI UV,14.03333,-0.03333,277.0,nan,37.9,35.8,34.2,37.7,38.9,37.9,34.5,35.7,35.8,39.2,38.4,35.6,34.8,36.1
65536099999,KORHOGO IV,9.38718,-5.55666,370.0,nan,nan,nan,nan,nan,nan,nan,nan,nan,nan,32.2,31.1,30.5,29.6,29.9
65592099999,TABOU IV,4.41667,-7.36667,21.0,nan,27.5,29.8,29.6,27.7,28.6,28.3,27.9,28.6,27.5,28.0,28.1,28.0,28.4,27.3
66215099999,MALANJE AO,-9.52509,16.31241,1179.0,nan,nan,nan,nan,nan,nan,nan,nan,nan,27.0,27.4,nan,25.8,27.7,28.7
67009099999,ARRACHART MA,-12.34940,49.29175,114.0,nan,30.0,29.4,29.6,30.1,29.4,29.7,29.5,30.5,30.0,31.0,29.9,31.3,29.7,30.6
67095099999,TOAMASINA MA,-18.10952,49.39254,6.7,nan,26.8,25.5,26.4,25.6,25.3,27.8,26.9,nan,26.3,27.2,25.4,26.5,27.0,26.8
67223099999,MONTEPUEZ MZ,-13.13333,39.03333,535.0,nan,24.2,nan,nan,nan,nan,nan,nan,nan,27.6,nan,nan,29.4,nan,28.7
67273099999,ANGOCHE MZ,-16.21667,39.90000,62.0,nan,25.7,27.0,nan,25.7,nan,nan,nan,nan,25.6,26.5,nan,26.8,27.5,27.2
67315099999,VILANKULO MZ,-22.01843,35.31330,14.0,nan,25.5,23.3,25.9,24.1,25.4,nan,23.8,24.0,24.1,23.6,nan,25.1,25.5,26.9
67781099999,MUTOKO ZI,-17.43192,32.18450,1204.0,nan,22.1,nan,nan,17.8,nan,nan,nan,22.0,24.4,21.1,23.3,21.1,21.2,nan
68004099999,OTJIWARONGO WA,-20.43000,16.67000,1475.0,nan,24.9,nan,12.6,22.9,nan,21.8,27.8,nan,26.3,26.1,26.7,25.2,23.4,26.2
68038099999,SUA PAN BC,-20.55336,26.11578,909.8,nan,25.3,24.4,25.9,19.5,nan,23.0,28.7,28.0,28.4,25.1,25.3,25.0,nan,26.9
68151099999,LEPHEPE BC,-23.36667,25.85000,1020.0,nan,nan,nan,nan,nan,nan,nan,26.8,25.2,23.4,24.0,nan,22.8,nan,26.4
68192099999,THOHOYANDOU SF,-22.96700,30.50000,600.0,nan,nan,nan,nan,nan,nan,nan,nan,nan,nan,nan,nan,nan,22.4,28.8
68257099999,PILANESBERG SF,-25.25000,27.21667,1086.0,nan,nan,nan,nan,nan,nan,nan,nan,nan,nan,23.9,21.6,23.7,20.9,24.6
68267799999,PIETERSBURG SF,-23.86667,29.43333,1222.0,nan,21.3,16.9,22.3,17.6,20.3,22.6,25.2,24.0,22.0,24.0,21.8,22.2,21.1,23.1
68290499999,KRUGER MPUMALANGA INTERNATIONAL SF,-25.38319,31.10560,862.3,nan,nan,nan,24.3,18.1,19.7,18.0,22.3,21.3,21.0,21.3,19.0,20.9,20.0,24.6
68320099999,WERDA BC,-25.26667,23.25000,1046.0,nan,24.1,19.8,nan,19.8,23.9,20.6,25.1,26.3,15.6,23.6,20.8,nan,nan,24.7
68342099999,OTTOSDAL SF,-26.81667,26.01667,1500.0,nan,nan,nan,nan,nan,19.6,nan,25.2,24.4,22.7,24.3,20.2,23.0,18.4,20.8
68361099999,JOHANNESBURG BOT. GARDENS SF,-26.15000,28.00000,1626.0,nan,nan,nan,nan,nan,nan,nan,nan,nan,20.6,22.0,19.9,21.6,18.3,21.0
68392099999,NHLANGANO WZ,-27.05000,31.10000,1102.0,nan,nan,nan,nan,nan,nan,nan,nan,nan,nan,nan,19.5,22.4,18.9,nan
68411099999,VIOOLSDRIF SF,-28.76944,17.62333,174.0,nan,25.3,25.3,22.8,28.6,30.5,21.4,23.6,nan,24.3,28.5,25.0,28.5,25.1,25.2
68453399999,MOSHOESHOE I INTERNATIONAL LT,-29.46226,27.55250,1630.1,nan,17.0,14.0,nan,nan,17.3,11.5,17.0,nan,nan,17.3,14.7,17.3,7.0,13.9
68488099999,BABANANGO SF,-28.36667,31.21667,768.0,nan,nan,19.6,27.2,22.6,24.6,22.4,29.8,25.1,22.2,24.5,20.5,26.1,22.1,27.8
68527099999,PRIESKA SF,-29.66667,22.73333,947.0,nan,22.5,19.3,19.9,20.1,23.1,15.3,24.8,22.5,21.7,23.0,20.7,23.6,17.3,20.8
68579099999,PADDOCK SF,-30.75000,30.26667,515.0,nan,nan,nan,nan,nan,nan,nan,nan,nan,24.4,23.9,21.6,26.5,21.7,26.4
68592099999,KING SHAKA INTERNATIONAL AIRPORT SF,-29.61667,31.13333,127.0,nan,nan,nan,nan,nan,24.3,21.1,24.6,21.9,24.1,24.2,23.1,24.7,23.2,24.6
68651099999,ELLIOT SF,-31.33333,27.85000,1463.0,nan,17.0,15.1,16.3,16.7,19.4,11.4,21.6,15.7,18.7,18.9,19.1,21.4,16.3,nan
68719099999,EXCELSIOR SF,-32.95000,19.43333,945.0,nan,nan,nan,nan,nan,nan,nan,nan,nan,16.9,18.0,13.7,19.7,14.3,14.2
68813099999,ROBBEN ISLAND SF,-33.80000,18.36667,3.0,nan,nan,nan,nan,nan,nan,nan,nan,nan,17.0,18.7,18.1,19.5,20.2,17.9
68832099999,WILLOWMORE SF,-33.28333,23.50000,842.0,nan,nan,18.1,16.3,18.3,21.3,12.4,17.5,16.8,19.8,19.8,19.1,21.7,17.9,19.2
68858099999,EAST LONDON SF,-33.03557,27.82594,132.6,nan,22.1,19.8,19.1,22.0,27.3,16.9,23.5,19.9,23.9,19.3,21.8,25.0,21.5,22.6
68925099999,ELGIN EXPERIMENTAL FARM SF,-34.13944,19.02278,311.0,nan,19.6,19.4,16.1,21.6,20.9,13.7,16.8,16.8,19.0,nan,17.9,21.5,19.3,17.2
68999099999,CT AWS SF,-33.96667,18.60000,46.0,nan,nan,nan,nan,nan,nan,nan,nan,nan,16.8,nan,17.2,20.8,nan,nan
70063899999,FALSE PASS AK US,54.85000,-163.41667,6.0,nan,nan,nan,nan,11.8,10.7,11.7,12.5,nan,nan,12.8,nan,12.8,14.1,nan
70133326643,DEERING AIRPORT AK US,66.06889,-162.76389,6.4,nan,15.4,18.6,20.5,20.6,15.1,12.9,17.3,14.2,16.9,20.2,18.8,17.9,19.5,17.6
70174899999,PROSPECT CREEK AIRPORT AK US,66.81667,-150.65000,335.0,nan,nan,nan,nan,23.0,12.0,14.0,17.0,15.0,14.0,nan,nan,nan,nan,14.0
70203526704,SAVOONGA AK US,63.68667,-170.49333,16.8,nan,11.9,10.1,13.1,11.0,8.0,7.6,8.4,7.4,9.4,10.7,12.7,10.5,11.7,nan
70222026501,GALENA AIRPORT AK US,64.73667,-156.93444,46.6,nan,21.7,28.2,nan,25.9,22.3,18.8,21.7,16.6,24.1,22.6,22.5,22.7,22.9,22.2
70259026523,KENAI AIRPORT AK US,60.57970,-151.23910,27.7,nan,17.5,18.0,20.7,19.5,17.1,15.9,14.7,14.2,19.8,20.0,16.4,17.5,22.6,24.6
70262800105,MARSHALL DON HUNTER SR AIRPORT AK US,61.86700,-162.03300,31.1,nan,nan,22.6,nan,22.7,16.2,14.2,17.3,11.7,21.1,19.3,21.7,19.0,nan,21.2
70272026401,ANCHORAGE ELMENDORF AFB AK US,61.25306,-149.79361,64.6,nan,18.1,17.5,20.6,21.7,17.5,18.2,15.1,16.6,22.5,22.8,19.3,18.4,23.9,27.5
70296026410,CORDOVA AIRPORT AK US,60.48880,-145.45110,9.4,nan,14.6,15.9,19.3,20.9,13.3,16.1,11.8,12.3,19.4,19.3,17.7,16.3,20.1,22.3
70305999999,KING COVE AK US,55.17000,-162.27000,47.0,nan,13.4,13.5,11.0,11.9,10.1,11.0,10.1,11.6,16.8,14.9,14.8,12.0,14.1,14.4
70333599999,SOUTH NAKNEK AIRPORT AK US,58.70000,-157.00000,49.4,nan,nan,nan,nan,nan,nan,nan,nan,nan,nan,nan,15.9,16.4,19.7,22.0
70362025335,SKAGWAY AIRPORT AK US,59.45560,-135.32390,6.1,nan,18.9,16.6,19.0,24.0,13.9,15.7,14.0,17.2,19.4,20.9,19.5,18.9,23.1,25.2
70383025310,ANGOON AK US,57.49889,-134.58639,8.5,nan,17.3,22.7,17.5,41.5,51.6,22.0,17.0,25.1,18.6,18.8,17.1,15.4,21.0,20.9
70392699999,AKHIOK AK US,56.93333,-154.18333,13.0,nan,nan,nan,nan,nan,nan,nan,nan,nan,nan,nan,nan,nan,16.8,20.2
71005099999,ALBERT HALL AGCM CA,53.10000,-111.16667,658.0,nan,nan,nan,22.9,20.5,20.7,22.6,22.7,27.3,25.3,25.5,22.3,26.0,24.7,20.7
71015099999,MILK RIVER RIDGE RESEVOIR CA,49.28333,-112.53333,1305.0,nan,nan,nan,nan,nan,18.8,24.3,22.6,25.2,24.9,23.0,22.3,27.2,20.7,20.1
71026099999,MEDICINE HAT RCS CA,50.03333,-110.71667,715.0,nan,31.3,33.1,30.7,25.9,23.7,29.1,26.7,30.8,29.0,29.3,27.2,32.4,27.9,26.7
71034999999,MAKKOVIK CA,55.08333,-59.18333,71.0,nan,15.1,14.9,19.9,9.6,11.3,12.4,19.6,14.3,13.6,13.3,10.4,17.6,15.3,12.3
71037699999,FLIN FLON CA,54.67806,-101.68167,303.9,nan,24.7,24.3,24.0,nan,25.5,27.3,25.4,25.1,24.7,22.3,21.7,23.7,22.9,20.9
71044099999,OLD CROW YT CA,67.56667,-139.83333,251.0,nan,17.1,22.0,21.4,20.8,21.9,22.0,22.3,24.1,24.6,23.1,21.7,26.1,22.2,22.5
71055099999,COLVILLE LAKE NWT CA,67.02139,-126.12306,259.0,nan,14.7,nan,18.1,15.3,19.4,20.0,nan,nan,nan,21.7,24.5,nan,16.0,18.2
71065099999,MYRNAM AGCM CA,53.71667,-111.11667,580.0,nan,nan,nan,25.7,20.5,20.7,22.8,23.3,26.7,25.8,25.2,22.7,25.2,24.7,19.7
71075099999,COLLINS BAY SASK CA,58.18333,-103.70000,492.0,nan,22.1,21.9,19.3,19.9,20.8,22.6,23.0,25.7,24.0,20.6,22.6,20.0,22.0,18.8
71084099999,HAT ISLAND CA,68.32000,-100.08000,36.0,nan,11.0,9.9,8.7,9.4,11.3,9.3,12.1,9.4,6.3,7.9,13.2,11.3,7.5,10.6
71095099999,POND INLET CA,72.68333,-77.96667,55.2,nan,8.1,9.2,10.9,10.9,14.3,13.8,11.1,7.6,8.7,13.5,12.5,9.2,8.3,14.0
71106094234,TOFINO BC CA,49.08333,-125.76667,24.1,nan,17.7,17.4,16.9,20.3,18.9,16.7,16.4,20.3,18.4,25.7,16.3,18.6,19.9,24.4
71120099999,COLD LAKE CA,54.40500,-110.27944,541.0,nan,28.0,26.7,25.5,22.7,21.5,24.9,25.0,27.4,26.1,25.8,22.8,26.0,24.3,19.3
71131099999,EASTEND CYPRESS AUT SASK CA,49.43333,-108.98333,1080.0,nan,27.5,29.4,27.0,23.9,21.9,27.3,25.2,25.3,26.8,24.4,23.8,29.5,24.5,21.8
71142099999,SWIFT CURRENT AIRPORT CA,50.30000,-107.68333,816.9,nan,28.0,30.9,nan,24.1,22.8,26.9,26.4,25.5,24.6,25.9,23.0,28.3,25.3,22.8
71154099999,WATERTON PARK GATE CA,49.13333,-113.81667,1289.0,nan,27.8,30.1,26.3,22.6,18.6,24.9,23.3,27.9,26.4,28.0,23.9,28.8,21.8,22.1
71165099999,REA LAKES CA,64.11667,-117.33333,223.3,nan,19.9,22.8,19.7,20.6,21.7,23.5,23.6,25.6,27.9,nan,nan,nan,16.5,17.9
71180099999,WRECKHOUSE CA,47.70000,-59.30000,32.0,nan,20.9,17.2,-5.8,19.1,20.1,21.7,23.7,20.4,24.4,20.2,20.1,20.5,21.2,18.9
71198099999,LAC SAINT PIERRE QUE CA,46.18333,-72.91667,16.0,nan,24.2,22.2,nan,22.5,27.2,27.2,25.6,26.2,27.3,24.7,26.3,24.2,29.9,27.8
71208199999,POWELL RIVER CA,49.83417,-124.50000,129.5,nan,23.9,23.0,nan,22.7,20.9,20.6,19.4,24.9,23.0,26.9,20.4,24.9,21.1,20.7
71219099999,HOLLAND ROCK BC CA,54.16667,-130.35000,5.0,nan,14.0,14.3,14.6,12.3,12.5,12.7,13.2,14.7,16.3,15.8,14.6,14.1,nan,16.9
71229099999,MANNING AGDM ALTA CA,56.96667,-117.45000,457.0,nan,26.6,24.2,24.6,19.6,21.4,22.7,25.1,24.2,26.8,26.6,23.3,25.4,22.9,26.0
71239099999,CYORESS RIVER RCS CA,49.55000,-99.06667,374.0,nan,nan,nan,nan,nan,27.1,27.3,29.3,27.5,24.8,23.6,24.1,26.3,26.9,25.5
71251099999,VAUXHALL CDA CS ALTA CA,50.05000,-112.13333,779.0,nan,30.1,30.9,28.6,24.3,22.8,27.4,25.6,28.8,28.1,27.6,26.1,32.0,26.3,25.2
71262599999,NIAGARA DISTRICT CA,43.19167,-79.17167,97.8,nan,27.3,25.4,26.3,22.6,29.4,28.6,31.6,26.0,26.6,25.4,28.6,26.7,30.6,28.3
71272099999,TADOULE LAKE CA,58.70000,-98.50000,281.0,nan,nan,nan,nan,nan,nan,nan,22.2,24.5,21.0,24.1,20.5,22.1,21.8,18.6
71283099999,BROWNVALE AGCM CA,56.11667,-117.88333,748.0,nan,nan,nan,25.3,17.1,19.7,19.7,21.7,23.2,24.4,24.1,21.9,24.3,21.0,20.2
71294099999,BANCROFT AUTO ONT CA,45.06667,-77.86667,331.0,nan,26.1,23.3,25.4,21.6,28.6,27.4,28.8,26.3,26.2,24.6,27.1,25.4,30.1,29.6
71304099999,BEAVER MINES CA,49.46667,-114.18333,1257.0,nan,nan,nan,nan,nan,nan,nan,20.8,25.6,24.3,24.8,23.4,28.4,20.5,19.6
71314099999,BARRIE ORO CA,44.48000,-79.55000,289.0,nan,25.7,24.2,-4.0,21.3,28.3,27.2,29.4,26.5,25.3,23.5,26.5,25.9,29.9,28.0
71324099999,OSBORNE HEAD DND CA,44.61667,-63.41667,30.0,nan,nan,nan,-7.7,14.4,18.9,17.5,20.3,nan,18.9,19.9,nan,15.5,21.5,21.3
71336099999,GRATES COVE CA,48.16667,-52.93333,46.0,nan,21.7,nan,22.8,17.0,16.3,nan,nan,nan,23.5,18.1,16.1,18.5,nan,17.9
71346099999,BARNWELL AGDM ALTA CA,49.80000,-112.30000,824.0,nan,29.3,31.8,27.9,24.8,22.2,27.6,25.7,27.7,28.1,27.7,26.7,32.0,25.0,25.0
71356099999,BAKER LAKE CLIMATE NU CA,64.31667,-96.00000,51.0,nan,18.0,17.8,17.0,20.4,10.4,17.7,20.6,19.8,19.8,16.2,17.7,22.8,17.7,16.8
71367099999,CORMACK RCS CA,49.31667,-57.40000,817.0,nan,nan,nan,nan,nan,nan,nan,nan,26.2,27.5,21.5,18.7,18.4,23.1,nan
71377099999,STE ANNE DE BELLEVUE 1 QUE CA,45.41667,-73.91667,39.0,nan,27.0,23.1,27.2,23.6,28.6,28.7,29.1,27.1,28.8,25.4,28.7,25.7,32.8,29.6
71387099999,ONATCHIWAY QUE CA,48.88333,-71.01667,304.0,nan,21.7,19.2,24.3,22.6,23.7,nan,23.0,26.8,25.4,22.9,21.8,24.1,27.9,27.5
71399099999,SEDALIA AGCM CA,51.58333,-110.75000,755.0,nan,nan,nan,29.0,23.2,21.7,25.0,23.7,26.2,26.5,26.4,24.1,23.3,25.9,22.0
71410099999,NORWAY HOUSE AIRPORT CA,53.96667,-97.83333,223.0,nan,26.6,24.3,nan,22.3,26.1,26.5,26.2,27.2,24.0,23.4,23.5,24.6,22.5,22.6
71423099999,HEATH POINT QUE CA,49.08333,-61.70000,7.0,nan,18.4,14.7,15.9,11.0,14.4,13.6,16.7,nan,nan,13.4,nan,14.6,18.0,13.5
71434099999,PEAWANUCK AUT CA,54.98333,-85.43333,53.0,nan,20.8,20.8,nan,9.4,25.8,21.1,21.0,24.6,19.0,22.6,16.1,24.5,20.2,24.4
71444099999,WASAGAMING MAN CA,50.65000,-99.93333,627.0,nan,26.1,25.9,25.0,22.2,24.4,26.1,26.9,26.5,24.2,24.2,21.5,24.2,24.7,23.2
71454099999,WASKESIU LAKE SASK CA,53.91667,-106.06667,569.0,nan,27.3,27.8,24.6,21.3,23.1,24.5,24.5,25.3,24.5,24.4,22.2,24.6,23.5,20.4
71464099999,LONG POINT AUT CA,42.55000,-80.05000,175.0,nan,22.1,nan,22.9,20.3,25.1,23.9,26.3,nan,24.1,21.8,22.7,22.9,28.2,25.6
71476099999,GREY ISLET AUT CA,54.56667,-130.68333,8.0,nan,16.7,14.6,15.7,15.9,14.5,nan,14.4,18.3,16.8,20.6,15.6,15.2,18.9,18.7
71486099999,JASPER WARDEN ALTA CA,52.93333,-118.03333,1020.0,nan,30.5,27.1,27.1,21.5,20.5,22.7,21.0,26.6,27.9,27.8,22.4,29.0,21.0,19.5
71496099999,SASKATOON RCS CA,52.16667,-106.71667,504.0,nan,nan,nan,15.0,22.9,23.4,25.1,23.6,26.9,25.7,27.2,24.1,28.7,26.1,24.6
71506099999,ROCK RIVER CA,66.98333,-136.21667,731.0,nan,14.3,16.1,-9.8,16.4,17.0,16.2,18.3,20.0,20.6,19.4,18.6,22.1,18.2,17.6
71516099999,CORONACH SPC SASK CA,49.05000,-105.48333,756.0,nan,30.0,32.1,29.2,26.5,26.9,27.4,29.8,27.4,27.4,27.4,25.3,32.8,26.4,24.0
71526099999,STRATHMORE AGDM ALTA CA,51.03333,-113.28333,967.0,nan,26.4,26.6,26.2,22.0,20.8,24.7,23.5,25.4,25.7,25.5,22.8,27.8,23.8,21.1
71539099999,MOOSE JAW CS SASK CA,50.31667,-105.55000,577.0,nan,27.1,30.8,29.6,23.6,26.2,25.6,26.9,27.7,27.4,26.1,24.7,29.8,27.1,23.6
71549099999,TAWATINAW AGCM CA,54.28333,-113.51667,611.0,nan,nan,nan,nan,20.2,19.2,21.5,22.4,24.9,25.1,24.1,21.2,24.6,21.7,18.6
71559099999,ESTEVAN CA,49.21667,-102.96667,580.6,nan,nan,nan,nan,nan,nan,nan,27.1,27.2,24.1,25.2,24.1,29.6,25.3,24.9
71573099999,DELHI CS ONT CA,42.86667,-80.55000,232.0,nan,28.0,25.9,26.1,22.6,29.3,29.6,33.7,27.2,27.7,25.7,27.7,26.8,31.2,29.8
71585099999,FORT MCMURRAY CS ALTA CA,56.65000,-111.21667,369.0,nan,27.7,28.1,25.7,20.8,22.0,25.0,24.9,26.9,26.8,27.4,24.5,25.7,24.0,20.2
71597199999,GRAND ETANG CA,46.55000,-61.05000,13.0,nan,22.9,19.0,nan,19.4,22.4,23.0,25.6,24.6,26.9,23.2,21.7,22.1,23.3,21.0
71609099999,SAINT JOHN CA,45.31667,-65.88333,108.8,nan,23.4,20.9,23.8,20.3,23.8,22.1,25.7,27.4,22.9,24.5,23.0,23.2,28.5,24.4
71621099999,TRENTON CA,44.11667,-77.53333,86.3,nan,26.8,23.4,25.7,22.7,28.0,28.0,31.8,27.1,26.9,24.9,27.9,25.6,30.3,29.1
71630099999,MUSKOKA CA,44.97472,-79.30333,281.9,nan,24.7,22.7,25.0,19.7,27.6,26.3,28.6,25.7,23.6,23.9,25.7,24.9,30.6,28.1
71642099999,CHAPLEAU CA,47.82000,-83.34667,446.5,nan,24.0,22.1,24.4,19.1,28.1,27.0,29.3,26.3,22.9,22.5,23.8,22.9,27.9,26.9
71671099999,KENTVILLE CDA CA,45.07000,-64.48000,49.0,nan,27.0,22.5,28.8,22.2,26.8,26.6,27.6,27.6,28.2,25.8,26.8,25.5,30.2,25.7
71684099999,TIMISKAMING REGIONAL EARLTON CA,47.70000,-79.85000,243.2,nan,23.4,21.7,17.3,21.5,29.1,27.5,27.4,26.5,26.3,22.9,25.5,24.4,32.2,28.5
71697099999,OSHAWA CA,43.92278,-78.89500,139.9,nan,nan,nan,20.4,nan,29.7,28.1,31.3,26.1,26.9,24.0,28.1,26.2,31.0,29.0
71708099999,QUEBEC JEAN LESAGE INTERNATIONAL CA,46.79111,-71.39333,74.4,nan,23.1,21.7,25.6,19.3,27.7,25.7,25.6,27.0,25.4,24.3,24.1,24.0,29.3,27.9
71720099999,POWELL RIVER CA,49.83333,-124.48333,125.0,nan,nan,nan,22.3,22.9,18.1,20.3,18.6,25.1,23.5,26.8,21.0,24.5,21.2,21.0
71731099999,NORTH BAY CA,46.36361,-79.42278,370.3,nan,24.6,21.1,23.6,20.7,26.3,26.1,28.6,25.4,22.7,24.4,23.9,23.9,30.6,27.2
71738699999,CORNER BROOK CA,48.93333,-57.91667,152.0,nan,nan,nan,nan,nan,19.9,22.9,26.0,23.9,25.9,21.3,19.2,21.2,22.4,16.6
71749399999,TERRACE BAY CA,48.81333,-87.09944,289.6,nan,19.7,16.4,nan,nan,nan,nan,nan,nan,nan,nan,nan,nan,nan,23.1
71766099999,QUALICUM BEACH AIRPORT CA,49.33333,-124.40000,58.0,nan,nan,nan,23.4,24.2,17.6,21.5,19.7,25.4,23.4,28.1,20.8,25.0,22.4,21.6
71776099999,NELSON BC CA,49.48333,-117.30000,534.9,nan,30.8,32.5,29.4,29.4,23.2,27.4,25.1,31.7,31.1,34.0,27.3,34.5,26.8,25.3
71786099999,YOHO PARK BC CA,51.45000,-116.35000,1602.0,nan,26.0,23.8,23.5,20.5,14.9,20.4,19.0,nan,24.7,24.2,19.2,26.1,20.6,17.2
71797099999,KITSCOPTY AGCM CA,53.35000,-110.41667,664.0,nan,nan,nan,24.8,20.4,20.3,21.8,22.7,25.7,23.3,24.2,22.0,24.5,24.7,20.0
71811099999,SEPT ILES CA,50.21667,-66.26667,54.9,nan,20.0,18.0,17.3,15.1,17.4,18.7,21.1,22.9,23.7,18.6,18.0,18.7,22.4,22.3
71821099999,MATAGAMI A CA,49.75000,-77.80000,281.3,nan,nan,nan,23.6,nan,nan,nan,nan,25.7,24.2,nan,20.8,24.1,28.8,28.0
71832099999,NAGAGAMI AUT ONT CA,49.73333,-84.15000,264.0,nan,23.2,22.3,24.4,15.2,28.8,26.2,28.3,26.4,23.7,23.2,22.2,25.1,26.6,29.0
71842899999,BERENS RIVER CA,52.35000,-97.03333,222.0,nan,24.4,23.0,21.2,19.8,23.4,25.2,25.4,26.0,20.6,21.6,19.8,24.4,21.4,20.4
71844399999,EASTMAIN RIVER CA,52.23333,-78.51667,7.0,nan,17.0,14.2,21.0,17.7,nan,15.2,16.3,20.0,17.0,15.0,12.8,16.6,19.2,21.5
71857099999,TULLIBY LAKE AGCM CA,53.65000,-110.06667,596.0,nan,nan,nan,26.9,20.4,20.9,23.3,23.9,27.5,25.8,24.8,21.1,25.1,24.5,20.7
71868099999,HUDSON BAY SASK CA,52.81667,-102.31667,358.0,nan,26.7,28.4,26.2,23.6,25.2,27.3,27.1,27.0,26.1,25.5,23.3,25.4,22.8,23.7
71881099999,EDSON CA,53.57889,-116.46500,926.9,nan,28.5,25.8,26.0,18.6,21.8,22.3,20.4,24.4,24.9,25.7,21.4,25.7,20.1,17.4
71889099999,PENTICTON CA,49.46306,-119.60222,344.1,nan,32.9,32.4,31.0,30.0,24.9,29.5,26.4,32.1,30.8,34.7,27.3,33.8,27.2,27.7
71898099999,PRINCE RUPERT CA,54.28333,-130.45000,35.4,nan,16.9,16.2,16.9,16.2,15.6,13.8,15.0,16.9,18.7,18.6,15.9,16.1,19.0,18.4
71906099999,KUUJJUAQ A CA,58.10000,-68.41667,39.3,nan,16.6,22.4,16.3,13.4,17.9,15.6,21.2,15.1,15.8,16.0,19.9,20.8,15.4,17.6
71912099999,GILLAM AIRPORT CA,56.35000,-94.71667,145.0,nan,23.9,22.9,19.3,17.4,26.7,25.4,23.9,26.9,22.4,22.7,20.1,22.7,19.0,23.4
71923099999,ENNADAI LAKE AUT NU CA,61.11667,-100.88333,353.0,nan,19.9,19.6,nan,19.8,18.4,20.4,17.0,21.6,22.9,19.1,14.1,nan,19.1,16.5
71934099999,FORT SMITH CA,60.02028,-111.96194,204.5,nan,25.3,22.6,22.9,20.7,19.5,22.7,25.9,26.5,25.9,24.1,27.4,25.2,24.2,19.7
71946599999,WRIGLEY CA,63.20944,-123.43667,149.0,nan,14.8,21.5,27.0,19.0,21.0,20.0,nan,20.7,24.5,19.8,25.8,23.8,20.2,20.0
71953099999,WATSON LAKE CA,60.11639,-128.82250,687.3,nan,25.3,18.0,21.4,20.1,20.0,18.6,19.6,22.0,19.0,23.7,22.0,19.6,23.1,24.4
71962099999,FORT FRANCES RCS CA,48.65000,-93.43333,342.0,nan,nan,nan,25.7,21.5,28.3,27.5,29.2,27.8,23.6,25.1,25.8,25.6,27.7,27.5
71970099999,MEADOW LAKE CA,54.13333,-108.51667,481.0,nan,nan,nan,24.7,19.9,22.3,23.6,23.7,25.2,25.1,22.8,22.3,24.6,23.7,19.4
71983099999,REA POINT NU CA,75.36667,-105.71667,15.0,nan,4.3,9.0,9.6,6.9,nan,6.9,10.6,nan,2.6,5.8,6.0,nan,4.8,nan
72011354829,OAKLAND TROY AIRPORT MI US,42.54306,-83.17806,218.2,nan,28.6,27.1,27.6,24.6,31.4,31.4,34.5,27.1,26.5,26.2,29.0,29.4,32.5,31.0
72017553919,MONTICELLO MUNICIPAL AIRPORT AR US,33.63610,-91.75560,88.4,nan,34.1,29.5,nan,32.6,32.5,36.5,37.3,31.4,31.2,30.4,35.2,32.2,33.4,32.9
72026563833,ALEXANDER CITY THOMAS C RUSSELL FIELD AIRPORT AL US,32.91472,-85.96278,209.1,nan,33.3,30.1,31.3,32.0,31.9,35.9,36.0,29.5,34.0,30.5,34.6,31.8,31.6,33.0
72027612983,EDINBURG INTERNATIONAL AIRPORT TX US,26.44194,-98.12944,24.4,nan,34.4,34.8,29.9,39.2,34.0,36.3,36.4,36.1,36.1,33.9,38.2,38.2,35.6,36.1
72028803711,HENDERSON OXFORD AIRPORT NC US,36.36139,-78.52889,160.6,nan,30.4,30.7,30.7,28.3,31.9,34.8,35.6,28.8,31.3,29.3,29.2,29.7,31.4,31.5
72030163846,SYLVANIA PLANTATION AIRPARK GA US,32.64556,-81.59639,57.3,nan,34.7,30.1,31.5,33.6,32.7,nan,35.4,30.3,33.1,33.2,35.6,31.4,33.4,35.4
72031303052,PERRY LEFORS FIELD AIRPORT TX US,35.61306,-100.99639,989.1,nan,32.0,30.7,33.3,32.9,28.1,35.7,35.1,31.3,30.7,30.9,36.0,34.6,33.0,34.4
72032393947,FREDERICKSBURG GILLESPIE CO AIRPORT TX US,30.24333,-98.90972,516.6,nan,32.1,29.7,nan,35.3,30.0,35.4,32.3,32.2,33.3,30.7,34.7,33.6,34.8,31.4
72033900121,RYAN FIELD AIRPORT AZ US,32.15000,-111.16700,737.0,nan,nan,nan,nan,37.1,38.9,38.6,35.4,39.4,37.1,36.9,37.0,41.1,39.9,39.3
72035363875,MIDDLESBORO BELL CO AIRPORT KY US,36.61056,-83.73750,351.7,nan,29.3,30.6,29.3,26.7,33.1,32.7,37.6,26.5,29.7,27.0,31.2,29.0,32.9,31.0
72036524267,BROOKINGS STATE AIRPORT OR US,42.07444,-124.29000,139.9,nan,15.6,20.0,nan,17.6,22.6,23.7,19.3,23.4,20.7,20.2,23.3,17.8,23.7,20.5
72037800122,NEW CASTLE MUNICIPAL AIRPORT PA US,41.03300,-80.41700,327.1,nan,26.9,27.3,nan,24.1,30.1,30.2,34.8,29.6,30.1,27.0,27.9,28.9,32.8,31.1
72039200128,HOMERVILLE AIRPORT GA US,31.05600,-82.76700,57.3,nan,nan,31.0,nan,34.4,31.1,nan,34.0,31.4,35.0,34.3,35.1,35.4,31.3,33.9
72040800136,CHESTER CO GO CARLSON AIRPORT PA US,39.98300,-75.86700,201.2,nan,nan,nan,nan,25.0,31.3,30.6,33.6,29.4,28.1,25.9,27.6,28.0,30.6,29.7
72042600141,INDEPENDENCE MUNICIPAL AIRPORT KS US,37.15800,-95.77800,251.2,nan,nan,nan,nan,nan,29.7,36.0,36.1,30.0,30.1,30.9,32.1,31.1,33.6,31.1
72044999999,ASHLAND REGIONAL KY US,38.55450,-82.73800,166.4,nan,nan,nan,nan,nan,nan,nan,nan,nan,nan,30.0,28.0,29.0,33.7,32.3
72047299999,STEVEN A BEAN MUNICIPAL ME US,44.99189,-70.66463,556.3,nan,nan,nan,nan,nan,nan,nan,nan,nan,nan,nan,nan,23.0,27.4,26.1
72048899999,SIKESTON MEM MUNICIPAL MO US,36.89889,-89.56175,96.0,nan,nan,nan,nan,nan,nan,nan,nan,nan,nan,nan,30.7,31.3,34.0,33.1
72050799999,BESSEMER AIPORT AL US,33.31288,-86.92592,213.1,nan,nan,nan,nan,nan,nan,nan,nan,nan,nan,nan,nan,31.7,32.0,32.9
72053100158,BLAKE FIELD AIRPORT CO US,38.78300,-108.06700,1583.1,nan,nan,nan,nan,nan,nan,nan,35.0,36.8,36.6,34.5,32.5,37.8,37.4,34.9
72054200166,LAGO VISTA RUSTY ALLEN AIRPORT TX US,30.50000,-97.96700,375.2,nan,nan,nan,nan,37.3,30.7,36.3,34.7,34.0,34.7,32.5,35.6,35.6,36.2,33.2
72056599999,HEBER CITY MUNICIPAL AIRPORT UT US,40.48181,-111.42881,1718.2,nan,nan,nan,nan,nan,29.6,22.3,nan,nan,nan,nan,nan,nan,34.0,31.0
72058600183,PLATTEVILLE MUNICIPAL AIRPORT WI US,42.68300,-90.45000,312.1,nan,nan,nan,nan,26.7,27.6,30.1,35.4,27.1,24.8,24.8,25.4,28.6,29.6,30.2
72060100193,AIKEN MUNICIPAL AIRPORT SC US,33.65000,-81.68300,161.2,nan,nan,nan,nan,32.9,30.7,34.4,37.3,28.6,32.7,nan,34.4,33.0,32.1,33.7
72061200203,BEAUFORT CO AIRPORT SC US,32.41210,-80.63430,38.1,nan,nan,nan,nan,32.7,29.9,31.9,34.0,29.6,nan,31.7,33.6,33.7,31.3,33.0
72062700214,STIGLER REGIONAL AIRPORT OK US,35.28300,-95.10000,183.2,nan,nan,nan,nan,33.0,31.4,39.4,38.0,32.1,32.3,32.6,35.6,nan,35.9,32.7
72063800224,BEND MUNICIPAL AIRPORT OR US,44.09500,-121.20000,1055.2,nan,nan,nan,nan,29.7,23.6,28.9,27.3,32.3,31.3,nan,27.3,34.7,29.4,26.4
72065100232,UNION CO AIRPORT OH US,40.22500,-83.35200,311.2,nan,nan,nan,nan,nan,30.1,31.4,34.4,25.9,24.7,26.0,26.3,28.4,30.8,31.3
72067400249,WEST GEORGIA REGIONAL AIRPORT O V GRAY FIELD GA US,33.63300,-85.15000,354.2,nan,nan,nan,nan,nan,31.8,32.7,34.4,25.9,30.3,29.3,34.0,30.7,nan,31.8
72071400252,PAULDING NORTHWEST ATLANTA AIRPORT GA US,33.91200,-84.94100,393.2,nan,nan,nan,nan,nan,nan,33.1,35.4,27.0,30.4,30.6,35.1,32.4,30.2,32.3
72073400264,NAMPA MUNICIPAL AIRPORT ID US,43.58100,-116.52300,773.3,nan,nan,nan,nan,nan,27.4,32.6,33.6,36.9,36.0,37.1,32.3,36.3,32.3,31.1
72074799999,ELK MOUNTAIN WY US,41.73333,-106.46667,2225.0,nan,nan,nan,nan,nan,nan,25.7,nan,nan,nan,nan,25.9,29.3,29.7,25.6
72078199999,LYONS RICE CO MUNICIPAL KS US,38.34278,-98.22688,515.4,nan,nan,nan,nan,nan,nan,nan,nan,nan,nan,nan,nan,nan,nan,32.3
72085800285,CANDO MUNICIPAL AIRPORT ND US,48.48000,-99.23600,450.2,nan,nan,nan,nan,nan,nan,27.4,27.6,27.6,24.4,25.3,24.1,nan,26.7,25.0
72087100296,MANDAN MUNICIPAL AIRPORT ND US,46.76800,-100.89400,593.1,nan,nan,nan,nan,nan,nan,27.4,30.3,29.1,26.1,25.3,26.7,32.3,28.1,25.0
72091200302,VIOSCA KNOLL 768 OIL PLATFORM AL US,29.23300,-87.78300,53.0,nan,nan,nan,nan,nan,nan,33.7,33.7,30.4,30.7,33.7,34.4,35.0,31.1,32.9
72092700314,FLETCHER FIELD AIRPORT MS US,34.30000,-90.51200,53.0,nan,nan,nan,nan,nan,nan,33.6,35.6,30.3,30.1,29.3,34.0,31.7,34.3,35.6
72094900329,CAMDENTON MEMORIAL AIRPORT MO US,37.97400,-92.69100,324.0,nan,nan,nan,nan,nan,nan,32.1,38.1,29.0,28.1,nan,28.9,29.4,33.0,30.0
72096400338,TYNDALL DRONE RUNWAY FL US,30.03300,-85.53300,5.2,nan,nan,nan,nan,nan,nan,nan,29.9,26.4,31.6,30.4,nan,31.3,30.9,34.2
72097999999,CHARLIE GERING NE US,41.58333,-103.66667,1371.0,nan,nan,nan,nan,nan,nan,nan,nan,nan,29.3,28.8,30.9,34.6,nan,nan
72099199999,MIKE HAXTUN CO US,40.70000,-103.48333,1336.2,nan,nan,nan,nan,nan,nan,nan,nan,nan,27.6,29.5,30.2,34.6,nan,nan
72100299999,HOTEL FAIRFIELD MT US,47.70000,-111.95000,1178.7,nan,nan,nan,nan,nan,nan,nan,nan,nan,29.2,29.0,28.0,32.8,33.9,23.9
72101399999,CHARLIE RUSO ND US,47.71445,-101.01004,598.6,nan,nan,nan,nan,nan,nan,nan,nan,nan,nan,24.6,25.6,30.1,27.2,nan
72102699999,OSCAR ANTLER ND US,48.82463,-101.28250,466.3,nan,nan,nan,nan,nan,nan,nan,nan,nan,25.2,24.7,nan,28.6,25.8,nan
72104399999,ATHENS MUNICIPAL TX US,32.16385,-95.82835,135.3,nan,nan,nan,nan,nan,nan,nan,nan,32.7,31.6,31.9,34.5,32.1,35.0,31.6
72200812995,PORT ARANSAS MUSTANG BEACH AIRPORT TX US,27.81194,-97.08861,1.5,nan,29.6,nan,29.7,30.5,31.9,32.0,30.9,30.9,31.1,30.4,31.4,31.6,30.8,31.9
72202612826,HOMESTEAD AFB FL US,25.48333,-80.38333,1.5,nan,29.9,31.3,31.0,32.9,31.7,30.1,32.2,30.6,32.3,32.7,32.6,32.3,32.4,33.1
72204012838,MELBOURNE INTERNATIONAL AIRPORT FL US,28.10110,-80.64390,8.2,nan,30.6,31.6,29.4,32.5,30.8,30.4,32.0,31.6,32.9,33.5,34.3,33.8,32.1,34.1
72205453959,WEST MEMPHIS MUNICIPAL AIRPORT AR US,35.13500,-90.23444,65.2,nan,32.4,32.0,32.3,31.9,33.1,34.0,36.3,29.9,29.6,29.4,32.2,30.6,34.4,32.8
72206953853,DESTIN FORT WALTON BEACH AIRPORT FL US,30.40000,-86.47167,6.7,nan,32.4,31.7,29.8,31.4,29.7,33.6,31.1,29.0,33.2,31.3,33.8,33.6,30.3,34.4
