id,name,latitude,longitude,elev,2005,2006,2007,2008,2009,2010,2011,2012,2013,2014,2015,2016,2017,2018,2019
id,name,latitude,longitude,elev,2005,2006,2007,2008,2009,2010,2011,2012,2013,2014,2015,2016,2017,2018,2019
WMO02197,HAPARANDA SWEDEN,65.81667,24.10000,15.0,nan,nan,nan,nan,nan,92.0,99.0,65.0,106.0,nan,nan,nan,nan,nan,nan
WMO02805,UTSJOKI KEVO FINLAND,69.75000,27.03333,101.0,nan,42.0,47.0,45.0,81.0,32.0,36.0,27.0,nan,53.0,71.0,43.0,34.0,78.0,nan
WMO02963,JOKIOINEN OBSERVATORY FINLAND,60.81667,23.50000,103.0,nan,36.0,54.0,83.0,106.0,110.0,106.0,40.0,nan,55.0,170.0,87.0,43.0,86.0,51.0
WMO03160,EDINBURGH (TURNHOUSE AIRPORT) UNITED KINGDOM OF GREAT BRITAIN AND NORTHERN IRELAND,56.00000,-3.40000,nan,nan,nan,nan,nan,nan,nan,nan,nan,nan,nan,nan,nan,nan,nan,nan
WMO03534,BIRMINGHAM_AIRPORT UNITED KINGDOM OF GREAT BRITAIN AND NORTHERN IRELAND,52.45000,-1.73333,nan,nan,nan,nan,nan,nan,nan,nan,nan,nan,nan,nan,nan,nan,nan,nan
WMO03827,PLYMOUTH-MOUNT BATTON UNITED KINGDOM OF GREAT BRITAIN AND NORTHERN IRELAND,50.40000,-4.10000,nan,nan,nan,nan,nan,nan,nan,nan,nan,nan,nan,nan,nan,nan,nan,nan
WMO03964,GALWAY IRELAND,53.30000,-9.00000,nan,nan,nan,nan,nan,nan,nan,nan,nan,nan,nan,nan,nan,nan,nan,nan
WMO04030,REYKJAVIK ICELAND,64.13333,-21.90000,61.0,nan,130.0,78.0,103.0,55.0,104.0,101.0,122.0,102.0,105.0,nan,nan,nan,85.0,82.0
WMO06590,LUXEMBOURG/LUXEMBOURG LUXEMBOURG,49.61667,6.21667,376.0,nan,108.0,147.0,90.0,125.0,141.0,141.0,130.0,86.0,91.0,nan,nan,nan,173.0,90.0
WMO07015,LILLE-LESQUIN FRANCE,50.56667,3.08333,47.0,nan,113.0,120.0,115.0,85.0,124.0,144.0,101.0,94.0,111.0,95.0,115.0,102.0,nan,nan
WMO07149,ORLY FRANCE,48.71667,2.38333,90.0,nan,nan,nan,nan,122.0,145.0,131.0,91.0,91.0,108.0,104.0,137.0,131.0,169.0,nan
WMO07299,BALE-MULHOUSE FRANCE,47.60000,7.50000,273.0,nan,126.0,137.0,124.0,123.0,121.0,169.0,105.0,115.0,134.0,114.0,96.0,167.0,nan,nan
WMO07577,MONTELIMAR FRANCE,44.56667,4.71667,74.0,nan,170.0,210.0,131.0,212.0,169.0,172.0,154.0,127.0,186.0,156.0,164.0,226.0,158.0,nan
WMO07747,PERPIGNAN FRANCE,42.73333,2.86667,44.0,nan,165.0,191.0,189.0,231.0,187.0,242.0,169.0,166.0,220.0,nan,nan,nan,160.0,173.0
WMO08023,SANTANDER SPAIN,43.48333,-3.78333,59.0,nan,148.0,152.0,159.0,173.0,133.0,188.0,148.0,161.0,188.0,159.0,169.0,170.0,184.0,143.0
WMO08075,BURGOS/VILLAFRIA SPAIN,42.35000,-3.61667,892.0,nan,154.0,176.0,167.0,186.0,177.0,234.0,161.0,162.0,203.0,nan,nan,nan,174.0,177.0
WMO08161,ZARAGOZA SPAIN,41.63333,-0.90000,nan,nan,nan,nan,nan,nan,nan,nan,nan,nan,nan,nan,nan,nan,nan,nan
WMO08219,COLMENAR VIEJO/FAMET SPAIN,40.68333,-3.75000,998.0,nan,140.0,221.0,168.0,232.0,209.0,246.0,203.0,204.0,206.0,156.0,183.0,266.0,184.0,nan
WMO08238,TORTOSA SPAIN,40.81667,0.48333,50.0,nan,191.0,216.0,170.0,222.0,225.0,218.0,210.0,219.0,232.0,nan,170.0,244.0,221.0,nan
WMO08314,MENORCA/MAHON SPAIN,39.85000,4.20000,86.0,nan,189.0,126.0,117.0,191.0,143.0,210.0,156.0,145.0,223.0,nan,193.0,237.0,192.0,nan
WMO08397,MORON DE LA FRONTERA SPAIN,37.15000,-5.60000,88.0,nan,181.0,261.0,199.0,271.0,242.0,282.0,224.0,237.0,246.0,181.0,232.0,nan,225.0,266.0
WMO08452,CADIZ OBS. SPAIN,36.50000,-6.25000,9.0,nan,186.0,nan,207.0,nan,nan,nan,224.0,nan,nan,nan,nan,nan,nan,nan
WMO08515,SANTA MARIA (ACORES) PORTUGAL,36.96667,-25.16667,100.0,nan,nan,219.0,205.0,nan,158.0,193.0,139.0,nan,nan,nan,nan,nan,158.0,163.0
WMO08558,EVORA/C. COORD PORTUGAL,38.53333,-7.90000,246.0,nan,174.0,256.0,186.0,201.0,132.0,185.0,148.0,nan,117.0,nan,nan,nan,128.0,133.0
WMO10035,SCHLESWIG GERMANY,54.51667,9.53333,nan,nan,65.0,111.0,82.0,113.0,125.0,145.0,98.0,97.0,86.0,108.0,65.0,nan,143.0,72.0
WMO10131,CUXHAVEN GERMANY,53.86667,8.70000,12.0,nan,82.0,125.0,93.0,100.0,105.0,130.0,79.0,115.0,84.0,nan,nan,nan,153.0,99.0
WMO10168,GOLDBERG GERMANY,53.60000,12.10000,59.0,nan,nan,nan,nan,90.0,120.0,144.0,134.0,113.0,83.0,127.0,44.0,69.0,158.0,nan
WMO10235,SOLTAU GERMANY,52.95000,9.78333,77.0,nan,nan,nan,nan,84.0,94.0,140.0,107.0,94.0,94.0,109.0,52.0,78.0,152.0,111.0
WMO10282,FELDBERG/MECKLENBURG GERMANY,53.31667,13.41667,116.0,nan,nan,nan,nan,76.0,129.0,142.0,124.0,106.0,87.0,113.0,38.0,72.0,156.0,nan
WMO10325,BAD SALZUFLEN GERMANY,52.10000,8.75000,136.0,nan,nan,nan,nan,78.0,103.0,148.0,125.0,101.0,104.0,107.0,56.0,80.0,162.0,nan
WMO10381,BERLIN-DAHLEM GERMANY,52.46667,13.30000,nan,nan,118.0,116.0,104.0,78.0,138.0,167.0,148.0,116.0,110.0,140.0,50.0,nan,177.0,139.0
WMO10427,KAHLER ASTEN GERMANY,51.16667,8.48333,858.0,nan,84.0,96.0,69.0,67.0,93.0,136.0,117.0,69.0,90.0,93.0,42.0,61.0,129.0,71.0
WMO10453,BROCKEN GERMANY,51.80000,10.61667,1152.0,nan,108.0,73.0,78.0,66.0,129.0,146.0,118.0,74.0,98.0,nan,nan,68.0,131.0,nan
WMO10490,DOBERLUG-KIRCHHAIN GERMANY,51.63333,13.56667,97.0,nan,nan,nan,nan,73.0,138.0,164.0,132.0,122.0,115.0,114.0,37.0,92.0,151.0,nan
WMO10520,ANDERNACH GERMANY,50.41667,7.41667,76.0,nan,nan,nan,nan,nan,nan,140.0,104.0,87.0,79.0,nan,nan,nan,135.0,80.0
WMO10552,SCHMUECKE GERMANY,50.65000,10.76667,939.0,nan,nan,nan,nan,53.0,135.0,157.0,128.0,78.0,89.0,90.0,34.0,64.0,140.0,nan
WMO10579,MARIENBERG GERMANY,50.65000,13.13333,640.0,nan,nan,nan,nan,77.0,147.0,157.0,131.0,132.0,127.0,117.0,37.0,92.0,159.0,151.0
WMO10646,NEUHUETTEN-SPESSART GERMANY,50.00000,9.41667,340.0,nan,nan,nan,nan,86.0,124.0,146.0,110.0,100.0,77.0,nan,nan,nan,167.0,86.0
WMO10706,THOLEY GERMANY,49.46667,7.03333,387.0,nan,nan,nan,nan,105.0,128.0,132.0,122.0,83.0,97.0,nan,nan,nan,175.0,84.0
WMO10742,OEHRINGEN GERMANY,49.20000,9.51667,274.0,nan,143.0,131.0,99.0,87.0,136.0,154.0,119.0,107.0,102.0,89.0,90.0,108.0,170.0,nan
WMO10796,ZWIESEL GERMANY,49.01667,13.23333,616.0,nan,nan,nan,nan,80.0,136.0,163.0,131.0,nan,119.0,nan,nan,95.0,170.0,nan
WMO10852,AUGSBURG GERMANY,48.41667,10.93333,476.0,nan,151.0,127.0,107.0,85.0,113.0,147.0,114.0,97.0,78.0,75.0,79.0,148.0,157.0,118.0
WMO10929,KONSTANZ GERMANY,47.66667,9.18333,444.0,nan,130.0,108.0,112.0,98.0,104.0,107.0,91.0,86.0,111.0,84.0,90.0,141.0,180.0,nan
WMO11028,ST. POELTEN (HESSERKASERNE) AUSTRIA,48.20000,15.60000,nan,nan,nan,nan,nan,nan,nan,nan,nan,nan,nan,nan,nan,nan,nan,nan
WMO11406,EGER CZECH REPUBLIC,50.08333,12.40000,nan,nan,nan,nan,nan,nan,nan,nan,nan,nan,nan,nan,nan,nan,nan,nan
WMO11787,LYSA HORA CZECH REPUBLIC,49.53333,18.43333,1326.0,nan,159.0,81.0,124.0,44.0,157.0,100.0,126.0,130.0,114.0,nan,nan,nan,137.0,173.0
WMO12330,POZNAN POLAND,52.41667,16.83333,88.0,nan,109.0,113.0,113.0,61.0,162.0,130.0,125.0,132.0,nan,114.0,61.0,108.0,161.0,nan
WMO12843,BUDAPEST/PESTSZENTLORINC HUNGARY,47.43333,19.18333,139.0,nan,221.0,135.0,159.0,127.0,165.0,176.0,168.0,204.0,138.0,124.0,nan,170.0,167.0,217.0
WMO13363,PLJEVLJA MONTENEGRO,43.35000,19.35000,788.0,nan,166.0,85.0,144.0,94.0,nan,141.0,162.0,177.0,115.0,120.0,100.0,177.0,158.0,211.0
WMO13615,TIRANA ALBANIA,41.33333,19.78333,90.0,nan,nan,nan,nan,nan,nan,nan,nan,nan,nan,nan,nan,nan,nan,nan
WMO15023,SUCEAVA ROMANIA,47.61667,26.23333,353.0,nan,185.0,119.0,174.0,107.0,143.0,189.0,179.0,150.0,133.0,nan,nan,nan,195.0,182.0
WMO15360,SULINA ROMANIA,45.13333,29.75000,13.0,nan,168.0,149.0,217.0,167.0,146.0,161.0,163.0,134.0,148.0,115.0,121.0,154.0,191.0,160.0
WMO16008,S. VALENTINO ALLA MUTA ITALY,46.75000,10.53333,1461.0,nan,nan,nan,nan,nan,nan,nan,nan,nan,nan,nan,nan,nan,nan,nan
WMO16099,TREVISO/S.ANGELO ITALY,45.65000,12.18333,nan,nan,155.0,144.0,nan,nan,nan,nan,nan,nan,nan,nan,nan,nan,nan,nan
WMO16191,FALCONARA ITALY,43.60000,13.40000,nan,nan,nan,nan,nan,nan,nan,nan,nan,nan,nan,nan,nan,nan,nan,nan
WMO16258,MONTE S. ANGELO ITALY,41.70000,15.93333,848.0,nan,nan,nan,nan,nan,nan,nan,nan,nan,nan,nan,nan,nan,nan,nan
WMO16429,TRAPANI BIRGI ITALY,37.90000,12.48333,9.0,nan,217.0,189.0,215.0,213.0,154.0,218.0,181.0,204.0,217.0,172.0,178.0,244.0,169.0,nan
WMO16597,LUQA MALTA,35.85000,14.48333,nan,nan,248.0,183.0,207.0,244.0,194.0,214.0,200.0,237.0,250.0,nan,nan,nan,nan,212.0
WMO16746,SOUDA (AIRPORT) GREECE,35.48333,24.11667,151.0,nan,185.0,203.0,210.0,201.0,156.0,160.0,232.0,254.0,204.0,180.0,214.0,232.0,175.0,nan
WMO17062,ISTANBUL TURKEY,40.90000,29.15000,nan,nan,119.0,156.0,173.0,169.0,137.0,157.0,194.0,174.0,nan,nan,nan,nan,nan,nan
WMO17092,ERZINCAN TURKEY,39.70000,39.51667,1154.0,nan,171.0,200.0,221.0,213.0,162.0,199.0,167.0,221.0,157.0,151.0,226.0,200.0,183.0,210.0
WMO17150,BALIKESIR TURKEY,39.61667,27.91667,102.0,nan,145.0,171.0,178.0,181.0,122.0,194.0,207.0,196.0,132.0,155.0,200.0,214.0,183.0,nan
WMO17202,ELAZIG TURKEY,38.60000,39.28333,881.0,nan,199.0,222.0,248.0,219.0,201.0,256.0,176.0,254.0,181.0,188.0,277.0,253.0,209.0,nan
WMO17255,KAHRAMANMARAS TURKEY,37.60000,36.93333,572.0,nan,174.0,192.0,195.0,203.0,172.0,203.0,166.0,215.0,167.0,173.0,230.0,251.0,164.0,nan
WMO17351,ADANA/BOLGE TURKEY,36.98333,35.35000,27.0,nan,208.0,215.0,226.0,216.0,200.0,257.0,198.0,262.0,238.0,nan,nan,260.0,223.0,nan
WMO20674,OSTROV DIKSON RUSSIAN FEDERATION (IN ASIA),73.50000,80.40000,46.0,nan,46.0,30.0,16.0,15.0,25.0,28.0,32.0,21.0,22.0,38.0,17.0,8.0,33.0,nan
WMO21965,OSTROV CHETYREKHSTOLBOVOY RUSSIAN FEDERATION,70.60000,162.50000,nan,nan,nan,nan,nan,nan,nan,nan,nan,nan,nan,nan,nan,nan,nan,nan
WMO22602,REBOLY RUSSIAN FEDERATION (IN EUROPE),63.83333,30.81667,182.0,nan,nan,nan,nan,nan,nan,nan,nan,nan,nan,nan,nan,nan,nan,nan
WMO23205,NAR'JAN-MAR RUSSIAN FEDERATION (IN ASIA),67.61667,53.01667,11.0,nan,62.0,18.0,19.0,27.0,31.0,37.0,34.0,64.0,58.0,nan,nan,31.0,50.0,nan
WMO23472,TURUHANSK RUSSIAN FEDERATION (IN ASIA),65.78333,87.98333,37.0,nan,55.0,54.0,26.0,71.0,23.0,43.0,78.0,11.0,75.0,37.0,120.0,32.0,17.0,nan
WMO23884,BOR RUSSIAN FEDERATION (IN ASIA),61.56667,90.01667,57.0,nan,68.0,48.0,29.0,61.0,23.0,42.0,46.0,30.0,43.0,18.0,85.0,nan,45.0,35.0
WMO24143,DZARDZAN RUSSIAN FEDERATION (IN ASIA),68.73333,124.00000,38.0,nan,nan,nan,nan,nan,nan,nan,nan,nan,nan,nan,nan,nan,nan,nan
WMO24713,NAKANNO RUSSIAN FEDERATION (IN ASIA),62.88333,108.43333,245.0,nan,101.0,54.0,45.0,100.0,108.0,73.0,75.0,83.0,57.0,nan,nan,nan,60.0,47.0
WMO25173,MYS SHMIDTA RUSSIAN FEDERATION (IN ASIA),68.90000,-179.63333,3.0,nan,nan,nan,nan,nan,nan,nan,nan,nan,nan,nan,nan,nan,nan,nan
WMO25538,VERHNEE PENZINO RUSSIAN FEDERATION (IN ASIA),64.21667,164.23333,325.0,nan,93.0,nan,nan,80.0,81.0,nan,nan,165.0,54.0,nan,26.0,nan,nan,nan
WMO26038,TALLINN-HARKU ESTONIA,59.38333,24.60000,34.0,nan,41.0,57.0,85.0,62.0,130.0,119.0,66.0,107.0,101.0,134.0,79.0,67.0,108.0,nan
WMO26393,VYSNIJ VOLOCEK RUSSIAN FEDERATION,57.58333,34.56667,nan,nan,nan,nan,nan,nan,nan,nan,nan,nan,nan,nan,nan,nan,nan,nan
WMO26629,KAUNAS LITHUANIA,54.88333,23.83333,76.0,nan,123.0,98.0,80.0,80.0,178.0,132.0,102.0,62.0,132.0,137.0,66.0,nan,160.0,112.0
WMO27199,KIROV RUSSIAN FEDERATION (IN EUROPE),58.56667,49.56667,158.0,nan,nan,nan,nan,nan,nan,nan,nan,nan,nan,nan,nan,nan,nan,nan
WMO28138,BISER RUSSIAN FEDERATION (IN ASIA),58.51667,58.85000,463.0,nan,38.0,87.0,68.0,50.0,70.0,35.0,67.0,43.0,56.0,41.0,42.0,77.0,23.0,nan
WMO28573,ISHIM RUSSIAN FEDERATION (IN ASIA),56.10000,69.43333,82.0,nan,66.0,124.0,130.0,143.0,172.0,118.0,124.0,104.0,63.0,nan,nan,131.0,110.0,nan
WMO28766,BLAGOVESHCHENKA KAZAKHSTAN,54.36667,66.96667,151.0,nan,nan,nan,nan,nan,nan,128.0,144.0,115.0,64.0,nan,nan,134.0,147.0,nan
WMO29594,TAJSHET RUSSIAN FEDERATION (IN ASIA),55.95000,98.00000,306.0,nan,113.0,84.0,117.0,136.0,72.0,124.0,90.0,112.0,135.0,nan,nan,98.0,125.0,119.0
WMO30230,KIRENSK RUSSIAN FEDERATION (IN ASIA),57.76667,108.06667,258.0,nan,110.0,61.0,56.0,107.0,88.0,50.0,nan,nan,95.0,nan,nan,nan,110.0,58.0
WMO30635,UST'-BARGUZIN RUSSIAN FEDERATION (IN ASIA),53.41667,109.01667,460.0,nan,nan,nan,nan,nan,nan,nan,nan,nan,nan,nan,nan,nan,nan,nan
WMO30949,KYRA RUSSIAN FEDERATION (IN ASIA),49.56667,111.96667,907.0,nan,235.0,233.0,174.0,236.0,204.0,203.0,192.0,185.0,195.0,241.0,194.0,213.0,230.0,nan
WMO31416,IM POLINY OSIPENKO RUSSIAN FEDERATION (IN ASIA),52.41667,136.50000,70.0,nan,170.0,186.0,121.0,144.0,156.0,133.0,143.0,144.0,166.0,142.0,177.0,nan,163.0,163.0
WMO32061,ALEKSANDROVSK-SAHALINSKIJ RUSSIAN FEDERATION (IN ASIA),50.90000,142.16667,31.0,nan,157.0,145.0,90.0,118.0,143.0,170.0,108.0,129.0,152.0,90.0,114.0,nan,150.0,167.0
WMO32389,KLJUCHI RUSSIAN FEDERATION (IN ASIA),56.31667,160.83333,28.0,nan,137.0,155.0,110.0,113.0,149.0,113.0,127.0,171.0,107.0,100.0,159.0,150.0,131.0,158.0
WMO33041,GOMEL BELARUS,52.40000,30.95000,126.0,nan,110.0,107.0,96.0,103.0,126.0,114.0,66.0,83.0,205.0,176.0,62.0,72.0,169.0,nan
WMO33777,VOZNESENS'K UKRAINE,47.56667,31.33333,34.0,nan,nan,nan,nan,nan,nan,nan,nan,nan,nan,nan,nan,nan,nan,nan
WMO33983,KERCH UKRAINE,45.40000,36.41667,49.0,nan,nan,nan,nan,nan,nan,nan,nan,nan,nan,nan,nan,nan,nan,nan
WMO34300,KHARKIV UKRAINE,49.96667,36.13333,155.0,nan,77.0,120.0,160.0,104.0,95.0,120.0,129.0,79.0,225.0,nan,nan,68.0,192.0,174.0
WMO34927,KRASNODAR-KRUGLIK RUSSIAN FEDERATION (IN EUROPE),45.05000,39.03333,29.0,nan,nan,192.0,207.0,185.0,103.0,139.0,181.0,137.0,209.0,152.0,166.0,nan,nan,nan
WMO35376,BERLIK KAZAKHSTAN,49.88333,69.51667,349.0,nan,114.0,159.0,nan,nan,nan,nan,nan,nan,nan,nan,nan,nan,nan,nan
WMO36003,PAVLODAR KAZAKHSTAN,52.30000,76.93333,122.0,nan,96.0,122.0,193.0,163.0,172.0,165.0,151.0,123.0,83.0,nan,nan,nan,181.0,155.0
WMO36870,ALMATY KAZAKHSTAN,43.23333,76.93333,851.0,nan,186.0,215.0,150.0,205.0,162.0,169.0,209.0,233.0,153.0,164.0,152.0,195.0,149.0,171.0
WMO37472,MAHACHKALA RUSSIAN FEDERATION (IN EUROPE),43.00000,47.50000,-18.0,nan,129.0,190.0,162.0,215.0,86.0,146.0,206.0,171.0,140.0,108.0,118.0,nan,215.0,226.0
WMO37860,MASHTAGA AZERBAIJAN,40.53333,50.00000,28.0,nan,nan,nan,nan,211.0,112.0,168.0,nan,nan,102.0,83.0,106.0,147.0,160.0,nan
WMO38341,ZHAMBYL KAZAKHSTAN,42.85000,71.38333,nan,nan,158.0,257.0,182.0,274.0,202.0,177.0,244.0,237.0,145.0,nan,nan,211.0,195.0,nan
WMO38511,CHAGYL TURKMENISTAN,40.78333,55.33333,115.0,nan,nan,nan,257.0,281.0,234.0,225.0,238.0,226.0,208.0,167.0,191.0,205.0,264.0,271.0
WMO38734,DEHAVZ TAJIKISTAN,39.45000,70.20000,2561.0,nan,nan,nan,nan,nan,nan,nan,nan,nan,nan,nan,nan,nan,nan,nan
WMO38933,KURGAN-TYUBE TAJIKISTAN,37.81667,68.78333,427.0,nan,nan,nan,nan,nan,nan,nan,nan,nan,nan,nan,nan,nan,180.0,212.0
WMO40100,BEYROUTH (AEROPORT) LEBANON,33.81667,35.48333,19.0,nan,196.0,nan,186.0,106.0,nan,183.0,153.0,150.0,148.0,nan,309.0,nan,nan,nan
WMO40255,IRBID JORDAN,32.60000,35.90000,nan,nan,nan,nan,nan,nan,nan,nan,nan,nan,nan,nan,nan,nan,nan,nan
WMO40373,AL-QAISUMAH SAUDI ARABIA,28.31667,46.13333,358.0,nan,nan,nan,nan,nan,nan,nan,nan,nan,nan,nan,nan,nan,nan,nan
WMO40435,AL-DAWADAMI SAUDI ARABIA,26.98333,44.11667,923.0,nan,nan,nan,nan,nan,nan,nan,nan,nan,nan,nan,nan,nan,nan,nan
WMO40650,BAGHDAD IRAQ,33.26667,44.23333,nan,nan,nan,nan,nan,nan,nan,nan,nan,nan,nan,nan,nan,nan,nan,nan
WMO40723,BOJNOURD IRAN ISLAMIC REPUBLIC OF,37.46667,57.33333,nan,nan,nan,nan,245.0,285.0,255.0,206.0,243.0,242.0,226.0,245.0,247.0,250.0,238.0,245.0
WMO40766,KERMANSHAH IRAN ISLAMIC REPUBLIC OF,34.35000,47.15000,1319.0,nan,140.0,226.0,219.0,226.0,267.0,250.0,216.0,281.0,222.0,204.0,265.0,nan,186.0,225.0
WMO40821,YAZD IRAN ISLAMIC REPUBLIC OF,31.90000,54.40000,nan,nan,282.0,296.0,287.0,274.0,302.0,299.0,289.0,304.0,288.0,277.0,305.0,nan,259.0,272.0
WMO40911,MAZAR-I-SHARIF AFGHANISTAN ISLAMIC STATE OF,36.70000,67.20000,378.0,nan,nan,nan,nan,nan,nan,nan,nan,nan,nan,nan,nan,nan,nan,nan
WMO41061,WADI AL-DAWASSER AIRPORT SAUDI ARABIA,20.50000,45.25000,622.0,nan,321.0,334.0,309.0,327.0,nan,309.0,336.0,317.0,324.0,316.0,329.0,331.0,301.0,321.0
WMO41196,SHARJAH INTERNATIONAL AIRPORT UNITED ARAB EMIRATES,25.33333,55.51667,33.0,nan,294.0,289.0,nan,290.0,nan,291.0,nan,nan,287.0,nan,nan,nan,nan,nan
WMO41256,MUSCAT INT'L AIRPORT OMAN,23.58333,58.28333,8.0,nan,nan,nan,nan,nan,nan,nan,nan,nan,126.0,308.0,325.0,331.0,296.0,nan
WMO41287,JOBA OMAN,20.86667,58.23333,34.0,nan,nan,nan,nan,nan,nan,nan,nan,nan,nan,nan,nan,nan,nan,nan
WMO41515,DROSH PAKISTAN,35.56667,71.78333,1465.0,nan,nan,nan,nan,nan,nan,nan,nan,nan,nan,nan,nan,nan,nan,nan
WMO41685,BARKHAN PAKISTAN,29.88333,69.71667,1098.0,nan,nan,nan,nan,nan,nan,nan,nan,nan,nan,nan,nan,nan,nan,nan
WMO41764,HYDERABAD PAKISTAN,25.38333,68.41667,30.0,nan,nan,nan,nan,nan,nan,nan,nan,nan,nan,nan,nan,nan,nan,nan
WMO41923,DHAKA BANGLADESH,23.76667,90.38333,9.0,nan,nan,nan,nan,nan,nan,nan,187.0,140.0,180.0,183.0,164.0,151.0,161.0,166.0
WMO42314,DIBRUGARH /MOHANBARI INDIA (STATIONS NORTH OF LATITUDE 20~N),27.48333,95.01667,111.0,nan,208.0,197.0,203.0,205.0,175.0,256.0,218.0,174.0,264.0,nan,nan,nan,187.0,168.0
WMO42909,VERAVAL INDIA (STATIONS NORTH OF LATITUDE 20~N),20.90000,70.36667,11.0,nan,nan,nan,nan,nan,nan,nan,nan,nan,nan,nan,nan,nan,nan,nan
WMO43295,BANGALORE INDIA (STATIONS SOUTH OF LATITUDE 20~N),12.96667,77.58333,923.0,nan,143.0,113.0,105.0,180.0,118.0,132.0,136.0,114.0,151.0,181.0,209.0,143.0,205.0,123.0
WMO44213,BARUUNTURUUN MONGOLIA,49.65000,94.40000,1232.0,nan,nan,nan,nan,nan,nan,nan,nan,nan,nan,nan,nan,nan,nan,nan
WMO44277,ALTAI MONGOLIA,46.40000,96.25000,2181.0,nan,nan,nan,nan,nan,nan,nan,nan,nan,nan,140.0,134.0,nan,152.0,nan
WMO44373,DALANZADGAD MONGOLIA,43.58333,104.41667,1465.0,nan,273.0,255.0,264.0,267.0,269.0,241.0,nan,257.0,216.0,nan,nan,nan,nan,nan
WMO47014,CHUNGGANG DEMOCRATIC PEOPLE'S REPUBLIC OF KOREA,41.78333,126.88333,331.0,nan,147.0,83.0,94.0,84.0,131.0,nan,nan,nan,155.0,129.0,131.0,nan,128.0,147.0
WMO47112,INCHEON REPUBLIC OF KOREA,37.46667,126.61667,69.0,nan,nan,nan,nan,231.0,213.0,206.0,238.0,265.0,247.0,nan,nan,nan,257.0,243.0
WMO47407,ASAHIKAWA JAPAN,43.75000,142.36667,140.0,nan,151.0,134.0,129.0,108.0,136.0,124.0,113.0,120.0,125.0,nan,nan,129.0,127.0,nan
WMO47582,AKITA JAPAN,39.71667,140.08333,21.0,nan,158.0,171.0,153.0,158.0,143.0,143.0,162.0,118.0,172.0,172.0,155.0,99.0,157.0,152.0
WMO47618,MATSUMOTO JAPAN,36.25000,137.96667,nan,nan,181.0,125.0,nan,nan,nan,nan,nan,nan,nan,nan,nan,nan,nan,nan
WMO47678,HACHIJOJIMA JAPAN,33.11667,139.76667,156.0,nan,139.0,107.0,109.0,84.0,80.0,105.0,116.0,138.0,100.0,167.0,117.0,nan,105.0,96.0
WMO47800,IZUHARA JAPAN,34.18333,129.28333,4.0,nan,179.0,158.0,176.0,187.0,125.0,132.0,186.0,135.0,154.0,221.0,77.0,119.0,168.0,162.0
WMO47893,KOCHI JAPAN,33.56667,133.53333,4.0,nan,nan,171.0,161.0,182.0,130.0,166.0,218.0,170.0,163.0,246.0,132.0,123.0,204.0,173.0
WMO47991,MINAMITORISHIMA JAPAN,24.28333,153.98333,8.0,nan,250.0,245.0,252.0,284.0,215.0,247.0,276.0,236.0,252.0,216.0,238.0,nan,254.0,266.0
WMO48462,ARANYAPRATHET THAILAND,13.68333,102.50000,49.0,nan,nan,nan,nan,nan,nan,nan,nan,nan,nan,nan,nan,nan,nan,nan
WMO48657,KUANTAN MALAYSIA (PENINSULAR MALAYSIA),3.78333,103.21667,16.0,nan,nan,nan,nan,nan,nan,nan,nan,nan,nan,nan,nan,nan,nan,nan
WMO48830,LANG SON VIET NAM,21.83333,106.76667,263.0,nan,156.0,154.0,124.0,165.0,418.0,111.0,158.0,188.0,176.0,nan,nan,148.0,162.0,nan
WMO48914,CA MAU VIET NAM,9.18333,105.15000,2.0,nan,155.0,125.0,141.0,160.0,81.0,170.0,163.0,163.0,147.0,153.0,71.0,108.0,170.0,120.0
WMO48991,PHNOM-PENH (KHMOUGH) CAMBODIA,11.60000,104.86667,10.0,nan,nan,nan,nan,nan,177.0,177.0,180.0,197.0,206.0,237.0,nan,nan,nan,nan
WMO51709,KASHI CHINA,39.48333,75.75000,1386.0,nan,290.0,253.0,278.0,271.0,243.0,240.0,287.0,279.0,263.0,261.0,267.0,221.0,247.0,nan
WMO52681,MINQIN CHINA,38.63333,103.08333,1369.0,nan,274.0,195.0,262.0,291.0,260.0,250.0,277.0,278.0,nan,279.0,261.0,244.0,285.0,205.0
WMO53845,YAN AN CHINA,36.58333,109.45000,1181.0,nan,204.0,147.0,215.0,189.0,180.0,159.0,189.0,247.0,198.0,209.0,97.0,63.0,235.0,164.0
WMO54857,QINGDAO CHINA,36.06667,120.33333,77.0,nan,182.0,157.0,199.0,201.0,230.0,169.0,229.0,240.0,209.0,193.0,131.0,151.0,241.0,nan
WMO56187,WENJIANG CHINA,30.75000,103.86667,555.0,nan,80.0,19.0,45.0,52.0,38.0,36.0,45.0,78.0,63.0,nan,53.0,30.0,65.0,42.0
WMO57083,ZHENGZHOU CHINA,34.71667,113.65000,111.0,nan,134.0,91.0,139.0,167.0,131.0,131.0,170.0,167.0,140.0,160.0,108.0,nan,199.0,129.0
WMO57993,GANZHOU CHINA,25.86667,115.00000,138.0,nan,139.0,191.0,162.0,215.0,110.0,115.0,238.0,205.0,255.0,166.0,64.0,163.0,163.0,nan
WMO59211,BAISE CHINA,23.90000,106.60000,177.0,nan,105.0,134.0,107.0,110.0,161.0,123.0,141.0,135.0,170.0,nan,nan,nan,90.0,107.0
WMO60010,IZANA SPAIN (CANARY ISLANDS),28.30000,-16.48333,2368.0,nan,266.0,310.0,256.0,nan,268.0,261.0,261.0,313.0,285.0,227.0,275.0,276.0,263.0,283.0
WMO60120,KENITRA MOROCCO,34.30000,-6.58333,nan,nan,241.0,262.0,212.0,260.0,235.0,258.0,233.0,240.0,262.0,233.0,220.0,nan,208.0,242.0
WMO60320,CEUTA SPAIN (CEUTA AND MELILLA),35.90000,-5.33333,88.0,nan,nan,nan,nan,nan,nan,nan,nan,230.0,203.0,nan,nan,nan,189.0,227.0
WMO60387,DELLYS ALGERIA,36.91667,3.95000,8.0,nan,265.0,190.0,208.0,252.0,216.0,241.0,231.0,225.0,255.0,nan,236.0,276.0,203.0,nan
WMO60423,SOUK AHRAS ALGERIA,36.28333,7.96667,680.0,nan,256.0,162.0,211.0,203.0,228.0,226.0,219.0,266.0,239.0,nan,nan,246.0,221.0,nan
WMO60467,M'SILA ALGERIA,35.66667,4.50000,442.0,nan,293.0,233.0,215.0,298.0,244.0,275.0,253.0,265.0,261.0,nan,nan,288.0,225.0,nan
WMO60514,KSAR CHELLALA ALGERIA,35.16667,2.31667,801.0,nan,285.0,220.0,194.0,295.0,252.0,262.0,246.0,267.0,264.0,nan,nan,299.0,237.0,280.0
WMO60536,SAIDA ALGERIA,34.86667,0.15000,752.0,nan,262.0,228.0,199.0,312.0,251.0,257.0,217.0,263.0,267.0,227.0,260.0,301.0,232.0,nan
WMO60566,GHARDAIA ALGERIA,32.40000,3.80000,469.0,nan,297.0,255.0,217.0,326.0,267.0,292.0,258.0,290.0,283.0,274.0,279.0,310.0,270.0,nan
WMO60630,IN-SALAH ALGERIA,27.23333,2.50000,269.0,nan,281.0,277.0,191.0,301.0,265.0,263.0,278.0,311.0,289.0,271.0,294.0,nan,277.0,295.0
WMO60735,KAIROUAN TUNISIA,35.66667,10.10000,68.0,nan,264.0,214.0,221.0,257.0,244.0,240.0,237.0,240.0,253.0,nan,nan,nan,208.0,224.0
WMO61053,DOSSO NIGER,13.03333,3.30000,213.0,nan,nan,nan,nan,nan,nan,nan,nan,287.0,nan,280.0,287.0,293.0,nan,nan
WMO61223,TOMBOUCTOU MALI,16.71667,-3.00000,264.0,nan,nan,305.0,254.0,273.0,254.0,278.0,nan,nan,nan,nan,nan,nan,nan,nan
WMO61272,SEGOU MALI,13.40000,-6.15000,289.0,nan,nan,250.0,nan,nan,nan,271.0,nan,261.0,284.0,266.0,278.0,231.0,250.0,227.0
WMO61415,NOUADHIBOU MAURITANIA,20.93333,-17.03333,3.0,nan,264.0,288.0,286.0,nan,254.0,232.0,nan,297.0,284.0,214.0,250.0,nan,nan,nan
WMO61499,AIOUN EL ATROUSS MAURITANIA,16.70000,-9.60000,223.0,nan,nan,nan,nan,nan,nan,nan,nan,nan,nan,nan,nan,nan,nan,nan
WMO61695,ZIGUINCHOR SENEGAL,12.55000,-16.26667,nan,nan,200.0,256.0,217.0,199.0,204.0,217.0,214.0,203.0,236.0,nan,nan,nan,nan,228.0
WMO61818,KINDIA GUINEA,10.05000,-12.86667,nan,nan,nan,nan,nan,nan,nan,nan,nan,nan,nan,nan,nan,nan,nan,nan
WMO61878,NJALA SIERRA LEONE,8.10000,-12.10000,56.0,nan,nan,nan,nan,nan,nan,nan,nan,nan,nan,nan,nan,nan,nan,nan
WMO61974,AGALEGA MAURITIUS,-10.38333,56.60000,4.0,nan,214.0,236.0,242.0,233.0,259.0,260.0,220.0,283.0,272.0,183.0,272.0,245.0,225.0,240.0
WMO62002,NALUT LIBYA,31.86667,10.98333,621.0,nan,280.0,280.0,235.0,297.0,271.0,nan,268.0,276.0,300.0,259.0,264.0,263.0,nan,nan
WMO62055,AGEDABIA LIBYA,30.71667,20.16667,7.0,nan,291.0,284.0,264.0,283.0,248.0,nan,nan,nan,nan,nan,nan,nan,nan,nan
WMO62176,GIGHBUB LIBYA,29.75000,24.53333,-1.0,nan,nan,322.0,309.0,307.0,291.0,nan,nan,263.0,nan,nan,nan,nan,nan,nan
WMO62387,MINYA EGYPT,28.08333,30.73333,40.0,nan,nan,nan,nan,289.0,312.0,316.0,nan,313.0,nan,297.0,nan,nan,nan,nan
WMO62464,HURGUADA POLLUTION EGYPT,27.28333,33.73333,6.0,nan,nan,nan,nan,nan,nan,nan,nan,nan,nan,nan,295.0,nan,nan,nan
WMO62730,KASSALA SUDAN,15.46667,36.40000,500.0,nan,295.0,302.0,303.0,301.0,295.0,nan,326.0,317.0,317.0,nan,nan,nan,317.0,nan
WMO62781,EN NAHUD SUDAN,12.70000,28.43333,564.0,nan,228.0,292.0,293.0,296.0,257.0,nan,283.0,268.0,252.0,246.0,228.0,268.0,nan,nan
WMO63021,ASMARA ERITREA,15.28333,38.91667,2325.0,nan,nan,nan,nan,nan,nan,nan,nan,nan,nan,nan,nan,nan,nan,nan
WMO63630,GULU UGANDA,2.75000,32.33333,1105.0,nan,nan,nan,nan,nan,nan,nan,nan,nan,nan,nan,nan,nan,nan,nan
WMO63820,MOMBASA INTERNATIONAL AIRPORT KENYA,-4.00000,39.60000,nan,nan,nan,260.0,203.0,229.0,nan,nan,nan,nan,nan,nan,nan,280.0,nan,nan
WMO64247,MBUJI-MAYI DEMOCRATIC REPUBLIC OF THE CONGO,-6.16667,23.61667,677.0,nan,nan,nan,nan,nan,nan,nan,nan,nan,nan,nan,nan,nan,nan,nan
WMO64453,DJAMBALA CONGO,-2.53333,14.76667,790.0,nan,nan,nan,nan,nan,nan,148.0,125.0,147.0,141.0,nan,nan,nan,nan,138.0
WMO64507,TCHIBANGA GABON,-2.85000,11.01667,79.0,nan,nan,nan,nan,nan,nan,nan,nan,nan,nan,nan,nan,nan,nan,nan
WMO64605,BOSSEMBELE CENTRAL AFRICAN REPUBLIC,5.26667,17.63333,674.0,nan,nan,nan,nan,nan,nan,nan,nan,nan,nan,nan,nan,nan,nan,nan
WMO64700,NDJAMENA CHAD,12.13333,15.03333,295.0,nan,281.0,nan,nan,nan,265.0,219.0,284.0,297.0,268.0,nan,294.0,302.0,294.0,nan
WMO64754,AM-TIMAN CHAD,11.03333,20.28333,436.0,nan,nan,nan,nan,nan,nan,nan,nan,nan,nan,nan,nan,nan,nan,nan
WMO64900,YOKO CAMEROON,5.55000,12.36667,1031.0,nan,nan,nan,nan,nan,nan,nan,nan,nan,nan,nan,nan,nan,nan,nan
WMO65123,MINNA NIGERIA,9.61667,6.53333,256.0,nan,nan,nan,nan,221.0,202.0,nan,209.0,263.0,nan,225.0,245.0,198.0,nan,nan
WMO65338,BOHICON BENIN,7.16667,2.06667,167.0,nan,200.0,203.0,179.0,201.0,197.0,206.0,199.0,210.0,202.0,205.0,207.0,198.0,198.0,128.0
WMO65387,LOME TOGO,6.16667,1.25000,25.0,nan,nan,nan,nan,nan,216.0,231.0,nan,nan,nan,nan,nan,nan,221.0,nan
WMO65502,OUAHIGOUYA BURKINA FASO,13.58333,-2.43333,nan,nan,264.0,285.0,279.0,281.0,266.0,273.0,280.0,291.0,295.0,nan,nan,nan,278.0,276.0
WMO65545,BONDOUKOU COTE D'IVOIRE,8.05000,-2.78333,370.0,nan,nan,nan,nan,nan,nan,nan,nan,nan,195.0,198.0,211.0,219.0,nan,nan
WMO65594,SAN PEDRO COTE D'IVOIRE,4.75000,-6.65000,30.0,nan,nan,nan,nan,nan,186.0,nan,nan,nan,207.0,nan,nan,nan,nan,nan
WMO67009,ANTSIRANANA MADAGASCAR,-12.35000,49.30000,105.0,nan,309.0,312.0,305.0,nan,307.0,312.0,nan,296.0,293.0,296.0,300.0,nan,266.0,nan
WMO67161,TOLIARA MADAGASCAR,-23.38333,43.73333,8.0,nan,nan,nan,nan,nan,nan,nan,nan,nan,nan,nan,nan,nan,nan,nan
WMO67283,QUELIMANE MOZAMBIQUE,-17.88333,36.88333,16.0,nan,nan,nan,284.0,112.0,296.0,nan,291.0,266.0,nan,nan,nan,nan,nan,nan
WMO67346,CHANGALANE MOZAMBIQUE,-26.28333,32.18333,104.0,nan,nan,nan,nan,nan,nan,nan,nan,nan,nan,nan,nan,194.0,nan,271.0
WMO67693,CHILEKA MALAWI,-15.68333,34.96667,767.0,nan,nan,nan,nan,nan,nan,nan,nan,nan,nan,292.0,nan,nan,nan,nan
WMO68006,ONDANGWA NAMIBIA,-17.93333,15.98333,nan,nan,nan,nan,nan,nan,nan,nan,nan,nan,nan,nan,nan,nan,nan,nan
WMO68174,POLOKWANE SOUTH AFRICA,-23.86667,29.45000,1226.0,nan,281.0,216.0,304.0,271.0,301.0,286.0,226.0,277.0,291.0,314.0,281.0,252.0,302.0,nan
WMO68442,BLOEMFONTEIN AIRPORT SOUTH AFRICA,-29.10000,26.30000,1353.0,nan,267.0,251.0,325.0,270.0,266.0,301.0,316.0,311.0,315.0,nan,nan,301.0,315.0,nan
WMO68828,GEORGE AIRPORT SOUTH AFRICA,-34.01667,22.38333,191.0,nan,188.0,221.0,205.0,246.0,181.0,238.0,189.0,223.0,218.0,nan,nan,230.0,226.0,nan
WMO70231,MCGRATH AK UNITED STATES OF AMERICA (ALASKA),62.95000,-155.58333,103.0,nan,nan,nan,nan,nan,nan,nan,nan,nan,nan,nan,nan,nan,nan,nan
WMO71066,HIGH LEVEL ALTA CANADA,58.61667,-117.15000,nan,nan,nan,nan,nan,nan,nan,nan,nan,nan,nan,nan,nan,nan,nan,nan
WMO71299,KAPUSKASING CDA ON ONT CANADA,49.40000,-82.43333,nan,nan,nan,nan,nan,nan,nan,nan,nan,nan,nan,nan,nan,nan,nan,nan
WMO71727,BAGOTVILLE A QUE CANADA,48.33333,-71.00000,nan,nan,nan,nan,nan,nan,nan,nan,nan,nan,nan,nan,nan,nan,nan,nan
WMO71831,KAPUSKASING CANADA,49.40000,-82.50000,nan,nan,nan,nan,nan,nan,nan,nan,nan,nan,nan,nan,nan,nan,nan,nan
WMO71874,LETHBRIDGE AIRPORT CANADA,49.60000,-112.80000,nan,nan,nan,nan,nan,nan,nan,nan,nan,nan,nan,nan,nan,nan,nan,nan
WMO71915,CORAL HARBOUR A NU CANADA,64.18333,-83.35000,nan,nan,nan,nan,nan,nan,nan,nan,nan,nan,nan,nan,nan,nan,nan,nan
WMO71957,INUVIK/NWT (SY) CANADA,68.30000,-133.48333,nan,nan,nan,nan,nan,nan,nan,nan,nan,nan,nan,nan,nan,nan,nan,nan
WMO72226,MONTGOMERY/DANNELLY  AL. UNITED STATES OF AMERICA,32.30000,-86.40000,62.0,nan,nan,nan,nan,nan,nan,nan,nan,nan,nan,nan,nan,nan,nan,nan
WMO72259,DALLAS-FORT WORTH/FORT WORTH REG.AIRPORT TX. UNITED STATES OF AMERICA,32.90000,-97.03333,182.0,nan,nan,nan,nan,nan,nan,nan,nan,nan,nan,nan,nan,nan,nan,nan
WMO72308,NORFOLK/INT. VA. UNITED STATES OF AMERICA,36.90000,-76.20000,9.0,nan,nan,nan,nan,nan,nan,nan,nan,nan,nan,nan,nan,nan,nan,nan
WMO72344,FORT SMITH/MUN. AR. UNITED STATES OF AMERICA,35.33333,-94.36667,141.0,nan,nan,nan,nan,nan,nan,nan,nan,nan,nan,nan,nan,nan,nan,nan
WMO72406,BALTIMORE/BALTIMORE-WASHINGTON INT. MD. UNITED STATES OF AMERICA,39.18333,-76.66667,47.0,nan,nan,nan,nan,nan,nan,nan,nan,nan,nan,nan,nan,nan,nan,nan
WMO72439,SPRINGFIELD/CAPITAL  IL. UNITED STATES OF AMERICA,39.85000,-89.66667,187.0,nan,nan,nan,nan,nan,nan,nan,nan,nan,nan,nan,nan,nan,nan,nan
WMO72483,SACRAMENTO/EXECUTIVE CA. UNITED STATES OF AMERICA,38.51667,-121.50000,8.0,nan,nan,nan,nan,nan,nan,nan,nan,nan,nan,nan,nan,nan,nan,nan
WMO72517,ALLENTOWN/A.-BETHLEHEM-EASTON PA. UNITED STATES OF AMERICA,40.65000,-75.43333,117.0,nan,nan,nan,nan,nan,nan,nan,nan,nan,nan,nan,nan,nan,nan,nan
WMO72537,DETROIT/METROPOLITAN MI. UNITED STATES OF AMERICA,42.23333,-83.33333,202.0,nan,nan,nan,nan,nan,nan,nan,nan,nan,nan,nan,nan,nan,nan,nan
WMO72597,MEDFORD/MEDFORD-JACKSON COUNTY OR. UNITED STATES OF AMERICA,42.36667,-122.86667,398.0,nan,nan,nan,nan,nan,nan,nan,nan,nan,nan,nan,nan,nan,nan,nan
WMO72658,MINNEAPOLIS/ST.PAUL INT. MN. UNITED STATES OF AMERICA,44.88333,-93.21667,255.0,nan,nan,nan,nan,nan,nan,nan,nan,nan,nan,nan,nan,nan,nan,nan
WMO72753,FARGO/HECTOR FIELD  ND. UNITED STATES OF AMERICA,46.90000,-96.80000,274.0,nan,nan,nan,nan,nan,nan,nan,nan,nan,nan,nan,nan,nan,nan,nan
WMO76040,EJIDO NUEVO LEON MEXICO,32.40000,-115.18333,nan,nan,300.0,305.0,315.0,301.0,267.0,307.0,312.0,322.0,279.0,263.0,284.0,nan,nan,nan
WMO76256,EMPALME SON. MEXICO,27.95000,-110.80000,nan,nan,280.0,347.0,nan,255.0,279.0,306.0,278.0,287.0,287.0,272.0,283.0,313.0,262.0,281.0
WMO76402,CIUDAD CONSTITUCION BCS MEXICO,25.00000,-111.63333,nan,nan,286.0,308.0,272.0,247.0,279.0,290.0,264.0,246.0,295.0,nan,nan,nan,257.0,269.0
WMO76539,SAN LUIS POTOSI  S.L.P. MEXICO,22.20000,-101.01667,nan,nan,200.0,254.0,184.0,179.0,202.0,220.0,256.0,196.0,209.0,166.0,201.0,nan,175.0,209.0
WMO76612,GUADALAJARA JAL. MEXICO,20.70000,-103.38333,nan,nan,nan,nan,nan,nan,nan,nan,264.0,nan,235.0,nan,251.0,153.0,198.0,nan
WMO76658,COLIMA MEXICO,19.23333,-103.73333,nan,nan,223.0,222.0,223.0,172.0,280.0,193.0,nan,210.0,188.0,173.0,207.0,nan,248.0,192.0
WMO76692,HACIENDA YLANG YLANG VERACRUZ VER. MEXICO,19.15000,-96.13333,nan,nan,213.0,195.0,191.0,239.0,239.0,231.0,216.0,196.0,200.0,198.0,218.0,nan,184.0,215.0
WMO76805,ACAPULCO GRO. MEXICO,16.75000,-99.75000,nan,nan,211.0,nan,234.0,222.0,301.0,241.0,246.0,232.0,204.0,243.0,323.0,243.0,nan,nan
WMO78310,CABO SAN ANTONIO  PINAR DEL RIO CUBA,21.86667,-84.95000,8.0,nan,nan,nan,nan,nan,261.0,nan,nan,nan,nan,nan,nan,nan,nan,nan
WMO78482,BARAHONA DOMINICAN REPUBLIC,18.20000,-71.10000,nan,nan,nan,nan,nan,nan,nan,nan,nan,nan,nan,nan,nan,nan,nan,nan
WMO78760,PUNTARENAS COSTA RICA,9.96667,-84.83333,3.0,nan,nan,nan,nan,nan,nan,nan,nan,nan,nan,nan,nan,nan,nan,nan
WMO80001,SAN ANDRES (ISLA)/SESQUICENTENARIO COLOMBIA,12.58333,-81.71667,6.0,nan,191.0,180.0,142.0,184.0,140.0,148.0,nan,199.0,198.0,232.0,187.0,143.0,170.0,159.0
WMO80094,BUCARAMANGA/PALONEGRO COLOMBIA,7.10000,-73.20000,1189.0,nan,136.0,152.0,153.0,174.0,139.0,101.0,130.0,139.0,147.0,148.0,128.0,nan,155.0,134.0
WMO80219,GIRARDOT/SANTIAGO VILLA COLOMBIA,4.28333,-74.80000,293.0,nan,nan,nan,nan,nan,nan,nan,nan,nan,nan,nan,nan,nan,nan,nan
WMO80398,LETICIA/VASQUEZ COBO COLOMBIA,-4.16667,-69.95000,84.0,nan,200.0,164.0,194.0,182.0,176.0,nan,nan,164.0,154.0,nan,nan,nan,132.0,179.0
WMO80420,CUMANA VENEZUELA,10.45000,-64.18333,4.0,nan,245.0,243.0,235.0,263.0,255.0,240.0,242.0,253.0,229.0,nan,nan,221.0,nan,nan
WMO80435,MATURIN VENEZUELA,9.75000,-63.18333,66.0,nan,227.0,229.0,220.0,242.0,250.0,218.0,233.0,237.0,211.0,nan,nan,213.0,nan,nan
WMO80457,PUERTO AYACUCHO VENEZUELA,5.60000,-67.50000,74.0,nan,176.0,188.0,205.0,nan,nan,169.0,204.0,199.0,183.0,205.0,200.0,134.0,nan,nan
WMO81401,SAINT-LAURENT FRENCH GUIANA,5.48333,-54.01667,5.0,nan,139.0,nan,nan,nan,nan,nan,nan,nan,nan,nan,222.0,172.0,215.0,192.0
WMO82184,PORTO DE MOZ BRAZIL,-1.73333,-52.23333,16.0,nan,271.0,nan,243.0,275.0,nan,nan,nan,nan,nan,nan,nan,nan,nan,nan
WMO82397,FORTALEZA BRAZIL,-3.76667,-38.60000,26.0,nan,316.0,311.0,306.0,297.0,295.0,271.0,301.0,306.0,306.0,nan,nan,281.0,290.0,nan
WMO82586,QUIXERAMOBIM BRAZIL,-5.20000,-39.30000,212.0,nan,305.0,311.0,300.0,275.0,251.0,257.0,308.0,306.0,302.0,nan,nan,nan,271.0,279.0
WMO82900,RECIFE BRAZIL,-8.05000,-34.91667,7.0,nan,288.0,232.0,222.0,257.0,209.0,192.0,187.0,164.0,198.0,246.0,251.0,179.0,234.0,238.0
WMO83236,BARREIRAS BRAZIL,-12.15000,-45.00000,439.0,nan,176.0,286.0,288.0,nan,246.0,192.0,266.0,251.0,nan,246.0,281.0,nan,237.0,250.0
WMO83437,MONTES CLAROS BRAZIL,-16.71667,-43.86667,646.0,nan,119.0,285.0,297.0,171.0,213.0,142.0,265.0,228.0,242.0,284.0,259.0,nan,206.0,252.0
WMO83618,TRES LAGOAS BRAZIL,-20.78333,-51.70000,313.0,nan,208.0,191.0,191.0,200.0,nan,nan,nan,nan,nan,nan,nan,nan,nan,nan
WMO83726,SAO CARLOS BRAZIL,-22.01667,-47.88333,856.0,nan,200.0,190.0,159.0,nan,203.0,nan,222.0,178.0,237.0,170.0,nan,nan,nan,nan
WMO83997,ST.VITORIA DO PALMAR BRAZIL,-33.51667,-53.35000,24.0,nan,207.0,192.0,219.0,209.0,249.0,188.0,157.0,216.0,195.0,156.0,184.0,nan,227.0,nan
WMO84140,PICHILINGUE ECUADOR,-1.10000,-79.45000,nan,nan,nan,nan,35.0,80.0,63.0,54.0,44.0,66.0,54.0,53.0,63.0,60.0,nan,35.0
WMO85033,GUAYARAMERIN BOLIVIA,-10.81667,-65.35000,nan,nan,nan,152.0,203.0,219.0,184.0,nan,nan,nan,nan,nan,nan,nan,nan,nan
WMO85154,TRINIDAD BOLIVIA,-14.81667,-64.91667,nan,nan,nan,169.0,206.0,226.0,198.0,210.0,246.0,151.0,232.0,nan,nan,218.0,214.0,nan
WMO85406,ARICA CHILE,-18.35000,-70.33333,nan,nan,209.0,152.0,191.0,173.0,188.0,222.0,181.0,186.0,186.0,140.0,203.0,197.0,172.0,205.0
WMO85577,QUINTA NORMAL CHILE,-33.43333,-70.66667,nan,nan,200.0,270.0,257.0,206.0,247.0,265.0,216.0,245.0,259.0,189.0,226.0,231.0,221.0,nan
WMO85864,COYHAIQUE CHILE,-45.58333,-73.10000,nan,nan,186.0,197.0,217.0,197.0,185.0,244.0,217.0,252.0,211.0,211.0,195.0,169.0,189.0,nan
WMO86086,PUERTO CASADO PARAGUAY,-22.28333,-57.93333,78.0,nan,nan,nan,nan,nan,222.0,242.0,226.0,170.0,265.0,nan,nan,nan,181.0,211.0
WMO86221,PARAGUARI PARAGUAY,-25.63333,-57.13333,116.0,nan,nan,nan,nan,nan,219.0,238.0,201.0,190.0,239.0,172.0,254.0,204.0,162.0,nan
WMO86285,CAPITAN MEZA PARAGUAY,-26.83333,-55.33333,263.0,nan,nan,nan,nan,nan,220.0,244.0,185.0,218.0,234.0,162.0,212.0,nan,143.0,185.0
WMO86560,COLONIA URUGUAY,-34.45000,-57.76667,20.0,nan,nan,nan,nan,nan,nan,nan,nan,nan,nan,nan,188.0,207.0,212.0,nan
WMO87078,LAS LOMITAS ARGENTINA,-24.70000,-60.58333,130.0,nan,261.0,204.0,217.0,253.0,235.0,225.0,229.0,214.0,244.0,nan,nan,174.0,148.0,nan
WMO87166,CORRIENTES AERO. ARGENTINA,-27.45000,-58.76667,62.0,nan,nan,nan,nan,nan,nan,nan,nan,nan,nan,nan,nan,nan,nan,nan
WMO87289,PASO DE LOS LIBRES AERO ARGENTINA,-29.68333,-57.15000,70.0,nan,nan,121.0,194.0,242.0,257.0,194.0,164.0,222.0,182.0,146.0,194.0,179.0,179.0,nan
WMO87374,PARANA AERO ARGENTINA,-31.78333,-60.48333,78.0,nan,279.0,225.0,269.0,302.0,281.0,223.0,211.0,272.0,237.0,202.0,211.0,217.0,219.0,196.0
WMO87484,PERGAMINO ARGENTINA,-33.93333,-60.55000,nan,nan,nan,nan,nan,nan,nan,nan,nan,nan,nan,nan,nan,nan,nan,nan
WMO87550,NUEVE DE JULIO ARGENTINA,-35.45000,-60.88333,76.0,nan,nan,nan,nan,nan,nan,nan,nan,nan,nan,nan,nan,nan,nan,nan
WMO87640,BOLIVAR AERO ARGENTINA,-36.20000,-61.06667,94.0,nan,220.0,210.0,237.0,247.0,283.0,235.0,192.0,220.0,250.0,nan,nan,246.0,229.0,228.0
WMO87692,MAR DEL PLATA AERO ARGENTINA,-37.93333,-57.58333,21.0,nan,66.0,194.0,175.0,217.0,185.0,168.0,145.0,165.0,105.0,105.0,114.0,179.0,nan,nan
WMO87800,EL BOLSON AERO ARGENTINA,-41.96667,-71.51667,337.0,nan,nan,nan,nan,nan,nan,nan,nan,nan,nan,nan,nan,nan,nan,nan
WMO87903,LAGO ARGENTINO ARGENTINA,-50.33333,-72.30000,nan,nan,nan,nan,nan,nan,nan,nan,nan,nan,nan,nan,nan,nan,nan,nan
WMO88903,GRYTVIKEN  SOUTH GEORGIA ISLANDS(UNITED KINGDOM OF GREAT BRITAIN),-54.28333,-36.48333,3.0,nan,nan,114.0,150.0,169.0,190.0,177.0,130.0,201.0,162.0,nan,nan,nan,nan,nan
WMO89042,SIGNY ISLAND / SOUTH ORKNEY ISL. ANTARCTICA,-60.70000,-45.60000,nan,nan,nan,nan,nan,nan,nan,nan,nan,nan,nan,nan,nan,nan,nan,nan
WMO89063,VERNADSKY STATIONS OPERATED BY UKRAINE,-65.25000,-64.26667,11.0,nan,nan,nan,nan,nan,nan,nan,nan,nan,nan,nan,39.0,76.0,93.0,nan
WMO89606,VOSTOK STATIONS OPERATED BY THE RUSSIAN FEDERATION,-78.45000,106.85000,3489.0,nan,379.0,477.0,517.0,472.0,525.0,471.0,518.0,520.0,457.0,395.0,509.0,438.0,396.0,nan
WMO91275,JOHNSTON ISLAND (WSO AIRPORT) ISLANDS IN THE PACIFIC OCEAN NORTH OF THE EQUATOR,16.70000,-169.50000,nan,nan,nan,nan,nan,nan,nan,nan,nan,nan,nan,nan,nan,nan,nan,nan
WMO91557,BAUERFIELD (EFATE) VANUATU,-17.70000,168.30000,21.0,nan,nan,nan,nan,nan,nan,nan,nan,nan,nan,nan,nan,nan,nan,nan
WMO91683,NAUSORI FIJI,-18.05000,178.56667,7.0,nan,nan,nan,nan,nan,nan,nan,nan,nan,nan,nan,nan,nan,nan,nan
WMO91938,TAHITI-FAAA FRENCH POLYNESIA (SOCIETY ISLANDS),-17.55000,-149.60000,2.0,nan,214.0,207.0,251.0,250.0,219.0,203.0,259.0,239.0,204.0,nan,nan,nan,257.0,212.0
WMO91958,RAPA FRENCH POLYNESIA (AUSTRAL ISLANDS),-27.61667,-144.33333,2.0,nan,115.0,107.0,133.0,131.0,140.0,119.0,151.0,97.0,96.0,158.0,124.0,212.0,192.0,nan
WMO92077,GURNEY W.O. PAPUA NEW GUINEA,-10.31667,150.33333,23.0,nan,nan,nan,nan,nan,nan,nan,nan,nan,nan,nan,nan,nan,nan,nan
WMO93417,PARAPARAUMU NEW ZEALAND,-40.90000,174.98333,nan,nan,155.0,206.0,196.0,163.0,nan,nan,nan,nan,nan,nan,nan,nan,nan,nan
WMO93986,WAITANGI / CHATHAM ISL. NEW ZEALAND,-44.00000,-176.60000,nan,nan,nan,nan,nan,nan,nan,nan,nan,nan,nan,nan,nan,nan,nan,nan
WMO94238,TENNANT CREEK AIRPORT AUSTRALIA,-19.63333,134.18333,377.0,nan,320.0,321.0,332.0,319.0,264.0,nan,nan,309.0,364.0,nan,nan,nan,nan,nan
WMO94476,OODNADATTA AIRPORT AUSTRALIA,-27.55000,135.43333,117.0,nan,nan,nan,nan,nan,nan,nan,nan,nan,nan,nan,nan,nan,nan,nan
WMO94738,SCONE SCS AUSTRALIA,-32.05000,150.91667,216.0,nan,nan,nan,nan,nan,nan,nan,nan,nan,nan,nan,nan,nan,nan,nan
WMO94926,CANBERRA AIRPORT AUSTRALIA,-35.30000,149.20000,577.0,nan,338.0,305.0,297.0,213.0,nan,nan,nan,nan,nan,nan,nan,nan,nan,nan
WMO95971,GROVE/TAS AUSTRALIA,-42.98333,147.06667,nan,nan,nan,212.0,218.0,nan,nan,nan,nan,nan,nan,nan,nan,nan,nan,nan
WMO96091,TANJUNG PINANG/KIJANG INDONESIA,0.91667,104.53333,18.0,nan,nan,nan,nan,nan,nan,116.0,159.0,174.0,177.0,78.0,105.0,114.0,181.0,162.0
WMO96249,TANJUNG PANDAN/BULUH TUMBANG INDONESIA,-2.75000,107.75000,44.0,nan,229.0,138.0,96.0,130.0,83.0,99.0,108.0,175.0,169.0,169.0,90.0,145.0,153.0,nan
WMO96481,TAWAU MALAYSIA (SABAH AND SARAWAK),4.26667,117.88333,20.0,nan,nan,nan,nan,nan,nan,215.0,207.0,180.0,nan,nan,nan,nan,nan,nan
WMO96615,KETAPANG/KALIMANTAN INDONESIA,-1.85000,109.96667,nan,nan,nan,nan,147.0,187.0,167.0,145.0,166.0,208.0,176.0,nan,nan,180.0,180.0,nan
WMO96745,JAKARTA/OBSERVATORY INDONESIA,-6.18333,106.83333,8.0,nan,219.0,180.0,162.0,199.0,nan,nan,159.0,177.0,191.0,210.0,154.0,171.0,189.0,nan
WMO96845,SURAKARTA/JAVA INDONESIA,-7.51667,110.75000,nan,nan,nan,nan,nan,nan,nan,nan,nan,nan,nan,nan,nan,nan,nan,nan
WMO97014,MENADO/ SAM RATULANGI INDONESIA,1.53333,124.91667,80.0,nan,133.0,184.0,138.0,197.0,188.0,203.0,189.0,181.0,235.0,268.0,161.0,nan,185.0,186.0
WMO97180,UJUNG PANDANG/HASANUDDIN INDONESIA,-5.06667,119.55000,14.0,nan,284.0,240.0,174.0,215.0,156.0,245.0,265.0,273.0,327.0,nan,nan,nan,272.0,nan
WMO97320,MALI/ALOR ISLAND INDONESIA,-8.13333,124.60000,nan,nan,nan,nan,nan,nan,nan,306.0,315.0,301.0,247.0,nan,nan,236.0,317.0,nan
WMO97460,LABUHA/WEST IRIAN INDONESIA,0.63333,127.50000,nan,nan,274.0,192.0,136.0,244.0,220.0,198.0,235.0,168.0,221.0,nan,nan,nan,198.0,208.0
WMO97690,JAYAPURA/SENTANI INDONESIA,-2.56667,140.48333,99.0,nan,nan,nan,56.0,52.0,77.0,63.0,212.0,131.0,198.0,nan,nan,172.0,157.0,181.0
WMO97810,TUAL/MOLUKKEN INDONESIA,-5.68333,132.75000,nan,nan,237.0,196.0,171.0,205.0,155.0,129.0,138.0,218.0,270.0,nan,nan,nan,111.0,185.0
WMO98425,MANILA PHILIPPINES,14.58333,120.98333,nan,nan,nan,nan,nan,nan,nan,nan,nan,nan,nan,nan,nan,nan,nan,nan
WMO98836,ZAMBOANGA PHILIPPINES,6.91667,122.05000,6.0,nan,162.0,189.0,nan,250.0,176.0,223.0,227.0,166.0,186.0,209.0,187.0,nan,nan,nan
