id,name,latitude,longitude,elev,2005,2006,2007,2008,2009,2010,2011,2012,2013,2014,2015,2016,2017,2018,2019
id,name,latitude,longitude,elev,2005,2006,2007,2008,2009,2010,2011,2012,2013,2014,2015,2016,2017,2018,2019
WMO02197,HAPARANDA SWEDEN,65.81667,24.10000,15.0,nan,nan,nan,nan,nan,nan,238.0,231.3,278.9,267.0,nan,nan,nan,nan,nan
WMO02805,UTSJOKI KEVO FINLAND,69.75000,27.03333,101.0,nan,219.3,165.1,207.0,196.9,160.1,158.6,162.0,212.3,181.6,122.3,193.1,179.6,163.7,138.0
WMO02963,JOKIOINEN OBSERVATORY FINLAND,60.81667,23.50000,103.0,nan,181.0,217.1,195.1,248.9,170.0,213.3,180.6,204.1,236.6,157.0,195.0,209.9,233.6,258.0
WMO03160,EDINBURGH (TURNHOUSE AIRPORT) UNITED KINGDOM OF GREAT BRITAIN AND NORTHERN IRELAND,56.00000,-3.40000,nan,nan,nan,nan,nan,nan,nan,nan,nan,nan,nan,nan,nan,nan,nan,nan
WMO03534,BIRMINGHAM_AIRPORT UNITED KINGDOM OF GREAT BRITAIN AND NORTHERN IRELAND,52.45000,-1.73333,nan,nan,nan,nan,nan,nan,nan,nan,nan,nan,nan,nan,nan,nan,nan,nan
WMO03827,PLYMOUTH-MOUNT BATTON UNITED KINGDOM OF GREAT BRITAIN AND NORTHERN IRELAND,50.40000,-4.10000,nan,nan,nan,nan,nan,nan,nan,nan,nan,nan,nan,nan,nan,nan,nan,nan
WMO03964,GALWAY IRELAND,53.30000,-9.00000,nan,nan,nan,nan,nan,nan,nan,nan,nan,nan,nan,nan,nan,nan,nan,nan
WMO04030,REYKJAVIK ICELAND,64.13333,-21.90000,61.0,nan,234.9,182.0,188.1,179.9,187.6,146.9,194.6,221.9,158.3,nan,nan,nan,141.7,150.6
WMO06590,LUXEMBOURG/LUXEMBOURG LUXEMBOURG,49.61667,6.21667,376.0,nan,187.3,289.9,170.3,213.4,224.3,281.4,186.0,156.1,209.7,nan,nan,nan,231.0,194.1
WMO07015,LILLE-LESQUIN FRANCE,50.56667,3.08333,47.0,nan,151.1,254.7,184.7,181.4,220.1,250.3,129.3,171.9,177.0,226.6,173.4,199.4,186.9,nan
WMO07149,ORLY FRANCE,48.71667,2.38333,90.0,nan,nan,nan,nan,173.7,246.0,277.6,148.1,160.6,180.7,224.0,157.1,222.0,204.3,nan
WMO07299,BALE-MULHOUSE FRANCE,47.60000,7.50000,273.0,nan,165.3,297.0,142.9,208.3,187.7,290.4,152.3,114.9,189.4,221.4,141.1,230.7,236.9,nan
WMO07577,MONTELIMAR FRANCE,44.56667,4.71667,74.0,nan,253.0,251.6,207.4,230.7,252.1,315.3,200.3,174.0,246.6,269.0,211.0,283.7,216.3,223.3
WMO07747,PERPIGNAN FRANCE,42.73333,2.86667,44.0,nan,259.7,230.4,222.7,198.6,232.4,267.3,200.0,200.9,237.0,nan,nan,nan,215.3,218.4
WMO08023,SANTANDER SPAIN,43.48333,-3.78333,59.0,nan,191.9,157.4,201.7,185.0,214.9,210.9,138.7,178.3,185.1,212.9,188.4,259.3,168.7,198.4
WMO08075,BURGOS/VILLAFRIA SPAIN,42.35000,-3.61667,892.0,nan,236.4,190.1,196.0,235.1,224.7,241.6,158.6,185.6,221.7,nan,nan,nan,188.7,201.7
WMO08161,ZARAGOZA SPAIN,41.63333,-0.90000,nan,nan,nan,nan,nan,nan,nan,nan,nan,nan,nan,nan,nan,nan,nan,nan
WMO08219,COLMENAR VIEJO/FAMET SPAIN,40.68333,-3.75000,998.0,nan,252.6,199.7,213.7,277.1,251.1,250.6,207.6,239.3,275.4,266.6,210.9,292.6,208.1,233.7
WMO08238,TORTOSA SPAIN,40.81667,0.48333,50.0,nan,261.3,208.3,235.1,244.9,237.3,250.1,251.4,256.9,253.3,276.3,248.6,297.9,224.7,296.0
WMO08314,MENORCA/MAHON SPAIN,39.85000,4.20000,86.0,nan,209.3,188.4,216.0,210.3,210.0,257.0,237.9,200.7,266.3,240.7,229.4,313.4,246.9,315.0
WMO08397,MORON DE LA FRONTERA SPAIN,37.15000,-5.60000,88.0,nan,244.4,222.7,260.1,294.3,270.7,244.4,239.9,274.1,285.9,280.4,241.9,nan,258.6,274.7
WMO08452,CADIZ OBS. SPAIN,36.50000,-6.25000,9.0,nan,269.0,nan,nan,306.9,nan,nan,nan,290.7,nan,nan,nan,nan,nan,nan
WMO08515,SANTA MARIA (ACORES) PORTUGAL,36.96667,-25.16667,100.0,nan,255.7,281.0,282.0,nan,200.3,171.0,nan,196.0,214.0,nan,nan,nan,229.9,211.9
WMO08558,EVORA/C. COORD PORTUGAL,38.53333,-7.90000,246.0,nan,251.0,257.9,224.0,269.7,253.7,254.1,199.4,269.9,221.3,nan,nan,290.6,219.4,237.9
WMO10035,SCHLESWIG GERMANY,54.51667,9.53333,nan,nan,135.9,246.9,226.1,284.0,202.0,261.1,169.0,187.9,186.1,213.1,175.3,nan,226.4,235.6
WMO10131,CUXHAVEN GERMANY,53.86667,8.70000,12.0,nan,141.0,249.0,229.4,270.6,220.4,255.9,162.6,166.7,178.4,nan,nan,nan,230.4,224.4
WMO10168,GOLDBERG GERMANY,53.60000,12.10000,59.0,nan,nan,nan,nan,nan,190.9,262.0,172.6,178.3,188.1,214.9,203.0,241.0,264.7,nan
WMO10235,SOLTAU GERMANY,52.95000,9.78333,77.0,nan,nan,nan,nan,270.6,186.7,228.1,146.6,139.3,155.0,208.4,180.3,154.7,224.7,225.9
WMO10282,FELDBERG/MECKLENBURG GERMANY,53.31667,13.41667,116.0,nan,nan,nan,nan,nan,193.6,260.3,192.4,163.7,181.9,200.1,192.6,163.3,271.0,253.6
WMO10325,BAD SALZUFLEN GERMANY,52.10000,8.75000,136.0,nan,142.9,nan,nan,224.4,183.9,261.7,155.4,141.1,150.6,203.0,183.1,162.3,226.6,221.3
WMO10381,BERLIN-DAHLEM GERMANY,52.46667,13.30000,nan,nan,167.1,268.4,181.4,289.3,181.1,237.0,193.6,157.7,194.7,220.7,210.3,nan,288.4,260.6
WMO10427,KAHLER ASTEN GERMANY,51.16667,8.48333,858.0,nan,120.6,258.1,122.3,194.7,167.4,225.7,123.0,112.9,122.3,200.4,154.3,149.9,211.9,187.6
WMO10453,BROCKEN GERMANY,51.80000,10.61667,1152.0,nan,122.9,253.6,143.0,236.3,152.7,213.6,148.9,115.4,132.7,nan,nan,136.0,233.3,246.0
WMO10490,DOBERLUG-KIRCHHAIN GERMANY,51.63333,13.56667,97.0,nan,nan,nan,nan,nan,177.6,221.6,172.7,132.1,173.6,216.3,181.7,165.0,261.9,nan
WMO10520,ANDERNACH GERMANY,50.41667,7.41667,76.0,nan,nan,nan,nan,nan,nan,nan,156.1,137.1,174.1,nan,nan,nan,224.3,193.6
WMO10552,SCHMUECKE GERMANY,50.65000,10.76667,939.0,nan,nan,nan,nan,nan,166.1,238.1,147.9,100.3,138.0,211.3,148.6,142.6,229.9,217.6
WMO10579,MARIENBERG GERMANY,50.65000,13.13333,640.0,nan,nan,nan,nan,nan,161.4,221.7,177.7,123.3,167.1,208.7,170.4,140.9,251.0,218.0
WMO10646,NEUHUETTEN-SPESSART GERMANY,50.00000,9.41667,340.0,nan,nan,nan,nan,nan,192.7,257.3,182.7,127.1,168.7,nan,nan,nan,245.9,202.9
WMO10706,THOLEY GERMANY,49.46667,7.03333,387.0,nan,nan,nan,nan,nan,209.1,275.7,168.4,136.7,187.7,nan,nan,nan,232.6,183.6
WMO10742,OEHRINGEN GERMANY,49.20000,9.51667,274.0,nan,169.6,303.4,161.9,208.1,191.0,274.7,176.3,126.7,185.3,225.1,167.4,182.7,250.3,187.0
WMO10796,ZWIESEL GERMANY,49.01667,13.23333,616.0,nan,nan,nan,nan,nan,179.6,228.4,188.6,128.3,153.7,nan,nan,155.1,252.4,219.3
WMO10852,AUGSBURG GERMANY,48.41667,10.93333,476.0,nan,169.9,306.6,159.4,219.7,181.3,263.0,174.1,118.4,161.3,216.1,156.3,180.1,249.0,181.1
WMO10929,KONSTANZ GERMANY,47.66667,9.18333,444.0,nan,180.6,296.1,163.7,225.4,201.7,276.4,179.9,129.4,180.6,215.0,167.7,213.3,261.6,nan
WMO11028,ST. POELTEN (HESSERKASERNE) AUSTRIA,48.20000,15.60000,nan,nan,nan,nan,nan,nan,nan,nan,nan,nan,nan,nan,nan,nan,nan,nan
WMO11406,EGER CZECH REPUBLIC,50.08333,12.40000,nan,nan,nan,nan,nan,nan,nan,nan,nan,nan,nan,nan,nan,nan,nan,nan
WMO11787,LYSA HORA CZECH REPUBLIC,49.53333,18.43333,1326.0,nan,149.7,217.7,145.1,263.1,136.9,170.7,180.3,134.6,138.0,nan,nan,nan,221.7,179.0
WMO12330,POZNAN POLAND,52.41667,16.83333,88.0,nan,213.3,287.4,202.6,303.7,210.9,246.1,240.0,168.4,207.0,245.3,219.3,180.6,295.0,nan
WMO12843,BUDAPEST/PESTSZENTLORINC HUNGARY,47.43333,19.18333,139.0,nan,204.0,283.4,231.4,291.6,194.9,257.1,249.4,260.0,202.1,282.9,243.0,233.9,267.7,212.9
WMO13363,PLJEVLJA MONTENEGRO,43.35000,19.35000,788.0,nan,141.6,236.6,143.4,178.0,138.9,157.4,162.1,235.0,121.6,205.0,176.6,167.4,209.0,173.7
WMO13615,TIRANA ALBANIA,41.33333,19.78333,90.0,nan,nan,nan,nan,156.6,163.3,nan,nan,nan,nan,nan,nan,nan,nan,nan
WMO15023,SUCEAVA ROMANIA,47.61667,26.23333,353.0,nan,189.7,227.1,158.9,259.0,185.3,223.0,205.1,226.1,199.7,nan,nan,nan,239.6,165.4
WMO15360,SULINA ROMANIA,45.13333,29.75000,13.0,nan,244.6,282.1,207.4,266.4,250.1,208.9,236.3,248.9,211.9,206.3,162.7,218.9,266.7,213.4
WMO16008,S. VALENTINO ALLA MUTA ITALY,46.75000,10.53333,1461.0,nan,nan,nan,nan,nan,nan,nan,nan,nan,nan,nan,nan,nan,nan,nan
WMO16099,TREVISO/S.ANGELO ITALY,45.65000,12.18333,nan,nan,176.0,269.9,nan,nan,nan,nan,nan,nan,nan,nan,nan,nan,nan,nan
WMO16191,FALCONARA ITALY,43.60000,13.40000,nan,nan,nan,nan,nan,nan,nan,nan,nan,nan,nan,nan,nan,nan,nan,nan
WMO16258,MONTE S. ANGELO ITALY,41.70000,15.93333,848.0,nan,nan,nan,nan,nan,nan,nan,nan,nan,nan,nan,nan,nan,nan,nan
WMO16429,TRAPANI BIRGI ITALY,37.90000,12.48333,9.0,nan,245.1,257.6,262.4,243.0,221.7,234.1,253.6,229.7,249.1,267.9,223.0,268.1,226.4,221.0
WMO16597,LUQA MALTA,35.85000,14.48333,nan,nan,272.6,237.1,273.1,261.7,248.4,270.6,301.9,269.7,289.3,nan,nan,nan,238.6,255.0
WMO16746,SOUDA (AIRPORT) GREECE,35.48333,24.11667,151.0,nan,276.0,289.4,272.0,271.4,287.7,254.4,305.4,303.4,296.3,302.6,302.1,286.4,278.7,218.0
WMO17062,ISTANBUL TURKEY,40.90000,29.15000,nan,nan,209.7,249.6,204.1,226.4,245.0,125.0,241.0,303.0,nan,nan,nan,nan,nan,nan
WMO17092,ERZINCAN TURKEY,39.70000,39.51667,1154.0,nan,168.3,156.6,169.3,207.7,200.7,154.1,208.6,198.4,198.3,183.0,216.0,193.3,258.3,180.9
WMO17150,BALIKESIR TURKEY,39.61667,27.91667,102.0,nan,225.3,267.3,193.7,211.4,220.9,169.7,214.3,222.4,204.0,246.6,266.7,223.7,248.3,207.4
WMO17202,ELAZIG TURKEY,38.60000,39.28333,881.0,nan,nan,209.3,223.4,255.6,254.9,191.9,247.1,254.3,262.9,229.9,269.0,237.6,274.4,217.3
WMO17255,KAHRAMANMARAS TURKEY,37.60000,36.93333,572.0,nan,215.4,202.9,214.6,215.0,224.6,169.9,213.4,206.6,223.9,217.6,245.3,260.0,240.0,166.0
WMO17351,ADANA/BOLGE TURKEY,36.98333,35.35000,27.0,nan,183.9,234.0,216.0,256.9,233.6,194.9,247.3,234.4,239.1,nan,nan,255.0,266.1,221.0
WMO20674,OSTROV DIKSON RUSSIAN FEDERATION (IN ASIA),73.50000,80.40000,46.0,nan,290.0,135.6,182.6,180.1,170.6,176.0,224.7,224.6,147.9,204.3,129.9,165.0,213.0,118.4
WMO21965,OSTROV CHETYREKHSTOLBOVOY RUSSIAN FEDERATION,70.60000,162.50000,nan,nan,nan,nan,nan,nan,nan,nan,nan,nan,nan,nan,nan,nan,nan,nan
WMO22602,REBOLY RUSSIAN FEDERATION (IN EUROPE),63.83333,30.81667,182.0,nan,nan,nan,278.0,nan,nan,nan,nan,nan,nan,nan,nan,nan,nan,nan
WMO23205,NAR'JAN-MAR RUSSIAN FEDERATION (IN ASIA),67.61667,53.01667,11.0,nan,160.3,181.9,187.9,197.1,144.7,112.4,175.0,179.6,151.0,nan,nan,159.0,187.6,170.9
WMO23472,TURUHANSK RUSSIAN FEDERATION (IN ASIA),65.78333,87.98333,37.0,nan,287.0,182.3,250.9,223.4,275.3,185.6,232.7,220.3,161.7,211.4,272.7,185.3,212.6,181.7
WMO23884,BOR RUSSIAN FEDERATION (IN ASIA),61.56667,90.01667,57.0,nan,202.6,202.4,203.1,200.1,226.6,194.3,206.0,177.7,152.9,174.3,234.6,nan,218.7,149.1
WMO24143,DZARDZAN RUSSIAN FEDERATION (IN ASIA),68.73333,124.00000,38.0,nan,nan,nan,nan,nan,nan,nan,nan,nan,nan,nan,nan,nan,nan,nan
WMO24713,NAKANNO RUSSIAN FEDERATION (IN ASIA),62.88333,108.43333,245.0,nan,227.6,216.0,237.7,239.6,280.1,243.7,232.9,257.0,206.0,nan,nan,nan,239.1,226.3
WMO25173,MYS SHMIDTA RUSSIAN FEDERATION (IN ASIA),68.90000,-179.63333,3.0,nan,nan,nan,nan,nan,nan,nan,nan,nan,nan,nan,nan,nan,nan,nan
WMO25538,VERHNEE PENZINO RUSSIAN FEDERATION (IN ASIA),64.21667,164.23333,325.0,nan,281.6,294.0,302.6,168.0,339.0,nan,225.3,234.0,233.0,228.3,261.7,nan,nan,nan
WMO26038,TALLINN-HARKU ESTONIA,59.38333,24.60000,34.0,nan,214.6,264.1,276.1,279.9,213.0,257.6,228.1,235.0,279.3,218.0,261.6,259.4,268.7,299.6
WMO26393,VYSNIJ VOLOCEK RUSSIAN FEDERATION,57.58333,34.56667,nan,nan,nan,nan,nan,nan,nan,nan,nan,nan,nan,nan,nan,nan,nan,nan
WMO26629,KAUNAS LITHUANIA,54.88333,23.83333,76.0,nan,230.0,277.9,211.9,306.0,216.3,242.9,264.6,211.6,231.0,172.6,175.9,nan,297.6,296.4
WMO27199,KIROV RUSSIAN FEDERATION (IN EUROPE),58.56667,49.56667,158.0,nan,nan,nan,nan,nan,nan,nan,nan,nan,nan,nan,nan,nan,nan,nan
WMO28138,BISER RUSSIAN FEDERATION (IN ASIA),58.51667,58.85000,463.0,nan,170.4,184.0,264.7,230.1,236.7,192.0,185.7,222.6,229.1,217.9,233.4,179.7,250.6,236.0
WMO28573,ISHIM RUSSIAN FEDERATION (IN ASIA),56.10000,69.43333,82.0,nan,194.4,193.4,247.0,233.0,276.9,233.6,268.7,223.7,260.1,nan,nan,249.6,242.0,241.0
WMO28766,BLAGOVESHCHENKA KAZAKHSTAN,54.36667,66.96667,151.0,nan,nan,nan,nan,nan,nan,231.6,299.3,218.1,278.1,nan,nan,291.1,231.6,264.0
WMO29594,TAJSHET RUSSIAN FEDERATION (IN ASIA),55.95000,98.00000,306.0,nan,264.1,250.1,229.1,252.1,254.4,273.3,228.9,270.7,275.7,nan,nan,241.4,255.9,283.6
WMO30230,KIRENSK RUSSIAN FEDERATION (IN ASIA),57.76667,108.06667,258.0,nan,225.3,242.6,245.3,250.4,269.1,227.0,179.7,nan,254.3,nan,nan,nan,248.4,246.0
WMO30635,UST'-BARGUZIN RUSSIAN FEDERATION (IN ASIA),53.41667,109.01667,460.0,nan,nan,nan,nan,nan,nan,nan,nan,nan,nan,nan,nan,nan,nan,nan
WMO30949,KYRA RUSSIAN FEDERATION (IN ASIA),49.56667,111.96667,907.0,nan,239.0,249.3,228.3,255.1,256.7,271.6,279.9,312.0,266.3,264.9,255.4,293.9,295.1,nan
WMO31416,IM POLINY OSIPENKO RUSSIAN FEDERATION (IN ASIA),52.41667,136.50000,70.0,nan,224.3,306.0,222.9,258.4,245.0,219.0,225.3,164.3,268.0,224.0,210.9,nan,242.1,230.3
WMO32061,ALEKSANDROVSK-SAHALINSKIJ RUSSIAN FEDERATION (IN ASIA),50.90000,142.16667,31.0,nan,178.1,227.1,198.3,243.1,196.4,183.3,230.1,155.3,194.0,178.7,213.7,nan,222.3,233.4
WMO32389,KLJUCHI RUSSIAN FEDERATION (IN ASIA),56.31667,160.83333,28.0,nan,204.0,257.4,218.9,177.4,270.1,211.7,238.9,212.9,225.4,229.0,207.4,200.6,191.0,250.9
WMO33041,GOMEL BELARUS,52.40000,30.95000,126.0,nan,229.3,230.3,181.0,284.1,194.4,204.1,193.1,245.6,248.4,231.6,216.3,224.9,268.4,282.9
WMO33777,VOZNESENS'K UKRAINE,47.56667,31.33333,34.0,nan,nan,nan,nan,nan,nan,nan,nan,nan,nan,nan,nan,nan,nan,nan
WMO33983,KERCH UKRAINE,45.40000,36.41667,49.0,nan,nan,nan,nan,nan,nan,nan,nan,nan,nan,nan,nan,nan,nan,nan
WMO34300,KHARKIV UKRAINE,49.96667,36.13333,155.0,nan,181.1,236.1,164.6,273.7,217.4,210.9,222.0,244.6,208.3,nan,nan,222.3,275.0,265.1
WMO34927,KRASNODAR-KRUGLIK RUSSIAN FEDERATION (IN EUROPE),45.05000,39.03333,29.0,nan,191.0,226.3,169.0,247.0,237.3,166.7,250.0,241.0,245.1,227.1,230.6,208.1,nan,nan
WMO35376,BERLIK KAZAKHSTAN,49.88333,69.51667,349.0,nan,300.6,234.3,nan,nan,nan,nan,nan,nan,nan,nan,nan,nan,nan,nan
WMO36003,PAVLODAR KAZAKHSTAN,52.30000,76.93333,122.0,nan,208.0,270.3,286.3,252.0,308.1,295.6,174.6,245.1,291.6,nan,nan,nan,200.9,267.9
WMO36870,ALMATY KAZAKHSTAN,43.23333,76.93333,851.0,nan,211.4,215.4,213.4,173.9,191.0,222.9,245.7,206.0,213.4,221.4,171.1,180.4,206.7,156.1
WMO37472,MAHACHKALA RUSSIAN FEDERATION (IN EUROPE),43.00000,47.50000,-18.0,nan,132.3,201.6,184.6,226.4,202.9,146.1,242.7,243.1,220.1,214.6,243.3,nan,257.1,219.4
WMO37860,MASHTAGA AZERBAIJAN,40.53333,50.00000,28.0,nan,160.0,300.0,194.9,193.6,167.3,261.0,242.6,249.0,240.4,177.0,226.0,224.1,nan,164.0
WMO38341,ZHAMBYL KAZAKHSTAN,42.85000,71.38333,nan,nan,284.4,220.9,317.4,146.0,242.7,277.1,318.1,270.4,266.1,nan,nan,248.4,266.9,207.0
WMO38511,CHAGYL TURKMENISTAN,40.78333,55.33333,115.0,nan,nan,nan,214.9,228.3,205.6,211.9,260.0,248.9,260.7,238.1,252.6,228.1,255.6,236.4
WMO38734,DEHAVZ TAJIKISTAN,39.45000,70.20000,2561.0,nan,nan,nan,nan,nan,nan,nan,nan,nan,nan,nan,nan,nan,nan,nan
WMO38933,KURGAN-TYUBE TAJIKISTAN,37.81667,68.78333,427.0,nan,nan,nan,nan,nan,nan,nan,nan,203.0,211.7,nan,nan,nan,177.9,193.9
WMO40100,BEYROUTH (AEROPORT) LEBANON,33.81667,35.48333,19.0,nan,319.0,201.4,nan,238.1,247.0,171.9,257.0,228.0,223.9,227.0,238.1,242.0,nan,nan
WMO40255,IRBID JORDAN,32.60000,35.90000,nan,nan,nan,nan,nan,nan,nan,nan,nan,nan,nan,nan,nan,nan,nan,nan
WMO40373,AL-QAISUMAH SAUDI ARABIA,28.31667,46.13333,358.0,nan,nan,nan,nan,nan,nan,nan,nan,nan,nan,nan,nan,nan,nan,nan
WMO40435,AL-DAWADAMI SAUDI ARABIA,26.98333,44.11667,923.0,nan,nan,nan,nan,nan,nan,nan,nan,nan,nan,nan,nan,nan,nan,nan
WMO40650,BAGHDAD IRAQ,33.26667,44.23333,nan,nan,nan,nan,nan,nan,nan,nan,nan,nan,nan,nan,nan,nan,nan,nan
WMO40723,BOJNOURD IRAN ISLAMIC REPUBLIC OF,37.46667,57.33333,nan,nan,nan,246.9,242.1,186.4,194.1,239.0,244.1,262.9,236.4,278.9,238.9,237.9,211.9,215.0
WMO40766,KERMANSHAH IRAN ISLAMIC REPUBLIC OF,34.35000,47.15000,1319.0,nan,226.0,185.7,245.7,189.0,222.9,243.0,237.1,199.6,237.7,287.3,251.0,nan,200.7,231.1
WMO40821,YAZD IRAN ISLAMIC REPUBLIC OF,31.90000,54.40000,nan,nan,293.4,321.0,294.0,nan,nan,291.1,271.0,287.4,280.9,270.7,297.7,nan,255.0,273.0
WMO40911,MAZAR-I-SHARIF AFGHANISTAN ISLAMIC STATE OF,36.70000,67.20000,378.0,nan,nan,nan,nan,nan,nan,nan,nan,nan,nan,nan,nan,nan,nan,nan
WMO41061,WADI AL-DAWASSER AIRPORT SAUDI ARABIA,20.50000,45.25000,622.0,nan,270.4,300.6,275.6,311.0,275.0,288.1,266.9,213.1,270.4,248.0,223.0,301.3,281.4,264.4
WMO41196,SHARJAH INTERNATIONAL AIRPORT UNITED ARAB EMIRATES,25.33333,55.51667,33.0,nan,236.0,nan,325.4,322.3,314.0,313.4,343.0,nan,nan,nan,nan,nan,nan,nan
WMO41256,MUSCAT INT'L AIRPORT OMAN,23.58333,58.28333,8.0,nan,nan,nan,nan,nan,nan,nan,nan,255.0,190.0,191.1,nan,309.3,316.0,305.4
WMO41287,JOBA OMAN,20.86667,58.23333,34.0,nan,nan,nan,nan,nan,nan,nan,nan,nan,nan,nan,nan,nan,nan,nan
WMO41515,DROSH PAKISTAN,35.56667,71.78333,1465.0,nan,nan,nan,nan,nan,nan,nan,nan,nan,nan,nan,nan,nan,nan,nan
WMO41685,BARKHAN PAKISTAN,29.88333,69.71667,1098.0,nan,nan,nan,nan,nan,nan,nan,nan,nan,nan,nan,nan,nan,nan,nan
WMO41764,HYDERABAD PAKISTAN,25.38333,68.41667,30.0,nan,nan,nan,nan,nan,nan,nan,nan,nan,nan,nan,nan,nan,nan,nan
WMO41923,DHAKA BANGLADESH,23.76667,90.38333,9.0,nan,nan,nan,nan,nan,nan,nan,206.9,177.1,243.0,194.0,209.3,196.7,187.7,202.9
WMO42314,DIBRUGARH /MOHANBARI INDIA (STATIONS NORTH OF LATITUDE 20~N),27.48333,95.01667,111.0,nan,184.0,129.0,125.7,148.9,90.3,154.1,133.3,124.9,193.1,nan,nan,nan,123.7,132.4
WMO42909,VERAVAL INDIA (STATIONS NORTH OF LATITUDE 20~N),20.90000,70.36667,11.0,nan,nan,nan,nan,nan,nan,nan,nan,nan,nan,nan,nan,nan,nan,nan
WMO43295,BANGALORE INDIA (STATIONS SOUTH OF LATITUDE 20~N),12.96667,77.58333,923.0,nan,152.3,206.7,198.4,177.6,202.4,180.6,182.3,186.1,194.4,185.3,217.0,206.7,193.4,208.3
WMO44213,BARUUNTURUUN MONGOLIA,49.65000,94.40000,1232.0,nan,nan,nan,nan,nan,nan,nan,nan,nan,nan,nan,nan,nan,nan,nan
WMO44277,ALTAI MONGOLIA,46.40000,96.25000,2181.0,nan,nan,nan,nan,nan,nan,nan,nan,nan,nan,nan,207.0,nan,221.1,nan
WMO44373,DALANZADGAD MONGOLIA,43.58333,104.41667,1465.0,nan,290.0,260.6,265.9,244.3,252.9,298.9,292.7,288.0,283.9,nan,nan,nan,nan,nan
WMO47014,CHUNGGANG DEMOCRATIC PEOPLE'S REPUBLIC OF KOREA,41.78333,126.88333,331.0,nan,124.4,55.9,88.0,145.9,nan,162.1,151.0,nan,107.0,156.7,132.6,nan,121.7,154.7
WMO47112,INCHEON REPUBLIC OF KOREA,37.46667,126.61667,69.0,nan,nan,nan,nan,nan,185.1,199.4,206.0,227.9,233.1,nan,nan,nan,221.3,247.6
WMO47407,ASAHIKAWA JAPAN,43.75000,142.36667,140.0,nan,161.6,182.7,175.7,224.9,157.7,157.7,178.9,116.9,226.9,nan,nan,185.6,193.7,238.4
WMO47582,AKITA JAPAN,39.71667,140.08333,21.0,nan,125.9,166.4,193.3,184.7,131.7,153.9,180.7,154.4,227.7,207.9,185.0,186.1,144.9,212.0
WMO47618,MATSUMOTO JAPAN,36.25000,137.96667,nan,nan,169.1,208.3,nan,nan,nan,nan,nan,nan,nan,nan,nan,nan,nan,nan
WMO47678,HACHIJOJIMA JAPAN,33.11667,139.76667,156.0,nan,97.6,154.7,143.4,174.0,117.0,144.4,145.1,161.6,162.7,133.6,127.7,nan,172.7,157.4
WMO47800,IZUHARA JAPAN,34.18333,129.28333,4.0,nan,154.4,201.0,203.3,220.7,160.4,181.0,187.6,205.3,207.4,168.1,177.6,216.4,190.0,205.7
WMO47893,KOCHI JAPAN,33.56667,133.53333,4.0,nan,nan,nan,202.3,231.9,165.4,208.0,193.9,244.9,211.1,161.4,183.3,198.3,219.3,223.3
WMO47991,MINAMITORISHIMA JAPAN,24.28333,153.98333,8.0,nan,261.0,249.7,251.1,257.4,233.0,239.9,229.1,195.9,203.0,300.3,259.0,nan,260.9,219.3
WMO48462,ARANYAPRATHET THAILAND,13.68333,102.50000,49.0,nan,nan,nan,nan,nan,nan,nan,nan,nan,nan,nan,nan,nan,nan,nan
WMO48657,KUANTAN MALAYSIA (PENINSULAR MALAYSIA),3.78333,103.21667,16.0,nan,nan,nan,nan,nan,nan,nan,nan,nan,nan,nan,nan,nan,nan,nan
WMO48830,LANG SON VIET NAM,21.83333,106.76667,263.0,nan,nan,113.6,107.3,112.7,89.9,102.6,151.3,126.4,72.0,nan,nan,124.7,131.4,109.9
WMO48914,CA MAU VIET NAM,9.18333,105.15000,2.0,nan,nan,219.7,202.3,171.1,247.4,214.7,214.9,192.3,227.7,250.4,250.1,220.1,230.7,228.0
WMO48991,PHNOM-PENH (KHMOUGH) CAMBODIA,11.60000,104.86667,10.0,nan,nan,nan,nan,nan,256.1,184.9,233.9,207.4,211.3,260.9,nan,nan,nan,nan
WMO51709,KASHI CHINA,39.48333,75.75000,1386.0,nan,272.3,251.6,234.3,267.1,267.4,307.1,270.1,258.4,241.1,265.4,232.3,263.9,217.1,214.3
WMO52681,MINQIN CHINA,38.63333,103.08333,1369.0,nan,296.0,285.0,303.6,302.6,266.6,302.7,300.4,321.9,268.6,286.0,288.9,280.6,280.6,290.3
WMO53845,YAN AN CHINA,36.58333,109.45000,1181.0,nan,278.7,288.6,254.3,259.9,226.9,257.1,280.9,267.0,203.3,261.3,230.9,237.7,229.9,215.1
WMO54857,QINGDAO CHINA,36.06667,120.33333,77.0,nan,221.9,217.9,209.9,243.3,199.7,219.0,214.1,216.3,218.7,213.6,197.6,254.4,190.3,197.3
WMO56187,WENJIANG CHINA,30.75000,103.86667,555.0,nan,129.6,105.9,93.9,97.0,61.7,122.3,102.6,127.6,92.7,125.1,77.6,127.1,138.7,110.9
WMO57083,ZHENGZHOU CHINA,34.71667,113.65000,111.0,nan,212.0,221.4,200.9,196.7,175.6,226.7,181.4,211.1,179.9,202.7,179.0,nan,187.3,190.6
WMO57993,GANZHOU CHINA,25.86667,115.00000,138.0,nan,91.9,134.4,121.9,125.6,63.6,125.7,116.1,121.4,108.4,131.1,101.7,175.0,131.3,nan
WMO59211,BAISE CHINA,23.90000,106.60000,177.0,nan,163.1,139.6,147.9,133.0,116.9,135.7,170.7,138.4,154.4,nan,nan,nan,175.0,110.7
WMO60010,IZANA SPAIN (CANARY ISLANDS),28.30000,-16.48333,2368.0,nan,348.9,336.4,383.0,401.0,290.1,nan,255.0,350.3,342.0,355.1,366.4,353.9,338.4,356.4
WMO60120,KENITRA MOROCCO,34.30000,-6.58333,nan,nan,266.7,300.7,292.1,290.1,281.9,278.6,292.9,303.1,295.7,285.6,301.9,nan,271.4,304.7
WMO60320,CEUTA SPAIN (CEUTA AND MELILLA),35.90000,-5.33333,88.0,nan,nan,nan,nan,nan,nan,nan,nan,nan,266.3,nan,nan,nan,254.7,278.6
WMO60387,DELLYS ALGERIA,36.91667,3.95000,8.0,nan,236.6,202.4,253.6,247.0,209.0,250.6,256.0,235.3,nan,nan,nan,296.3,223.6,nan
WMO60423,SOUK AHRAS ALGERIA,36.28333,7.96667,680.0,nan,220.9,206.0,260.9,232.6,213.9,252.0,268.7,244.1,287.4,nan,nan,266.9,264.4,266.4
WMO60467,M'SILA ALGERIA,35.66667,4.50000,442.0,nan,268.9,231.9,286.3,276.6,275.3,273.1,277.4,296.6,297.1,nan,nan,300.9,275.4,277.0
WMO60514,KSAR CHELLALA ALGERIA,35.16667,2.31667,801.0,nan,253.1,214.7,263.4,280.1,253.9,264.0,259.3,279.1,nan,nan,nan,292.3,248.7,301.7
WMO60536,SAIDA ALGERIA,34.86667,0.15000,752.0,nan,235.0,200.4,275.9,283.6,252.3,239.1,251.4,265.7,315.9,298.7,273.9,298.4,236.0,nan
WMO60566,GHARDAIA ALGERIA,32.40000,3.80000,469.0,nan,287.0,295.6,300.4,343.4,295.0,312.4,307.0,305.7,330.1,308.0,304.4,297.4,272.4,315.4
WMO60630,IN-SALAH ALGERIA,27.23333,2.50000,269.0,nan,297.6,318.4,306.4,343.0,254.7,303.3,297.9,305.0,309.0,314.3,296.9,nan,282.3,319.4
WMO60735,KAIROUAN TUNISIA,35.66667,10.10000,68.0,nan,266.6,233.1,274.7,265.3,255.9,268.9,293.0,273.0,298.9,nan,nan,nan,260.1,246.0
WMO61053,DOSSO NIGER,13.03333,3.30000,213.0,nan,nan,nan,nan,nan,259.0,nan,nan,273.0,263.7,284.0,266.0,254.9,276.4,nan
WMO61223,TOMBOUCTOU MALI,16.71667,-3.00000,264.0,nan,266.0,nan,283.7,283.9,176.0,279.0,nan,nan,nan,nan,nan,nan,nan,nan
WMO61272,SEGOU MALI,13.40000,-6.15000,289.0,nan,nan,nan,262.0,nan,nan,234.4,214.3,nan,218.0,241.7,259.4,254.7,261.1,nan
WMO61415,NOUADHIBOU MAURITANIA,20.93333,-17.03333,3.0,nan,332.0,337.0,313.3,331.0,296.0,327.0,281.0,273.7,nan,262.3,288.0,nan,nan,nan
WMO61499,AIOUN EL ATROUSS MAURITANIA,16.70000,-9.60000,223.0,nan,nan,nan,nan,nan,nan,nan,nan,nan,nan,nan,nan,nan,nan,nan
WMO61695,ZIGUINCHOR SENEGAL,12.55000,-16.26667,nan,nan,286.6,250.1,250.6,290.0,219.3,266.1,250.9,282.3,nan,nan,nan,nan,340.0,nan
WMO61818,KINDIA GUINEA,10.05000,-12.86667,nan,nan,nan,nan,nan,nan,nan,nan,nan,nan,nan,nan,nan,nan,nan,nan
WMO61878,NJALA SIERRA LEONE,8.10000,-12.10000,56.0,nan,nan,nan,nan,nan,nan,nan,nan,nan,nan,nan,nan,nan,nan,nan
WMO61974,AGALEGA MAURITIUS,-10.38333,56.60000,4.0,nan,290.0,237.6,269.7,246.1,262.0,255.6,223.0,262.6,268.7,244.7,208.7,269.9,218.1,233.0
WMO62002,NALUT LIBYA,31.86667,10.98333,621.0,nan,nan,283.0,316.1,301.9,275.6,nan,299.9,273.3,318.3,333.1,298.3,270.4,319.0,nan
WMO62055,AGEDABIA LIBYA,30.71667,20.16667,7.0,nan,nan,268.7,297.4,327.9,274.9,nan,nan,nan,nan,nan,nan,nan,nan,nan
WMO62176,GIGHBUB LIBYA,29.75000,24.53333,-1.0,nan,nan,335.0,314.0,333.0,309.3,nan,299.0,330.0,nan,nan,nan,nan,nan,nan
WMO62387,MINYA EGYPT,28.08333,30.73333,40.0,nan,nan,nan,nan,294.4,311.1,328.6,nan,325.7,286.3,352.1,347.0,320.0,nan,nan
WMO62464,HURGUADA POLLUTION EGYPT,27.28333,33.73333,6.0,nan,nan,nan,nan,nan,nan,nan,nan,nan,nan,nan,nan,nan,nan,nan
WMO62730,KASSALA SUDAN,15.46667,36.40000,500.0,nan,299.4,301.7,282.4,294.7,291.7,289.1,295.7,337.4,287.0,nan,nan,nan,285.0,nan
WMO62781,EN NAHUD SUDAN,12.70000,28.43333,564.0,nan,282.7,289.1,215.4,255.3,262.6,265.3,266.7,281.6,174.4,246.4,236.0,221.0,nan,nan
WMO63021,ASMARA ERITREA,15.28333,38.91667,2325.0,nan,nan,nan,nan,nan,nan,nan,nan,nan,nan,nan,nan,nan,nan,nan
WMO63630,GULU UGANDA,2.75000,32.33333,1105.0,nan,nan,nan,nan,nan,nan,nan,nan,nan,nan,nan,nan,nan,nan,nan
WMO63820,MOMBASA INTERNATIONAL AIRPORT KENYA,-4.00000,39.60000,nan,nan,nan,nan,171.0,222.0,nan,nan,170.0,nan,nan,nan,nan,nan,nan,nan
WMO64247,MBUJI-MAYI DEMOCRATIC REPUBLIC OF THE CONGO,-6.16667,23.61667,677.0,nan,nan,nan,nan,nan,134.0,nan,159.0,nan,nan,nan,nan,nan,nan,nan
WMO64453,DJAMBALA CONGO,-2.53333,14.76667,790.0,nan,nan,nan,nan,nan,nan,nan,163.0,188.7,149.7,nan,nan,168.7,161.6,nan
WMO64507,TCHIBANGA GABON,-2.85000,11.01667,79.0,nan,nan,nan,nan,nan,nan,nan,nan,nan,nan,nan,nan,nan,nan,nan
WMO64605,BOSSEMBELE CENTRAL AFRICAN REPUBLIC,5.26667,17.63333,674.0,nan,nan,nan,nan,nan,nan,nan,nan,nan,nan,nan,nan,nan,nan,nan
WMO64700,NDJAMENA CHAD,12.13333,15.03333,295.0,nan,267.9,240.0,216.7,nan,259.3,272.7,243.3,252.3,253.0,261.0,286.6,256.3,278.0,nan
WMO64754,AM-TIMAN CHAD,11.03333,20.28333,436.0,nan,nan,nan,nan,nan,nan,nan,nan,nan,nan,nan,nan,nan,nan,nan
WMO64900,YOKO CAMEROON,5.55000,12.36667,1031.0,nan,nan,nan,nan,nan,nan,nan,nan,nan,nan,nan,nan,nan,nan,nan
WMO65123,MINNA NIGERIA,9.61667,6.53333,256.0,nan,nan,nan,nan,214.4,202.4,210.3,nan,220.7,213.0,nan,240.0,214.9,181.1,214.0
WMO65338,BOHICON BENIN,7.16667,2.06667,167.0,nan,209.3,204.0,182.0,188.4,216.0,209.3,211.4,203.9,188.0,195.4,244.0,213.7,206.0,216.6
WMO65387,LOME TOGO,6.16667,1.25000,25.0,nan,nan,nan,nan,211.6,nan,nan,nan,204.9,nan,nan,nan,nan,210.0,nan
WMO65502,OUAHIGOUYA BURKINA FASO,13.58333,-2.43333,nan,nan,234.1,219.1,260.0,268.9,171.0,236.0,232.7,279.0,282.4,nan,nan,nan,268.7,nan
WMO65545,BONDOUKOU COTE D'IVOIRE,8.05000,-2.78333,370.0,nan,202.3,nan,214.0,nan,190.0,nan,202.0,230.0,nan,232.7,219.0,231.1,nan,nan
WMO65594,SAN PEDRO COTE D'IVOIRE,4.75000,-6.65000,30.0,nan,211.9,nan,155.0,213.0,200.0,nan,nan,245.0,226.0,nan,nan,228.7,nan,nan
WMO67009,ANTSIRANANA MADAGASCAR,-12.35000,49.30000,105.0,nan,267.0,284.9,283.7,251.3,290.0,247.9,239.0,nan,276.0,243.9,267.0,267.6,262.0,248.7
WMO67161,TOLIARA MADAGASCAR,-23.38333,43.73333,8.0,nan,nan,nan,nan,nan,nan,nan,nan,nan,nan,nan,nan,nan,nan,nan
WMO67283,QUELIMANE MOZAMBIQUE,-17.88333,36.88333,16.0,nan,242.7,214.0,nan,242.1,250.0,217.0,233.6,213.0,232.4,nan,nan,nan,nan,nan
WMO67346,CHANGALANE MOZAMBIQUE,-26.28333,32.18333,104.0,nan,nan,nan,nan,nan,nan,nan,nan,nan,240.0,nan,231.0,239.1,223.0,nan
WMO67693,CHILEKA MALAWI,-15.68333,34.96667,767.0,nan,nan,nan,nan,nan,nan,nan,nan,nan,nan,nan,nan,nan,nan,nan
WMO68006,ONDANGWA NAMIBIA,-17.93333,15.98333,nan,nan,nan,nan,nan,nan,nan,nan,nan,nan,nan,nan,nan,nan,nan,nan
WMO68174,POLOKWANE SOUTH AFRICA,-23.86667,29.45000,1226.0,nan,254.6,258.9,266.9,283.6,187.6,203.9,282.9,268.0,254.0,245.3,262.7,237.3,228.1,214.0
WMO68442,BLOEMFONTEIN AIRPORT SOUTH AFRICA,-29.10000,26.30000,1353.0,nan,242.6,266.6,253.4,260.9,245.6,215.4,265.1,264.4,253.4,nan,nan,246.9,217.9,261.0
WMO68828,GEORGE AIRPORT SOUTH AFRICA,-34.01667,22.38333,191.0,nan,183.0,208.0,220.1,179.7,187.1,210.1,206.1,230.1,206.9,nan,nan,217.0,211.0,177.0
WMO70231,MCGRATH AK UNITED STATES OF AMERICA (ALASKA),62.95000,-155.58333,103.0,nan,nan,nan,nan,nan,nan,nan,nan,nan,nan,nan,nan,nan,nan,nan
WMO71066,HIGH LEVEL ALTA CANADA,58.61667,-117.15000,nan,nan,nan,nan,nan,nan,nan,nan,nan,nan,nan,nan,nan,nan,nan,nan
WMO71299,KAPUSKASING CDA ON ONT CANADA,49.40000,-82.43333,nan,nan,nan,nan,nan,nan,nan,nan,nan,nan,nan,nan,nan,nan,nan,nan
WMO71727,BAGOTVILLE A QUE CANADA,48.33333,-71.00000,nan,nan,nan,nan,nan,nan,nan,nan,nan,nan,nan,nan,nan,nan,nan,nan
WMO71831,KAPUSKASING CANADA,49.40000,-82.50000,nan,nan,nan,nan,nan,nan,nan,nan,nan,nan,nan,nan,nan,nan,nan,nan
WMO71874,LETHBRIDGE AIRPORT CANADA,49.60000,-112.80000,nan,nan,nan,nan,nan,nan,nan,nan,nan,nan,nan,nan,nan,nan,nan,nan
WMO71915,CORAL HARBOUR A NU CANADA,64.18333,-83.35000,nan,nan,nan,nan,nan,nan,nan,nan,nan,nan,nan,nan,nan,nan,nan,nan
WMO71957,INUVIK/NWT (SY) CANADA,68.30000,-133.48333,nan,nan,nan,nan,nan,nan,nan,nan,nan,nan,nan,nan,nan,nan,nan,nan
WMO72226,MONTGOMERY/DANNELLY  AL. UNITED STATES OF AMERICA,32.30000,-86.40000,62.0,nan,nan,nan,nan,nan,nan,nan,nan,nan,nan,nan,nan,nan,nan,nan
WMO72259,DALLAS-FORT WORTH/FORT WORTH REG.AIRPORT TX. UNITED STATES OF AMERICA,32.90000,-97.03333,182.0,nan,nan,nan,nan,nan,nan,nan,nan,nan,nan,nan,nan,nan,nan,nan
WMO72308,NORFOLK/INT. VA. UNITED STATES OF AMERICA,36.90000,-76.20000,9.0,nan,nan,nan,nan,nan,nan,nan,nan,nan,nan,nan,nan,nan,nan,nan
WMO72344,FORT SMITH/MUN. AR. UNITED STATES OF AMERICA,35.33333,-94.36667,141.0,nan,nan,nan,nan,nan,nan,nan,nan,nan,nan,nan,nan,nan,nan,nan
WMO72406,BALTIMORE/BALTIMORE-WASHINGTON INT. MD. UNITED STATES OF AMERICA,39.18333,-76.66667,47.0,nan,nan,nan,nan,nan,nan,nan,nan,nan,nan,nan,nan,nan,nan,nan
WMO72439,SPRINGFIELD/CAPITAL  IL. UNITED STATES OF AMERICA,39.85000,-89.66667,187.0,nan,nan,nan,nan,nan,nan,nan,nan,nan,nan,nan,nan,nan,nan,nan
WMO72483,SACRAMENTO/EXECUTIVE CA. UNITED STATES OF AMERICA,38.51667,-121.50000,8.0,nan,nan,nan,nan,nan,nan,nan,nan,nan,nan,nan,nan,nan,nan,nan
WMO72517,ALLENTOWN/A.-BETHLEHEM-EASTON PA. UNITED STATES OF AMERICA,40.65000,-75.43333,117.0,nan,nan,nan,nan,nan,nan,nan,nan,nan,nan,nan,nan,nan,nan,nan
WMO72537,DETROIT/METROPOLITAN MI. UNITED STATES OF AMERICA,42.23333,-83.33333,202.0,nan,nan,nan,nan,nan,nan,nan,nan,nan,nan,nan,nan,nan,nan,nan
WMO72597,MEDFORD/MEDFORD-JACKSON COUNTY OR. UNITED STATES OF AMERICA,42.36667,-122.86667,398.0,nan,nan,nan,nan,nan,nan,nan,nan,nan,nan,nan,nan,nan,nan,nan
WMO72658,MINNEAPOLIS/ST.PAUL INT. MN. UNITED STATES OF AMERICA,44.88333,-93.21667,255.0,nan,nan,nan,nan,nan,nan,nan,nan,nan,nan,nan,nan,nan,nan,nan
WMO72753,FARGO/HECTOR FIELD  ND. UNITED STATES OF AMERICA,46.90000,-96.80000,274.0,nan,nan,nan,nan,nan,nan,nan,nan,nan,nan,nan,nan,nan,nan,nan
WMO76040,EJIDO NUEVO LEON MEXICO,32.40000,-115.18333,nan,nan,338.3,324.6,339.1,308.0,340.6,340.1,384.0,361.0,323.6,346.3,313.0,nan,313.0,325.9
WMO76256,EMPALME SON. MEXICO,27.95000,-110.80000,nan,nan,330.1,335.9,310.3,292.9,300.7,315.9,314.0,327.1,324.6,305.6,312.1,304.1,285.4,316.6
WMO76402,CIUDAD CONSTITUCION BCS MEXICO,25.00000,-111.63333,nan,nan,311.3,291.3,351.6,298.1,312.3,313.9,310.0,310.0,312.9,nan,nan,nan,306.1,317.3
WMO76539,SAN LUIS POTOSI  S.L.P. MEXICO,22.20000,-101.01667,nan,nan,274.3,269.7,281.3,288.4,281.0,257.0,271.1,257.6,228.0,216.0,216.3,nan,245.3,259.1
WMO76612,GUADALAJARA JAL. MEXICO,20.70000,-103.38333,nan,nan,nan,nan,nan,nan,nan,nan,nan,315.0,289.9,304.0,271.3,309.0,260.0,nan
WMO76658,COLIMA MEXICO,19.23333,-103.73333,nan,nan,320.0,295.0,nan,308.0,301.0,297.3,268.0,290.0,249.3,257.7,257.9,nan,245.1,285.0
WMO76692,HACIENDA YLANG YLANG VERACRUZ VER. MEXICO,19.15000,-96.13333,nan,nan,280.4,244.1,245.0,250.7,219.6,265.3,249.0,212.6,233.9,229.4,209.7,nan,237.3,257.4
WMO76805,ACAPULCO GRO. MEXICO,16.75000,-99.75000,nan,nan,311.7,294.6,319.0,300.9,310.6,298.3,291.9,282.3,291.6,284.3,302.1,297.6,313.9,314.1
WMO78310,CABO SAN ANTONIO  PINAR DEL RIO CUBA,21.86667,-84.95000,8.0,nan,nan,nan,nan,nan,248.6,nan,nan,nan,nan,nan,nan,nan,nan,nan
WMO78482,BARAHONA DOMINICAN REPUBLIC,18.20000,-71.10000,nan,nan,nan,nan,nan,nan,nan,nan,nan,nan,nan,nan,nan,nan,nan,nan
WMO78760,PUNTARENAS COSTA RICA,9.96667,-84.83333,3.0,nan,nan,nan,nan,nan,nan,nan,nan,nan,nan,nan,nan,nan,nan,nan
WMO80001,SAN ANDRES (ISLA)/SESQUICENTENARIO COLOMBIA,12.58333,-81.71667,6.0,nan,289.3,257.9,271.7,295.4,252.0,288.4,243.9,274.6,282.4,258.3,289.3,223.0,279.1,261.4
WMO80094,BUCARAMANGA/PALONEGRO COLOMBIA,7.10000,-73.20000,1189.0,nan,133.7,136.1,142.6,146.7,139.0,121.4,153.0,128.0,159.0,154.6,117.1,nan,123.1,146.3
WMO80219,GIRARDOT/SANTIAGO VILLA COLOMBIA,4.28333,-74.80000,293.0,nan,nan,nan,nan,nan,nan,nan,nan,nan,nan,nan,nan,nan,nan,nan
WMO80398,LETICIA/VASQUEZ COBO COLOMBIA,-4.16667,-69.95000,84.0,nan,138.0,128.6,135.7,145.0,146.3,146.4,144.0,167.3,150.1,nan,nan,nan,80.0,123.6
WMO80420,CUMANA VENEZUELA,10.45000,-64.18333,4.0,nan,279.3,275.0,255.0,261.7,196.1,221.3,230.0,235.9,224.0,nan,nan,233.0,nan,nan
WMO80435,MATURIN VENEZUELA,9.75000,-63.18333,66.0,nan,266.3,247.0,238.6,229.6,205.7,216.4,203.0,200.1,174.0,nan,nan,177.0,nan,nan
WMO80457,PUERTO AYACUCHO VENEZUELA,5.60000,-67.50000,74.0,nan,147.6,170.1,202.0,195.0,120.4,120.0,153.9,165.9,171.4,159.6,149.0,136.0,nan,nan
WMO81401,SAINT-LAURENT FRENCH GUIANA,5.48333,-54.01667,5.0,nan,nan,83.0,nan,nan,nan,nan,nan,nan,nan,nan,nan,99.0,75.4,133.1
WMO82184,PORTO DE MOZ BRAZIL,-1.73333,-52.23333,16.0,nan,127.6,142.9,147.0,138.0,nan,nan,nan,nan,nan,nan,nan,nan,nan,nan
WMO82397,FORTALEZA BRAZIL,-3.76667,-38.60000,26.0,nan,120.0,178.6,132.0,114.9,203.7,134.4,226.1,207.1,171.9,nan,nan,182.4,171.1,96.0
WMO82586,QUIXERAMOBIM BRAZIL,-5.20000,-39.30000,212.0,nan,208.9,214.9,190.3,151.7,222.7,197.4,251.9,211.4,196.6,nan,nan,nan,nan,170.3
WMO82900,RECIFE BRAZIL,-8.05000,-34.91667,7.0,nan,193.0,209.7,205.1,180.0,214.3,128.1,233.0,213.4,202.0,250.9,190.9,194.4,153.3,206.1
WMO83236,BARREIRAS BRAZIL,-12.15000,-45.00000,439.0,nan,194.9,251.6,225.4,167.6,nan,260.0,276.7,239.0,257.9,230.0,289.0,nan,250.4,257.3
WMO83437,MONTES CLAROS BRAZIL,-16.71667,-43.86667,646.0,nan,234.6,242.3,265.7,182.9,246.0,248.0,255.6,228.4,263.9,222.9,275.0,207.6,193.0,246.0
WMO83618,TRES LAGOAS BRAZIL,-20.78333,-51.70000,313.0,nan,229.9,225.3,180.1,258.3,nan,nan,nan,nan,nan,nan,nan,nan,nan,nan
WMO83726,SAO CARLOS BRAZIL,-22.01667,-47.88333,856.0,nan,220.1,197.3,172.3,219.4,182.0,182.0,184.0,187.6,189.1,165.0,nan,nan,nan,nan
WMO83997,ST.VITORIA DO PALMAR BRAZIL,-33.51667,-53.35000,24.0,nan,191.6,166.3,197.0,217.9,177.9,193.1,180.6,180.1,165.4,206.7,100.6,nan,143.9,nan
WMO84140,PICHILINGUE ECUADOR,-1.10000,-79.45000,nan,nan,nan,nan,nan,109.6,94.9,98.0,129.6,76.6,65.4,126.1,95.1,91.3,113.7,103.4
WMO85033,GUAYARAMERIN BOLIVIA,-10.81667,-65.35000,nan,nan,nan,199.9,196.0,197.0,nan,nan,nan,nan,nan,nan,nan,nan,nan,nan
WMO85154,TRINIDAD BOLIVIA,-14.81667,-64.91667,nan,nan,nan,215.0,225.0,190.0,210.0,252.0,190.0,192.0,192.9,nan,nan,154.3,196.0,199.6
WMO85406,ARICA CHILE,-18.35000,-70.33333,nan,nan,245.4,230.0,253.4,270.0,169.9,223.6,254.4,249.9,183.0,188.6,225.6,238.0,225.7,200.6
WMO85577,QUINTA NORMAL CHILE,-33.43333,-70.66667,nan,nan,191.6,174.4,182.9,209.9,194.9,178.1,163.0,190.7,196.6,206.9,97.1,171.4,194.3,178.7
WMO85864,COYHAIQUE CHILE,-45.58333,-73.10000,nan,nan,132.7,122.3,129.9,122.4,132.4,143.1,127.7,119.0,116.0,95.6,118.4,113.4,105.9,104.3
WMO86086,PUERTO CASADO PARAGUAY,-22.28333,-57.93333,78.0,nan,nan,nan,nan,nan,nan,198.9,190.6,194.4,211.6,nan,nan,nan,267.1,190.6
WMO86221,PARAGUARI PARAGUAY,-25.63333,-57.13333,116.0,nan,nan,nan,nan,nan,nan,182.3,156.9,175.1,159.6,146.6,176.9,136.6,254.3,131.0
WMO86285,CAPITAN MEZA PARAGUAY,-26.83333,-55.33333,263.0,nan,nan,nan,nan,nan,nan,207.0,195.4,218.4,181.0,181.4,163.6,nan,236.1,132.0
WMO86560,COLONIA URUGUAY,-34.45000,-57.76667,20.0,nan,nan,nan,nan,nan,nan,200.0,nan,nan,nan,nan,118.0,182.7,142.6,186.1
WMO87078,LAS LOMITAS ARGENTINA,-24.70000,-60.58333,130.0,nan,183.0,180.0,231.0,228.9,194.1,135.4,143.9,197.4,171.6,nan,nan,114.3,192.9,125.0
WMO87166,CORRIENTES AERO. ARGENTINA,-27.45000,-58.76667,62.0,nan,220.4,nan,nan,nan,nan,nan,nan,nan,nan,nan,137.0,nan,nan,nan
WMO87289,PASO DE LOS LIBRES AERO ARGENTINA,-29.68333,-57.15000,70.0,nan,195.1,169.6,206.7,225.3,193.1,193.7,192.4,202.9,183.3,219.1,93.6,156.7,165.6,146.0
WMO87374,PARANA AERO ARGENTINA,-31.78333,-60.48333,78.0,nan,221.7,161.7,251.4,240.7,205.6,223.1,205.7,239.9,183.6,236.0,123.3,192.0,154.3,163.6
WMO87484,PERGAMINO ARGENTINA,-33.93333,-60.55000,nan,nan,nan,nan,nan,nan,nan,nan,nan,nan,nan,nan,nan,nan,nan,nan
WMO87550,NUEVE DE JULIO ARGENTINA,-35.45000,-60.88333,76.0,nan,nan,nan,nan,nan,nan,nan,nan,nan,nan,nan,nan,nan,nan,nan
WMO87640,BOLIVAR AERO ARGENTINA,-36.20000,-61.06667,94.0,nan,193.3,199.7,229.0,165.0,228.7,202.7,194.3,209.6,146.4,nan,nan,178.3,145.7,205.6
WMO87692,MAR DEL PLATA AERO ARGENTINA,-37.93333,-57.58333,21.0,nan,174.4,158.7,164.6,144.6,158.4,162.1,122.3,125.6,101.9,146.7,51.6,125.3,87.9,152.7
WMO87800,EL BOLSON AERO ARGENTINA,-41.96667,-71.51667,337.0,nan,176.6,nan,nan,nan,nan,nan,nan,nan,nan,nan,nan,nan,nan,nan
WMO87903,LAGO ARGENTINO ARGENTINA,-50.33333,-72.30000,nan,nan,nan,nan,nan,nan,nan,nan,nan,nan,nan,nan,nan,nan,nan,nan
WMO88903,GRYTVIKEN  SOUTH GEORGIA ISLANDS(UNITED KINGDOM OF GREAT BRITAIN),-54.28333,-36.48333,3.0,nan,nan,44.9,52.6,48.4,50.7,53.1,57.1,73.9,55.9,nan,nan,nan,nan,nan
WMO89042,SIGNY ISLAND / SOUTH ORKNEY ISL. ANTARCTICA,-60.70000,-45.60000,nan,nan,nan,nan,nan,nan,nan,nan,nan,nan,nan,nan,nan,nan,nan,nan
WMO89063,VERNADSKY STATIONS OPERATED BY UKRAINE,-65.25000,-64.26667,11.0,nan,nan,36.0,nan,71.9,nan,nan,nan,nan,nan,nan,56.6,52.0,56.0,32.3
WMO89606,VOSTOK STATIONS OPERATED BY THE RUSSIAN FEDERATION,-78.45000,106.85000,3489.0,nan,21.4,67.9,31.4,35.0,36.4,22.1,22.9,nan,21.4,15.7,nan,44.3,30.7,nan
WMO91275,JOHNSTON ISLAND (WSO AIRPORT) ISLANDS IN THE PACIFIC OCEAN NORTH OF THE EQUATOR,16.70000,-169.50000,nan,nan,nan,nan,nan,nan,nan,nan,nan,nan,nan,nan,nan,nan,nan,nan
WMO91557,BAUERFIELD (EFATE) VANUATU,-17.70000,168.30000,21.0,nan,nan,nan,nan,nan,nan,nan,nan,nan,nan,nan,nan,nan,nan,nan
WMO91683,NAUSORI FIJI,-18.05000,178.56667,7.0,nan,nan,nan,nan,nan,nan,nan,nan,nan,nan,nan,nan,nan,nan,nan
WMO91938,TAHITI-FAAA FRENCH POLYNESIA (SOCIETY ISLANDS),-17.55000,-149.60000,2.0,nan,195.3,252.9,251.4,233.7,251.9,221.6,224.6,218.7,245.6,nan,nan,nan,217.4,199.9
WMO91958,RAPA FRENCH POLYNESIA (AUSTRAL ISLANDS),-27.61667,-144.33333,2.0,nan,124.7,105.7,106.7,111.4,113.6,118.9,99.9,91.6,105.4,68.7,141.3,133.9,102.7,93.3
WMO92077,GURNEY W.O. PAPUA NEW GUINEA,-10.31667,150.33333,23.0,nan,110.0,nan,nan,nan,nan,nan,nan,nan,nan,nan,nan,nan,nan,nan
WMO93417,PARAPARAUMU NEW ZEALAND,-40.90000,174.98333,nan,nan,122.0,174.7,168.0,171.0,nan,nan,nan,nan,nan,nan,nan,nan,nan,nan
WMO93986,WAITANGI / CHATHAM ISL. NEW ZEALAND,-44.00000,-176.60000,nan,nan,nan,nan,nan,nan,nan,nan,nan,nan,nan,nan,nan,nan,nan,nan
WMO94238,TENNANT CREEK AIRPORT AUSTRALIA,-19.63333,134.18333,377.0,nan,263.7,313.6,323.6,306.9,238.0,nan,nan,282.4,306.0,nan,nan,nan,nan,nan
WMO94476,OODNADATTA AIRPORT AUSTRALIA,-27.55000,135.43333,117.0,nan,nan,nan,nan,nan,nan,nan,nan,nan,nan,nan,nan,nan,nan,nan
WMO94738,SCONE SCS AUSTRALIA,-32.05000,150.91667,216.0,nan,nan,141.0,nan,nan,nan,nan,nan,nan,nan,nan,nan,nan,nan,nan
WMO94926,CANBERRA AIRPORT AUSTRALIA,-35.30000,149.20000,577.0,nan,252.7,225.0,238.4,209.7,nan,nan,192.4,nan,nan,nan,nan,nan,nan,nan
WMO95971,GROVE/TAS AUSTRALIA,-42.98333,147.06667,nan,nan,nan,131.0,133.4,127.1,nan,nan,nan,nan,nan,nan,nan,nan,nan,nan
WMO96091,TANJUNG PINANG/KIJANG INDONESIA,0.91667,104.53333,18.0,nan,nan,nan,nan,nan,nan,nan,122.0,102.1,154.0,189.3,146.6,128.6,117.0,145.7
WMO96249,TANJUNG PANDAN/BULUH TUMBANG INDONESIA,-2.75000,107.75000,44.0,nan,114.0,118.0,123.3,136.3,130.3,98.3,112.1,125.3,140.7,144.0,122.3,110.4,140.0,139.6
WMO96481,TAWAU MALAYSIA (SABAH AND SARAWAK),4.26667,117.88333,20.0,nan,nan,nan,nan,nan,nan,nan,207.6,193.7,nan,nan,nan,nan,nan,nan
WMO96615,KETAPANG/KALIMANTAN INDONESIA,-1.85000,109.96667,nan,nan,nan,nan,187.0,177.9,187.0,173.0,176.6,177.7,188.9,nan,nan,189.9,193.0,215.0
WMO96745,JAKARTA/OBSERVATORY INDONESIA,-6.18333,106.83333,8.0,nan,125.0,136.9,169.9,127.3,160.3,147.1,144.0,114.3,125.1,176.0,135.1,125.0,150.7,155.3
WMO96845,SURAKARTA/JAVA INDONESIA,-7.51667,110.75000,nan,nan,nan,nan,nan,nan,nan,nan,nan,nan,nan,nan,nan,nan,nan,nan
WMO97014,MENADO/ SAM RATULANGI INDONESIA,1.53333,124.91667,80.0,nan,100.0,160.9,137.4,167.7,141.1,164.7,189.6,127.0,228.7,234.7,183.7,nan,212.0,183.7
WMO97180,UJUNG PANDANG/HASANUDDIN INDONESIA,-5.06667,119.55000,14.0,nan,171.6,209.0,186.1,202.3,175.7,164.3,225.6,199.1,213.1,nan,nan,nan,196.9,201.4
WMO97320,MALI/ALOR ISLAND INDONESIA,-8.13333,124.60000,nan,nan,nan,nan,nan,nan,nan,nan,237.3,255.6,224.0,nan,nan,243.9,234.4,250.0
WMO97460,LABUHA/WEST IRIAN INDONESIA,0.63333,127.50000,nan,nan,nan,205.1,nan,215.0,188.6,160.0,195.0,145.9,212.3,nan,nan,nan,215.0,207.4
WMO97690,JAYAPURA/SENTANI INDONESIA,-2.56667,140.48333,99.0,nan,nan,nan,58.0,67.0,150.9,132.9,176.0,160.0,151.1,nan,nan,147.9,171.0,144.4
WMO97810,TUAL/MOLUKKEN INDONESIA,-5.68333,132.75000,nan,nan,nan,143.0,164.6,131.4,151.0,90.6,155.3,188.6,171.0,nan,nan,nan,144.0,138.4
WMO98425,MANILA PHILIPPINES,14.58333,120.98333,nan,nan,nan,nan,nan,nan,nan,nan,nan,nan,nan,nan,nan,nan,nan,nan
WMO98836,ZAMBOANGA PHILIPPINES,6.91667,122.05000,6.0,nan,186.4,241.7,185.4,186.4,241.6,197.3,196.0,192.7,230.0,225.6,237.9,204.0,nan,nan
