id,name,latitude,longitude,elev,2005,2006,2007,2008,2009,2010,2011,2012,2013,2014,2015,2016,2017,2018,2019
id,name,latitude,longitude,elev,2005,2006,2007,2008,2009,2010,2011,2012,2013,2014,2015,2016,2017,2018,2019
WMO02197,HAPARANDA SWEDEN,65.81667,24.10000,15.0,nan,nan,nan,nan,nan,136.6,91.7,98.0,106.4,nan,nan,nan,nan,nan,nan
WMO02805,UTSJOKI KEVO FINLAND,69.75000,27.03333,101.0,nan,44.6,65.4,85.3,84.0,41.0,36.4,43.7,97.0,70.1,68.9,58.0,64.4,92.6,nan
WMO02963,JOKIOINEN OBSERVATORY FINLAND,60.81667,23.50000,103.0,nan,88.7,79.3,88.6,106.0,105.7,100.4,64.4,126.0,106.0,149.4,113.1,66.6,101.9,80.6
WMO03160,EDINBURGH (TURNHOUSE AIRPORT) UNITED KINGDOM OF GREAT BRITAIN AND NORTHERN IRELAND,56.00000,-3.40000,nan,nan,nan,nan,nan,nan,nan,nan,nan,nan,nan,nan,nan,nan,nan,nan
WMO03534,BIRMINGHAM_AIRPORT UNITED KINGDOM OF GREAT BRITAIN AND NORTHERN IRELAND,52.45000,-1.73333,nan,nan,nan,nan,nan,nan,nan,nan,nan,nan,nan,nan,nan,nan,nan,nan
WMO03827,PLYMOUTH-MOUNT BATTON UNITED KINGDOM OF GREAT BRITAIN AND NORTHERN IRELAND,50.40000,-4.10000,nan,nan,nan,nan,nan,nan,nan,nan,nan,nan,nan,nan,nan,nan,nan,nan
WMO03964,GALWAY IRELAND,53.30000,-9.00000,nan,nan,nan,nan,nan,nan,nan,nan,nan,nan,nan,nan,nan,nan,nan,nan
WMO04030,REYKJAVIK ICELAND,64.13333,-21.90000,61.0,nan,124.4,81.0,107.3,62.3,106.6,129.7,131.0,109.7,95.1,nan,nan,nan,118.9,105.1
WMO06590,LUXEMBOURG/LUXEMBOURG LUXEMBOURG,49.61667,6.21667,376.0,nan,141.4,158.6,116.1,145.6,159.4,165.0,156.1,115.6,135.6,nan,nan,nan,201.7,131.6
WMO07015,LILLE-LESQUIN FRANCE,50.56667,3.08333,47.0,nan,138.3,120.0,134.7,124.0,134.7,153.0,138.3,121.4,129.4,119.4,142.4,116.6,179.0,nan
WMO07149,ORLY FRANCE,48.71667,2.38333,90.0,nan,nan,nan,nan,151.1,167.3,152.9,125.3,118.4,156.0,137.9,149.9,131.9,190.0,nan
WMO07299,BALE-MULHOUSE FRANCE,47.60000,7.50000,273.0,nan,145.3,158.4,126.6,147.0,155.3,196.0,125.6,133.0,155.9,140.6,142.3,161.4,nan,nan
WMO07577,MONTELIMAR FRANCE,44.56667,4.71667,74.0,nan,195.3,234.4,171.7,229.6,203.7,208.9,176.3,176.7,207.9,187.7,205.1,228.6,215.4,nan
WMO07747,PERPIGNAN FRANCE,42.73333,2.86667,44.0,nan,174.4,222.7,203.6,237.0,206.7,244.6,177.6,199.9,222.6,nan,nan,nan,193.4,200.9
WMO08023,SANTANDER SPAIN,43.48333,-3.78333,59.0,nan,160.4,176.9,176.1,192.7,160.9,199.1,170.7,169.6,204.7,167.1,178.9,176.0,201.1,175.1
WMO08075,BURGOS/VILLAFRIA SPAIN,42.35000,-3.61667,892.0,nan,167.7,200.0,195.7,204.9,196.7,249.4,185.9,206.1,218.4,nan,nan,nan,230.1,201.4
WMO08161,ZARAGOZA SPAIN,41.63333,-0.90000,nan,nan,nan,nan,nan,nan,nan,nan,nan,nan,nan,nan,nan,nan,nan,nan
WMO08219,COLMENAR VIEJO/FAMET SPAIN,40.68333,-3.75000,998.0,nan,178.6,232.6,200.1,232.4,224.9,264.0,222.3,228.0,219.7,192.4,223.3,275.0,215.3,nan
WMO08238,TORTOSA SPAIN,40.81667,0.48333,50.0,nan,204.7,229.7,186.7,222.9,235.3,247.6,208.3,235.7,220.0,210.0,204.3,244.0,233.0,nan
WMO08314,MENORCA/MAHON SPAIN,39.85000,4.20000,86.0,nan,181.7,155.1,141.9,195.3,171.3,225.0,178.3,175.9,217.0,182.0,216.6,231.9,207.9,251.0
WMO08397,MORON DE LA FRONTERA SPAIN,37.15000,-5.60000,88.0,nan,212.3,249.0,203.7,254.7,249.3,276.4,230.4,240.4,243.9,210.6,252.6,nan,241.7,258.7
WMO08452,CADIZ OBS. SPAIN,36.50000,-6.25000,9.0,nan,186.0,nan,210.0,nan,nan,nan,234.3,nan,nan,nan,nan,nan,nan,nan
WMO08515,SANTA MARIA (ACORES) PORTUGAL,36.96667,-25.16667,100.0,nan,253.0,216.4,220.4,nan,188.0,202.0,139.0,nan,204.0,nan,nan,nan,179.4,170.7
WMO08558,EVORA/C. COORD PORTUGAL,38.53333,-7.90000,246.0,nan,212.6,250.4,216.0,234.4,185.1,218.9,193.9,248.0,145.7,nan,nan,251.0,177.7,146.3
WMO10035,SCHLESWIG GERMANY,54.51667,9.53333,nan,nan,122.4,120.9,94.0,132.7,132.3,142.9,104.9,110.3,122.9,129.0,130.1,nan,150.3,100.3
WMO10131,CUXHAVEN GERMANY,53.86667,8.70000,12.0,nan,133.0,125.4,120.9,132.6,118.7,137.3,96.1,116.3,118.3,nan,nan,nan,159.9,117.0
WMO10168,GOLDBERG GERMANY,53.60000,12.10000,59.0,nan,nan,nan,nan,133.3,123.4,153.4,139.1,119.9,125.9,142.9,127.1,104.1,177.3,nan
WMO10235,SOLTAU GERMANY,52.95000,9.78333,77.0,nan,nan,nan,nan,120.9,103.4,149.9,114.7,100.4,117.1,118.4,109.9,92.6,166.6,120.4
WMO10282,FELDBERG/MECKLENBURG GERMANY,53.31667,13.41667,116.0,nan,nan,nan,nan,121.9,133.3,159.6,139.9,112.0,124.3,131.0,122.4,98.1,174.0,141.0
WMO10325,BAD SALZUFLEN GERMANY,52.10000,8.75000,136.0,nan,225.0,nan,nan,109.7,105.1,154.9,128.4,106.1,118.6,120.3,121.6,89.9,174.0,nan
WMO10381,BERLIN-DAHLEM GERMANY,52.46667,13.30000,nan,nan,168.1,128.4,119.9,137.6,140.1,182.4,172.9,119.4,134.9,156.7,137.9,nan,196.3,157.9
WMO10427,KAHLER ASTEN GERMANY,51.16667,8.48333,858.0,nan,136.7,99.4,87.0,94.9,94.7,137.7,124.3,80.6,89.6,90.4,112.7,63.6,150.4,94.6
WMO10453,BROCKEN GERMANY,51.80000,10.61667,1152.0,nan,150.9,80.7,88.3,99.9,113.1,153.7,128.7,81.3,98.4,nan,nan,69.7,156.3,nan
WMO10490,DOBERLUG-KIRCHHAIN GERMANY,51.63333,13.56667,97.0,nan,nan,nan,nan,122.3,143.1,181.6,163.3,121.1,122.3,134.6,115.4,106.6,170.3,nan
WMO10520,ANDERNACH GERMANY,50.41667,7.41667,76.0,nan,nan,nan,nan,nan,nan,149.0,129.3,106.3,93.6,nan,nan,nan,165.9,120.3
WMO10552,SCHMUECKE GERMANY,50.65000,10.76667,939.0,nan,nan,nan,nan,86.0,126.9,165.6,147.3,92.1,92.4,92.1,98.7,68.3,167.0,nan
WMO10579,MARIENBERG GERMANY,50.65000,13.13333,640.0,nan,nan,nan,nan,120.3,137.1,177.1,152.4,122.6,124.0,127.3,109.9,95.9,177.9,153.1
WMO10646,NEUHUETTEN-SPESSART GERMANY,50.00000,9.41667,340.0,nan,nan,nan,nan,119.4,127.4,167.9,148.1,112.9,85.1,nan,nan,nan,186.3,123.7
WMO10706,THOLEY GERMANY,49.46667,7.03333,387.0,nan,nan,nan,nan,135.4,143.9,162.4,151.1,96.7,124.4,nan,nan,nan,204.6,126.9
WMO10742,OEHRINGEN GERMANY,49.20000,9.51667,274.0,nan,167.0,139.6,104.1,125.1,146.7,179.3,158.9,118.1,120.4,114.3,146.1,117.9,196.1,191.0
WMO10796,ZWIESEL GERMANY,49.01667,13.23333,616.0,nan,nan,nan,nan,130.1,142.0,174.1,148.1,109.0,123.7,nan,nan,102.3,186.3,nan
WMO10852,AUGSBURG GERMANY,48.41667,10.93333,476.0,nan,170.7,132.1,106.6,124.4,129.3,168.4,138.4,113.7,87.4,101.6,143.7,137.7,187.4,145.0
WMO10929,KONSTANZ GERMANY,47.66667,9.18333,444.0,nan,148.4,130.3,124.4,140.0,134.0,141.3,121.4,110.0,123.0,118.3,143.1,147.4,207.0,nan
WMO11028,ST. POELTEN (HESSERKASERNE) AUSTRIA,48.20000,15.60000,nan,nan,nan,nan,nan,nan,nan,nan,nan,nan,nan,nan,nan,nan,nan,nan
WMO11406,EGER CZECH REPUBLIC,50.08333,12.40000,nan,nan,nan,nan,nan,nan,nan,nan,nan,nan,nan,nan,nan,nan,nan,nan
WMO11787,LYSA HORA CZECH REPUBLIC,49.53333,18.43333,1326.0,nan,180.9,100.3,125.7,93.7,140.3,152.3,134.6,116.7,121.3,nan,nan,nan,161.4,161.9
WMO12330,POZNAN POLAND,52.41667,16.83333,88.0,nan,163.0,128.4,113.9,125.3,159.4,158.3,146.0,134.1,182.0,148.7,135.1,110.1,180.3,nan
WMO12843,BUDAPEST/PESTSZENTLORINC HUNGARY,47.43333,19.18333,139.0,nan,234.3,165.4,158.1,172.9,149.6,221.0,187.3,204.4,138.0,159.1,253.0,174.7,201.3,226.9
WMO13363,PLJEVLJA MONTENEGRO,43.35000,19.35000,788.0,nan,159.6,108.1,139.7,124.4,nan,173.1,177.0,177.0,112.4,143.6,126.1,178.7,183.7,199.9
WMO13615,TIRANA ALBANIA,41.33333,19.78333,90.0,nan,nan,nan,nan,nan,nan,nan,nan,nan,nan,nan,nan,nan,nan,nan
WMO15023,SUCEAVA ROMANIA,47.61667,26.23333,353.0,nan,204.3,146.0,159.9,154.1,144.3,209.1,197.4,162.4,187.0,nan,nan,nan,196.7,202.6
WMO15360,SULINA ROMANIA,45.13333,29.75000,13.0,nan,191.1,192.7,216.6,203.9,167.9,209.0,205.4,159.3,181.4,151.9,174.1,191.3,189.7,194.7
WMO16008,S. VALENTINO ALLA MUTA ITALY,46.75000,10.53333,1461.0,nan,nan,nan,nan,nan,nan,nan,nan,nan,nan,nan,nan,nan,nan,nan
WMO16099,TREVISO/S.ANGELO ITALY,45.65000,12.18333,nan,nan,185.9,179.6,nan,nan,nan,nan,nan,nan,nan,nan,nan,nan,nan,nan
WMO16191,FALCONARA ITALY,43.60000,13.40000,nan,nan,nan,nan,nan,nan,nan,nan,nan,nan,nan,nan,nan,nan,nan,nan
WMO16258,MONTE S. ANGELO ITALY,41.70000,15.93333,848.0,nan,nan,nan,nan,nan,nan,nan,nan,nan,nan,nan,nan,nan,nan,nan
WMO16429,TRAPANI BIRGI ITALY,37.90000,12.48333,9.0,nan,230.3,213.9,222.7,223.3,176.3,222.3,200.3,210.0,217.4,199.9,184.9,244.4,184.4,244.0
WMO16597,LUQA MALTA,35.85000,14.48333,nan,nan,249.3,211.7,228.0,240.6,218.4,238.4,241.1,244.7,245.7,nan,nan,nan,206.0,228.7
WMO16746,SOUDA (AIRPORT) GREECE,35.48333,24.11667,151.0,nan,223.1,241.1,231.0,219.0,209.1,216.6,263.3,278.9,239.1,220.3,246.6,255.1,215.7,nan
WMO17062,ISTANBUL TURKEY,40.90000,29.15000,nan,nan,158.0,185.6,177.3,180.1,161.0,211.4,214.6,200.1,nan,nan,nan,nan,nan,nan
WMO17092,ERZINCAN TURKEY,39.70000,39.51667,1154.0,nan,201.9,231.7,222.3,213.0,200.6,214.0,205.1,228.3,188.3,205.0,226.4,241.6,200.6,225.0
WMO17150,BALIKESIR TURKEY,39.61667,27.91667,102.0,nan,180.1,205.3,192.1,202.4,167.4,225.7,232.3,210.1,168.0,184.6,222.3,234.6,198.9,nan
WMO17202,ELAZIG TURKEY,38.60000,39.28333,881.0,nan,245.3,264.0,257.4,250.3,239.6,256.0,231.3,274.1,181.0,230.4,289.0,281.3,248.0,nan
WMO17255,KAHRAMANMARAS TURKEY,37.60000,36.93333,572.0,nan,204.9,222.9,203.1,221.4,206.3,217.1,210.6,229.1,196.6,203.0,242.0,266.9,204.7,nan
WMO17351,ADANA/BOLGE TURKEY,36.98333,35.35000,27.0,nan,231.6,241.6,226.9,231.9,231.3,270.3,236.1,258.6,248.3,nan,nan,271.1,247.4,nan
WMO20674,OSTROV DIKSON RUSSIAN FEDERATION (IN ASIA),73.50000,80.40000,46.0,nan,36.1,53.1,52.0,25.7,43.4,47.7,38.9,54.4,26.7,57.3,52.1,24.7,45.0,nan
WMO21965,OSTROV CHETYREKHSTOLBOVOY RUSSIAN FEDERATION,70.60000,162.50000,nan,nan,nan,nan,nan,nan,nan,nan,nan,nan,nan,nan,nan,nan,nan,nan
WMO22602,REBOLY RUSSIAN FEDERATION (IN EUROPE),63.83333,30.81667,182.0,nan,nan,nan,nan,nan,nan,nan,nan,nan,nan,nan,nan,nan,nan,nan
WMO23205,NAR'JAN-MAR RUSSIAN FEDERATION (IN ASIA),67.61667,53.01667,11.0,nan,65.9,62.1,37.4,73.3,47.7,74.3,69.1,107.7,59.7,nan,nan,40.4,60.3,nan
WMO23472,TURUHANSK RUSSIAN FEDERATION (IN ASIA),65.78333,87.98333,37.0,nan,67.0,87.0,75.7,77.4,39.7,89.7,95.6,54.3,77.1,71.3,140.6,49.1,63.3,nan
WMO23884,BOR RUSSIAN FEDERATION (IN ASIA),61.56667,90.01667,57.0,nan,107.0,76.7,54.3,78.1,46.1,97.7,71.7,57.4,68.3,56.6,107.3,nan,79.3,56.9
WMO24143,DZARDZAN RUSSIAN FEDERATION (IN ASIA),68.73333,124.00000,38.0,nan,nan,nan,nan,nan,nan,nan,nan,nan,nan,nan,nan,nan,nan,nan
WMO24713,NAKANNO RUSSIAN FEDERATION (IN ASIA),62.88333,108.43333,245.0,nan,127.1,90.9,88.7,111.1,99.4,87.6,98.6,98.4,76.3,nan,nan,nan,85.7,72.3
WMO25173,MYS SHMIDTA RUSSIAN FEDERATION (IN ASIA),68.90000,-179.63333,3.0,nan,nan,nan,nan,nan,nan,nan,nan,nan,nan,nan,nan,nan,nan,nan
WMO25538,VERHNEE PENZINO RUSSIAN FEDERATION (IN ASIA),64.21667,164.23333,325.0,nan,123.4,nan,nan,126.3,69.4,nan,nan,143.1,92.1,160.0,78.7,nan,nan,nan
WMO26038,TALLINN-HARKU ESTONIA,59.38333,24.60000,34.0,nan,107.4,91.7,101.3,98.9,115.4,128.9,84.9,136.6,143.4,140.0,125.3,98.7,136.3,nan
WMO26393,VYSNIJ VOLOCEK RUSSIAN FEDERATION,57.58333,34.56667,nan,nan,nan,nan,nan,nan,nan,nan,nan,nan,nan,nan,nan,nan,nan,nan
WMO26629,KAUNAS LITHUANIA,54.88333,23.83333,76.0,nan,181.3,140.9,107.4,143.9,170.3,155.6,132.4,91.1,157.7,136.6,105.0,nan,180.6,142.9
WMO27199,KIROV RUSSIAN FEDERATION (IN EUROPE),58.56667,49.56667,158.0,nan,nan,nan,nan,nan,nan,nan,nan,nan,nan,nan,nan,nan,nan,nan
WMO28138,BISER RUSSIAN FEDERATION (IN ASIA),58.51667,58.85000,463.0,nan,66.3,114.0,84.3,124.6,107.7,39.3,84.1,59.7,104.4,68.4,62.6,87.3,89.9,nan
WMO28573,ISHIM RUSSIAN FEDERATION (IN ASIA),56.10000,69.43333,82.0,nan,109.7,141.1,121.9,166.1,155.3,152.7,141.1,123.7,97.3,nan,nan,139.6,150.7,nan
WMO28766,BLAGOVESHCHENKA KAZAKHSTAN,54.36667,66.96667,151.0,nan,nan,nan,nan,nan,nan,168.3,171.0,140.3,112.9,nan,nan,157.6,189.9,nan
WMO29594,TAJSHET RUSSIAN FEDERATION (IN ASIA),55.95000,98.00000,306.0,nan,160.6,126.9,123.9,142.4,116.1,169.4,141.9,127.0,153.0,nan,nan,101.4,136.1,148.1
WMO30230,KIRENSK RUSSIAN FEDERATION (IN ASIA),57.76667,108.06667,258.0,nan,116.4,106.9,95.9,107.4,116.3,89.0,nan,nan,116.9,nan,nan,nan,138.7,98.7
WMO30635,UST'-BARGUZIN RUSSIAN FEDERATION (IN ASIA),53.41667,109.01667,460.0,nan,nan,nan,nan,nan,nan,nan,nan,nan,nan,nan,nan,nan,nan,nan
WMO30949,KYRA RUSSIAN FEDERATION (IN ASIA),49.56667,111.96667,907.0,nan,245.3,246.7,195.9,236.0,221.1,222.7,219.9,204.7,225.9,223.4,194.0,238.7,223.6,nan
WMO31416,IM POLINY OSIPENKO RUSSIAN FEDERATION (IN ASIA),52.41667,136.50000,70.0,nan,185.0,195.9,141.1,153.4,206.1,150.6,145.1,178.3,177.1,138.1,156.4,nan,171.1,187.0
WMO32061,ALEKSANDROVSK-SAHALINSKIJ RUSSIAN FEDERATION (IN ASIA),50.90000,142.16667,31.0,nan,176.7,169.4,119.6,141.6,177.3,176.9,129.0,179.1,179.0,126.4,143.1,nan,179.6,185.4
WMO32389,KLJUCHI RUSSIAN FEDERATION (IN ASIA),56.31667,160.83333,28.0,nan,150.3,179.0,103.1,137.0,147.7,147.7,135.6,198.0,159.3,123.6,157.3,150.4,138.3,175.1
WMO33041,GOMEL BELARUS,52.40000,30.95000,126.0,nan,158.4,141.3,114.0,150.6,151.3,163.7,125.6,97.6,220.4,175.1,121.1,132.9,196.4,nan
WMO33777,VOZNESENS'K UKRAINE,47.56667,31.33333,34.0,nan,nan,nan,nan,nan,nan,nan,nan,nan,nan,nan,nan,nan,nan,nan
WMO33983,KERCH UKRAINE,45.40000,36.41667,49.0,nan,nan,nan,nan,nan,nan,nan,nan,nan,nan,nan,nan,nan,nan,nan
WMO34300,KHARKIV UKRAINE,49.96667,36.13333,155.0,nan,143.0,147.4,164.7,142.6,144.7,183.0,188.1,88.9,230.6,nan,nan,151.1,202.3,201.0
WMO34927,KRASNODAR-KRUGLIK RUSSIAN FEDERATION (IN EUROPE),45.05000,39.03333,29.0,nan,249.0,220.3,202.3,193.1,161.3,195.6,224.3,152.0,215.0,196.1,190.9,nan,nan,nan
WMO35376,BERLIK KAZAKHSTAN,49.88333,69.51667,349.0,nan,180.9,159.0,nan,nan,nan,nan,nan,nan,nan,nan,nan,nan,nan,nan
WMO36003,PAVLODAR KAZAKHSTAN,52.30000,76.93333,122.0,nan,164.1,177.7,182.7,163.0,205.0,213.4,180.1,170.1,125.4,nan,nan,nan,181.0,178.1
WMO36870,ALMATY KAZAKHSTAN,43.23333,76.93333,851.0,nan,213.0,236.0,188.6,201.6,182.1,212.3,218.4,248.0,183.0,185.0,184.6,214.7,185.0,198.0
WMO37472,MAHACHKALA RUSSIAN FEDERATION (IN EUROPE),43.00000,47.50000,-18.0,nan,171.9,191.3,165.9,200.4,148.6,179.0,215.4,174.9,161.0,176.6,171.1,nan,237.3,234.6
WMO37860,MASHTAGA AZERBAIJAN,40.53333,50.00000,28.0,nan,nan,272.0,144.0,211.0,171.6,190.7,214.0,nan,102.0,158.0,144.1,147.0,200.3,nan
WMO38341,ZHAMBYL KAZAKHSTAN,42.85000,71.38333,nan,nan,203.4,288.7,227.4,271.4,238.0,234.9,276.6,274.3,202.4,nan,nan,247.4,242.1,nan
WMO38511,CHAGYL TURKMENISTAN,40.78333,55.33333,115.0,nan,nan,nan,255.7,278.4,265.3,255.0,222.1,248.3,232.4,231.3,227.0,245.3,260.6,276.1
WMO38734,DEHAVZ TAJIKISTAN,39.45000,70.20000,2561.0,nan,nan,nan,nan,nan,nan,nan,nan,nan,nan,nan,nan,nan,nan,nan
WMO38933,KURGAN-TYUBE TAJIKISTAN,37.81667,68.78333,427.0,nan,nan,nan,nan,nan,nan,nan,nan,286.0,269.0,nan,nan,nan,208.3,231.7
WMO40100,BEYROUTH (AEROPORT) LEBANON,33.81667,35.48333,19.0,nan,230.7,nan,186.0,106.0,nan,183.0,153.0,150.0,148.0,nan,282.0,nan,nan,nan
WMO40255,IRBID JORDAN,32.60000,35.90000,nan,nan,nan,nan,nan,nan,nan,nan,nan,nan,nan,nan,nan,nan,nan,nan
WMO40373,AL-QAISUMAH SAUDI ARABIA,28.31667,46.13333,358.0,nan,nan,nan,nan,nan,nan,nan,nan,nan,nan,nan,nan,nan,nan,nan
WMO40435,AL-DAWADAMI SAUDI ARABIA,26.98333,44.11667,923.0,nan,nan,nan,nan,nan,nan,nan,nan,nan,nan,nan,nan,nan,nan,nan
WMO40650,BAGHDAD IRAQ,33.26667,44.23333,nan,nan,nan,nan,nan,nan,nan,nan,nan,nan,nan,nan,nan,nan,nan,nan
WMO40723,BOJNOURD IRAN ISLAMIC REPUBLIC OF,37.46667,57.33333,nan,nan,nan,nan,258.3,281.1,276.0,233.9,275.1,269.0,258.1,273.3,259.0,272.7,272.7,268.6
WMO40766,KERMANSHAH IRAN ISLAMIC REPUBLIC OF,34.35000,47.15000,1319.0,nan,211.6,261.1,230.1,241.9,277.3,271.4,255.0,281.0,252.4,234.0,281.7,nan,235.3,262.3
WMO40821,YAZD IRAN ISLAMIC REPUBLIC OF,31.90000,54.40000,nan,nan,282.0,296.0,287.0,293.3,313.1,308.9,289.0,313.9,302.6,293.3,309.7,nan,284.3,293.0
WMO40911,MAZAR-I-SHARIF AFGHANISTAN ISLAMIC STATE OF,36.70000,67.20000,378.0,nan,nan,nan,nan,nan,nan,nan,nan,nan,nan,nan,nan,nan,nan,nan
WMO41061,WADI AL-DAWASSER AIRPORT SAUDI ARABIA,20.50000,45.25000,622.0,nan,318.9,323.7,306.0,324.0,319.0,310.3,323.1,317.0,313.7,316.9,318.3,325.4,280.0,320.1
WMO41196,SHARJAH INTERNATIONAL AIRPORT UNITED ARAB EMIRATES,25.33333,55.51667,33.0,nan,306.9,298.4,298.0,290.0,297.0,291.0,nan,nan,287.0,nan,nan,nan,nan,nan
WMO41256,MUSCAT INT'L AIRPORT OMAN,23.58333,58.28333,8.0,nan,nan,nan,nan,nan,nan,nan,nan,nan,126.0,211.1,328.0,321.1,301.1,334.0
WMO41287,JOBA OMAN,20.86667,58.23333,34.0,nan,nan,nan,nan,nan,nan,nan,nan,nan,nan,nan,nan,nan,nan,nan
WMO41515,DROSH PAKISTAN,35.56667,71.78333,1465.0,nan,nan,nan,nan,nan,nan,nan,nan,nan,nan,nan,nan,nan,nan,nan
WMO41685,BARKHAN PAKISTAN,29.88333,69.71667,1098.0,nan,nan,nan,nan,nan,nan,nan,nan,nan,nan,nan,nan,nan,nan,nan
WMO41764,HYDERABAD PAKISTAN,25.38333,68.41667,30.0,nan,nan,nan,nan,nan,nan,nan,nan,nan,nan,nan,nan,nan,nan,nan
WMO41923,DHAKA BANGLADESH,23.76667,90.38333,9.0,nan,nan,nan,nan,nan,nan,135.0,158.3,126.7,165.0,158.1,145.1,135.1,161.4,141.1
WMO42314,DIBRUGARH /MOHANBARI INDIA (STATIONS NORTH OF LATITUDE 20~N),27.48333,95.01667,111.0,nan,182.3,173.9,190.6,199.4,151.0,223.9,164.9,174.0,210.0,nan,nan,nan,152.7,143.6
WMO42909,VERAVAL INDIA (STATIONS NORTH OF LATITUDE 20~N),20.90000,70.36667,11.0,nan,nan,nan,nan,nan,nan,nan,nan,nan,nan,nan,nan,nan,nan,nan
WMO43295,BANGALORE INDIA (STATIONS SOUTH OF LATITUDE 20~N),12.96667,77.58333,923.0,nan,133.1,110.0,116.1,147.4,104.7,129.4,133.4,109.7,145.9,157.9,154.6,131.9,186.6,108.4
WMO44213,BARUUNTURUUN MONGOLIA,49.65000,94.40000,1232.0,nan,nan,nan,nan,nan,nan,nan,nan,nan,nan,nan,nan,nan,nan,nan
WMO44277,ALTAI MONGOLIA,46.40000,96.25000,2181.0,nan,nan,nan,nan,nan,nan,nan,nan,nan,nan,140.0,143.4,nan,155.4,nan
WMO44373,DALANZADGAD MONGOLIA,43.58333,104.41667,1465.0,nan,275.6,257.1,266.6,260.6,269.0,252.1,249.0,271.1,215.1,nan,nan,nan,nan,nan
WMO47014,CHUNGGANG DEMOCRATIC PEOPLE'S REPUBLIC OF KOREA,41.78333,126.88333,331.0,nan,136.7,86.0,118.4,117.9,103.6,154.0,nan,nan,155.0,121.3,114.3,nan,128.0,147.0
WMO47112,INCHEON REPUBLIC OF KOREA,37.46667,126.61667,69.0,nan,nan,nan,nan,231.0,194.1,200.4,208.0,234.1,233.7,nan,nan,nan,240.7,211.3
WMO47407,ASAHIKAWA JAPAN,43.75000,142.36667,140.0,nan,161.3,120.7,153.9,131.1,142.9,120.1,131.4,118.3,138.3,nan,nan,144.0,143.7,179.0
WMO47582,AKITA JAPAN,39.71667,140.08333,21.0,nan,169.6,158.6,178.3,163.1,151.1,137.4,174.4,140.3,196.4,162.1,151.1,136.7,158.3,166.6
WMO47618,MATSUMOTO JAPAN,36.25000,137.96667,nan,nan,165.1,148.1,nan,nan,nan,nan,nan,nan,nan,nan,nan,nan,nan,nan
WMO47678,HACHIJOJIMA JAPAN,33.11667,139.76667,156.0,nan,132.1,113.0,130.9,104.6,122.0,119.6,131.0,150.9,112.4,154.6,128.1,nan,109.7,113.6
WMO47800,IZUHARA JAPAN,34.18333,129.28333,4.0,nan,153.7,134.0,148.1,154.4,135.3,139.7,175.7,150.0,151.9,184.6,74.9,125.4,135.0,138.4
WMO47893,KOCHI JAPAN,33.56667,133.53333,4.0,nan,nan,171.0,155.4,190.1,169.0,163.9,194.9,180.3,159.6,207.9,115.3,133.3,167.6,175.1
WMO47991,MINAMITORISHIMA JAPAN,24.28333,153.98333,8.0,nan,250.0,240.7,261.4,251.0,247.1,228.1,275.1,233.4,237.4,246.9,244.4,nan,269.4,259.6
WMO48462,ARANYAPRATHET THAILAND,13.68333,102.50000,49.0,nan,nan,nan,nan,nan,nan,nan,nan,nan,nan,nan,nan,nan,nan,nan
WMO48657,KUANTAN MALAYSIA (PENINSULAR MALAYSIA),3.78333,103.21667,16.0,nan,nan,nan,nan,nan,nan,nan,nan,nan,nan,nan,nan,nan,nan,nan
WMO48830,LANG SON VIET NAM,21.83333,106.76667,263.0,nan,173.6,142.0,140.7,175.7,311.7,135.0,160.1,162.7,180.7,nan,nan,160.0,165.4,nan
WMO48914,CA MAU VIET NAM,9.18333,105.15000,2.0,nan,148.1,117.3,126.9,130.0,106.3,140.4,133.0,141.6,150.0,150.9,86.0,119.6,154.6,123.4
WMO48991,PHNOM-PENH (KHMOUGH) CAMBODIA,11.60000,104.86667,10.0,nan,nan,nan,nan,nan,188.6,157.7,180.0,159.3,193.1,218.1,nan,nan,nan,nan
WMO51709,KASHI CHINA,39.48333,75.75000,1386.0,nan,277.1,267.1,287.0,275.7,229.3,247.3,272.9,288.0,263.0,274.3,284.1,250.6,239.7,nan
WMO52681,MINQIN CHINA,38.63333,103.08333,1369.0,nan,265.4,204.4,238.9,256.7,230.0,232.4,279.1,259.6,nan,258.4,272.1,255.6,270.0,223.9
WMO53845,YAN AN CHINA,36.58333,109.45000,1181.0,nan,177.0,158.6,194.9,157.3,171.4,132.9,178.3,212.7,167.1,208.1,126.1,110.6,193.9,182.0
WMO54857,QINGDAO CHINA,36.06667,120.33333,77.0,nan,182.9,149.3,193.4,201.9,194.4,172.9,217.4,227.6,177.7,201.6,158.9,178.0,221.3,224.0
WMO56187,WENJIANG CHINA,30.75000,103.86667,555.0,nan,61.1,48.1,47.6,55.4,50.9,39.0,50.1,60.9,60.4,nan,59.0,45.4,66.7,40.3
WMO57083,ZHENGZHOU CHINA,34.71667,113.65000,111.0,nan,122.9,117.1,133.9,140.9,110.0,104.4,172.6,151.1,126.7,152.3,132.0,nan,180.1,145.3
WMO57993,GANZHOU CHINA,25.86667,115.00000,138.0,nan,158.3,156.3,174.4,199.1,126.3,134.3,209.3,182.3,238.3,158.3,99.1,193.4,182.7,nan
WMO59211,BAISE CHINA,23.90000,106.60000,177.0,nan,138.4,127.6,140.4,144.7,155.0,143.1,139.3,142.3,177.3,nan,nan,nan,124.3,136.1
WMO60010,IZANA SPAIN (CANARY ISLANDS),28.30000,-16.48333,2368.0,nan,287.9,327.1,265.4,nan,276.6,266.1,279.4,313.0,297.0,260.0,312.3,290.6,290.4,295.9
WMO60120,KENITRA MOROCCO,34.30000,-6.58333,nan,nan,259.0,258.6,233.4,251.4,247.9,261.9,248.0,243.0,261.6,248.0,243.6,nan,232.9,262.6
WMO60320,CEUTA SPAIN (CEUTA AND MELILLA),35.90000,-5.33333,88.0,nan,nan,nan,nan,nan,nan,nan,nan,230.0,221.0,nan,nan,nan,187.7,226.1
WMO60387,DELLYS ALGERIA,36.91667,3.95000,8.0,nan,262.0,208.4,199.0,247.3,236.6,254.3,234.0,233.6,255.0,nan,248.0,278.6,213.7,nan
WMO60423,SOUK AHRAS ALGERIA,36.28333,7.96667,680.0,nan,269.7,207.4,206.7,219.7,237.4,238.0,230.6,245.9,232.6,nan,nan,260.1,226.1,250.0
WMO60467,M'SILA ALGERIA,35.66667,4.50000,442.0,nan,289.1,240.3,210.3,263.3,255.6,275.0,253.9,253.9,247.3,nan,nan,288.4,226.7,nan
WMO60514,KSAR CHELLALA ALGERIA,35.16667,2.31667,801.0,nan,280.3,223.0,189.3,268.4,250.3,260.7,245.1,255.4,242.1,nan,nan,296.0,228.9,261.6
WMO60536,SAIDA ALGERIA,34.86667,0.15000,752.0,nan,265.9,225.4,203.7,277.3,254.4,266.4,235.4,260.0,249.4,251.4,263.9,298.9,225.1,nan
WMO60566,GHARDAIA ALGERIA,32.40000,3.80000,469.0,nan,287.6,256.7,229.0,298.1,267.0,280.4,267.4,288.7,267.6,261.1,273.9,306.1,264.9,263.0
WMO60630,IN-SALAH ALGERIA,27.23333,2.50000,269.0,nan,275.4,278.3,230.4,269.7,275.3,270.3,272.0,308.9,281.7,252.6,294.0,nan,260.3,292.9
WMO60735,KAIROUAN TUNISIA,35.66667,10.10000,68.0,nan,267.9,234.1,226.6,250.1,247.0,253.7,245.1,241.3,255.1,nan,nan,nan,213.1,228.3
WMO61053,DOSSO NIGER,13.03333,3.30000,213.0,nan,nan,nan,nan,nan,226.0,249.0,nan,263.4,nan,280.0,262.1,270.7,242.0,nan
WMO61223,TOMBOUCTOU MALI,16.71667,-3.00000,264.0,nan,nan,299.4,255.7,264.4,254.0,282.7,nan,nan,nan,nan,nan,nan,nan,nan
WMO61272,SEGOU MALI,13.40000,-6.15000,289.0,nan,nan,250.0,nan,nan,nan,255.6,nan,257.6,262.6,241.6,243.7,220.7,211.4,222.7
WMO61415,NOUADHIBOU MAURITANIA,20.93333,-17.03333,3.0,nan,264.0,280.3,286.0,230.0,240.7,248.7,254.0,264.4,284.0,231.1,244.4,nan,nan,nan
WMO61499,AIOUN EL ATROUSS MAURITANIA,16.70000,-9.60000,223.0,nan,nan,nan,nan,nan,nan,nan,nan,nan,nan,nan,nan,nan,nan,nan
WMO61695,ZIGUINCHOR SENEGAL,12.55000,-16.26667,nan,nan,185.0,201.6,188.7,174.6,135.4,196.0,174.1,191.4,203.0,nan,nan,nan,99.0,228.0
WMO61818,KINDIA GUINEA,10.05000,-12.86667,nan,nan,nan,nan,nan,nan,nan,nan,nan,nan,nan,nan,nan,nan,nan,nan
WMO61878,NJALA SIERRA LEONE,8.10000,-12.10000,56.0,nan,nan,nan,nan,nan,nan,nan,nan,nan,nan,nan,nan,nan,nan,nan
WMO61974,AGALEGA MAURITIUS,-10.38333,56.60000,4.0,nan,205.4,233.9,244.6,235.6,263.3,259.6,214.0,276.6,252.3,196.3,244.1,236.9,230.1,234.9
WMO62002,NALUT LIBYA,31.86667,10.98333,621.0,nan,280.0,288.6,257.3,282.0,272.3,nan,283.4,274.3,306.4,259.9,270.9,280.1,296.0,nan
WMO62055,AGEDABIA LIBYA,30.71667,20.16667,7.0,nan,291.0,302.0,284.1,292.4,267.3,nan,nan,nan,nan,nan,nan,nan,nan,nan
WMO62176,GIGHBUB LIBYA,29.75000,24.53333,-1.0,nan,nan,326.3,313.3,316.4,306.0,nan,333.0,292.1,nan,nan,nan,nan,nan,nan
WMO62387,MINYA EGYPT,28.08333,30.73333,40.0,nan,nan,nan,nan,305.3,316.3,319.9,327.0,316.9,nan,294.9,nan,nan,nan,nan
WMO62464,HURGUADA POLLUTION EGYPT,27.28333,33.73333,6.0,nan,nan,nan,nan,nan,nan,nan,nan,nan,nan,nan,295.0,nan,nan,nan
WMO62730,KASSALA SUDAN,15.46667,36.40000,500.0,nan,290.7,290.4,284.1,301.0,278.7,258.0,314.4,308.0,308.4,nan,nan,nan,270.7,nan
WMO62781,EN NAHUD SUDAN,12.70000,28.43333,564.0,nan,231.0,279.1,257.4,276.7,237.7,198.0,261.1,251.7,233.6,234.0,223.7,246.6,nan,nan
WMO63021,ASMARA ERITREA,15.28333,38.91667,2325.0,nan,nan,nan,nan,nan,nan,nan,nan,nan,nan,nan,nan,nan,nan,nan
WMO63630,GULU UGANDA,2.75000,32.33333,1105.0,nan,nan,nan,nan,nan,nan,nan,nan,nan,nan,nan,nan,nan,nan,nan
WMO63820,MOMBASA INTERNATIONAL AIRPORT KENYA,-4.00000,39.60000,nan,nan,nan,260.0,226.1,255.6,nan,233.0,nan,nan,nan,nan,nan,280.0,nan,nan
WMO64247,MBUJI-MAYI DEMOCRATIC REPUBLIC OF THE CONGO,-6.16667,23.61667,677.0,nan,nan,nan,nan,nan,nan,nan,nan,nan,nan,nan,nan,nan,nan,nan
WMO64453,DJAMBALA CONGO,-2.53333,14.76667,790.0,nan,nan,nan,nan,nan,nan,140.3,192.7,152.6,132.0,nan,nan,nan,159.0,138.0
WMO64507,TCHIBANGA GABON,-2.85000,11.01667,79.0,nan,nan,nan,nan,nan,nan,nan,nan,nan,nan,nan,nan,nan,nan,nan
WMO64605,BOSSEMBELE CENTRAL AFRICAN REPUBLIC,5.26667,17.63333,674.0,nan,nan,141.0,nan,nan,nan,nan,nan,nan,nan,nan,nan,nan,nan,nan
WMO64700,NDJAMENA CHAD,12.13333,15.03333,295.0,nan,245.4,219.0,297.0,nan,246.1,228.9,263.9,270.9,253.0,nan,273.0,273.3,256.3,nan
WMO64754,AM-TIMAN CHAD,11.03333,20.28333,436.0,nan,nan,nan,nan,nan,nan,nan,nan,nan,nan,nan,nan,nan,nan,nan
WMO64900,YOKO CAMEROON,5.55000,12.36667,1031.0,nan,nan,nan,nan,nan,nan,nan,nan,nan,nan,nan,nan,nan,nan,nan
WMO65123,MINNA NIGERIA,9.61667,6.53333,256.0,nan,nan,nan,nan,199.1,180.1,nan,184.6,236.0,nan,205.7,210.7,177.0,nan,161.0
WMO65338,BOHICON BENIN,7.16667,2.06667,167.0,nan,165.7,184.1,155.4,164.1,174.7,185.0,168.1,178.3,168.6,169.0,171.4,161.6,177.9,125.4
WMO65387,LOME TOGO,6.16667,1.25000,25.0,nan,nan,nan,135.0,nan,189.4,231.0,nan,nan,nan,nan,nan,nan,200.4,nan
WMO65502,OUAHIGOUYA BURKINA FASO,13.58333,-2.43333,nan,nan,257.1,273.0,265.7,268.6,250.6,270.0,264.1,272.6,272.3,nan,nan,nan,262.6,271.7
WMO65545,BONDOUKOU COTE D'IVOIRE,8.05000,-2.78333,370.0,nan,110.0,nan,nan,nan,nan,nan,nan,nan,159.4,169.7,165.1,185.1,nan,nan
WMO65594,SAN PEDRO COTE D'IVOIRE,4.75000,-6.65000,30.0,nan,nan,nan,nan,nan,186.0,nan,nan,nan,167.6,nan,nan,160.0,nan,nan
WMO67009,ANTSIRANANA MADAGASCAR,-12.35000,49.30000,105.0,nan,305.6,301.7,302.4,nan,301.4,291.0,nan,295.1,293.0,281.9,288.9,nan,264.7,nan
WMO67161,TOLIARA MADAGASCAR,-23.38333,43.73333,8.0,nan,nan,nan,nan,nan,nan,nan,nan,nan,nan,nan,nan,nan,nan,nan
WMO67283,QUELIMANE MOZAMBIQUE,-17.88333,36.88333,16.0,nan,248.0,nan,269.9,184.4,296.0,268.0,288.4,260.9,nan,nan,nan,nan,nan,nan
WMO67346,CHANGALANE MOZAMBIQUE,-26.28333,32.18333,104.0,nan,nan,nan,nan,nan,nan,nan,nan,214.0,nan,nan,nan,193.6,nan,249.6
WMO67693,CHILEKA MALAWI,-15.68333,34.96667,767.0,nan,nan,nan,nan,nan,nan,nan,nan,nan,nan,292.0,nan,nan,nan,nan
WMO68006,ONDANGWA NAMIBIA,-17.93333,15.98333,nan,nan,nan,nan,nan,nan,nan,nan,nan,nan,nan,nan,nan,nan,nan,nan
WMO68174,POLOKWANE SOUTH AFRICA,-23.86667,29.45000,1226.0,nan,287.4,236.1,301.4,267.6,299.7,290.3,244.9,277.4,297.9,289.1,275.0,264.4,305.4,nan
WMO68442,BLOEMFONTEIN AIRPORT SOUTH AFRICA,-29.10000,26.30000,1353.0,nan,285.0,266.0,318.1,273.4,258.3,298.4,301.9,296.4,291.9,nan,nan,293.7,290.1,297.0
WMO68828,GEORGE AIRPORT SOUTH AFRICA,-34.01667,22.38333,191.0,nan,189.3,221.0,215.7,239.1,190.4,232.0,204.9,228.6,218.0,nan,nan,217.6,226.0,nan
WMO70231,MCGRATH AK UNITED STATES OF AMERICA (ALASKA),62.95000,-155.58333,103.0,nan,nan,nan,nan,nan,nan,nan,nan,nan,nan,nan,nan,nan,nan,nan
WMO71066,HIGH LEVEL ALTA CANADA,58.61667,-117.15000,nan,nan,nan,nan,nan,nan,nan,nan,nan,nan,nan,nan,nan,nan,nan,nan
WMO71299,KAPUSKASING CDA ON ONT CANADA,49.40000,-82.43333,nan,nan,nan,nan,nan,nan,nan,nan,nan,nan,nan,nan,nan,nan,nan,nan
WMO71727,BAGOTVILLE A QUE CANADA,48.33333,-71.00000,nan,nan,nan,nan,nan,nan,nan,nan,nan,nan,nan,nan,nan,nan,nan,nan
WMO71831,KAPUSKASING CANADA,49.40000,-82.50000,nan,nan,nan,nan,nan,nan,nan,nan,nan,nan,nan,nan,nan,nan,nan,nan
WMO71874,LETHBRIDGE AIRPORT CANADA,49.60000,-112.80000,nan,nan,nan,nan,nan,nan,nan,nan,nan,nan,nan,nan,nan,nan,nan,nan
WMO71915,CORAL HARBOUR A NU CANADA,64.18333,-83.35000,nan,nan,nan,nan,nan,nan,nan,nan,nan,nan,nan,nan,nan,nan,nan,nan
WMO71957,INUVIK/NWT (SY) CANADA,68.30000,-133.48333,nan,nan,nan,nan,nan,nan,nan,nan,nan,nan,nan,nan,nan,nan,nan,nan
WMO72226,MONTGOMERY/DANNELLY  AL. UNITED STATES OF AMERICA,32.30000,-86.40000,62.0,nan,nan,nan,nan,nan,nan,nan,nan,nan,nan,nan,nan,nan,nan,nan
WMO72259,DALLAS-FORT WORTH/FORT WORTH REG.AIRPORT TX. UNITED STATES OF AMERICA,32.90000,-97.03333,182.0,nan,nan,nan,nan,nan,nan,nan,nan,nan,nan,nan,nan,nan,nan,nan
WMO72308,NORFOLK/INT. VA. UNITED STATES OF AMERICA,36.90000,-76.20000,9.0,nan,nan,nan,nan,nan,nan,nan,nan,nan,nan,nan,nan,nan,nan,nan
WMO72344,FORT SMITH/MUN. AR. UNITED STATES OF AMERICA,35.33333,-94.36667,141.0,nan,nan,nan,nan,nan,nan,nan,nan,nan,nan,nan,nan,nan,nan,nan
WMO72406,BALTIMORE/BALTIMORE-WASHINGTON INT. MD. UNITED STATES OF AMERICA,39.18333,-76.66667,47.0,nan,nan,nan,nan,nan,nan,nan,nan,nan,nan,nan,nan,nan,nan,nan
WMO72439,SPRINGFIELD/CAPITAL  IL. UNITED STATES OF AMERICA,39.85000,-89.66667,187.0,nan,nan,nan,nan,nan,nan,nan,nan,nan,nan,nan,nan,nan,nan,nan
WMO72483,SACRAMENTO/EXECUTIVE CA. UNITED STATES OF AMERICA,38.51667,-121.50000,8.0,nan,nan,nan,nan,nan,nan,nan,nan,nan,nan,nan,nan,nan,nan,nan
WMO72517,ALLENTOWN/A.-BETHLEHEM-EASTON PA. UNITED STATES OF AMERICA,40.65000,-75.43333,117.0,nan,nan,nan,nan,nan,nan,nan,nan,nan,nan,nan,nan,nan,nan,nan
WMO72537,DETROIT/METROPOLITAN MI. UNITED STATES OF AMERICA,42.23333,-83.33333,202.0,nan,nan,nan,nan,nan,nan,nan,nan,nan,nan,nan,nan,nan,nan,nan
WMO72597,MEDFORD/MEDFORD-JACKSON COUNTY OR. UNITED STATES OF AMERICA,42.36667,-122.86667,398.0,nan,nan,nan,nan,nan,nan,nan,nan,nan,nan,nan,nan,nan,nan,nan
WMO72658,MINNEAPOLIS/ST.PAUL INT. MN. UNITED STATES OF AMERICA,44.88333,-93.21667,255.0,nan,nan,nan,nan,nan,nan,nan,nan,nan,nan,nan,nan,nan,nan,nan
WMO72753,FARGO/HECTOR FIELD  ND. UNITED STATES OF AMERICA,46.90000,-96.80000,274.0,nan,nan,nan,nan,nan,nan,nan,nan,nan,nan,nan,nan,nan,nan,nan
WMO76040,EJIDO NUEVO LEON MEXICO,32.40000,-115.18333,nan,nan,303.9,299.4,309.0,301.0,291.4,305.7,300.9,322.0,292.7,266.4,281.9,nan,nan,nan
WMO76256,EMPALME SON. MEXICO,27.95000,-110.80000,nan,nan,287.3,325.1,nan,255.9,270.9,302.6,266.4,293.4,273.7,262.6,285.1,291.6,270.1,271.6
WMO76402,CIUDAD CONSTITUCION BCS MEXICO,25.00000,-111.63333,nan,nan,263.7,289.1,265.6,246.1,278.6,293.4,247.7,257.6,260.3,nan,nan,nan,260.9,263.4
WMO76539,SAN LUIS POTOSI  S.L.P. MEXICO,22.20000,-101.01667,nan,nan,191.0,233.4,160.9,172.6,202.4,216.1,230.3,172.0,189.3,175.0,196.3,nan,171.1,214.1
WMO76612,GUADALAJARA JAL. MEXICO,20.70000,-103.38333,nan,nan,nan,317.0,nan,nan,nan,nan,264.0,nan,212.7,216.0,239.4,159.9,191.1,nan
WMO76658,COLIMA MEXICO,19.23333,-103.73333,nan,nan,203.3,222.0,196.0,178.4,223.9,183.6,151.0,175.3,168.7,178.1,196.7,nan,223.1,171.0
WMO76692,HACIENDA YLANG YLANG VERACRUZ VER. MEXICO,19.15000,-96.13333,nan,nan,216.9,209.6,179.9,213.7,203.4,220.3,213.0,171.6,185.0,201.9,215.0,nan,203.3,223.1
WMO76805,ACAPULCO GRO. MEXICO,16.75000,-99.75000,nan,nan,223.9,217.0,215.1,224.1,247.0,228.1,239.1,232.0,198.9,228.9,295.1,207.0,nan,nan
WMO78310,CABO SAN ANTONIO  PINAR DEL RIO CUBA,21.86667,-84.95000,8.0,nan,nan,nan,nan,nan,242.6,nan,nan,nan,nan,nan,nan,nan,nan,nan
WMO78482,BARAHONA DOMINICAN REPUBLIC,18.20000,-71.10000,nan,nan,nan,nan,nan,nan,nan,nan,nan,nan,nan,nan,nan,nan,nan,nan
WMO78760,PUNTARENAS COSTA RICA,9.96667,-84.83333,3.0,nan,nan,nan,nan,nan,nan,nan,nan,nan,nan,nan,nan,nan,nan,nan
WMO80001,SAN ANDRES (ISLA)/SESQUICENTENARIO COLOMBIA,12.58333,-81.71667,6.0,nan,209.0,169.3,163.4,186.6,155.0,168.6,nan,185.3,182.1,204.1,191.3,173.4,183.7,186.4
WMO80094,BUCARAMANGA/PALONEGRO COLOMBIA,7.10000,-73.20000,1189.0,nan,152.3,147.7,155.6,187.7,127.4,115.1,190.0,140.3,151.7,159.6,130.6,nan,152.0,133.6
WMO80219,GIRARDOT/SANTIAGO VILLA COLOMBIA,4.28333,-74.80000,293.0,nan,nan,nan,nan,nan,nan,nan,nan,nan,nan,nan,nan,nan,nan,nan
WMO80398,LETICIA/VASQUEZ COBO COLOMBIA,-4.16667,-69.95000,84.0,nan,204.7,175.1,193.6,195.7,190.1,177.0,nan,177.3,172.9,nan,nan,nan,154.3,177.7
WMO80420,CUMANA VENEZUELA,10.45000,-64.18333,4.0,nan,249.7,244.7,241.4,260.0,233.6,237.0,244.6,248.7,233.3,nan,nan,221.0,nan,nan
WMO80435,MATURIN VENEZUELA,9.75000,-63.18333,66.0,nan,239.4,219.6,222.6,248.4,209.3,210.7,232.1,233.6,208.9,nan,nan,213.0,nan,nan
WMO80457,PUERTO AYACUCHO VENEZUELA,5.60000,-67.50000,74.0,nan,153.7,177.7,194.7,197.0,176.0,164.7,192.4,189.6,168.0,187.9,200.0,134.0,nan,nan
WMO81401,SAINT-LAURENT FRENCH GUIANA,5.48333,-54.01667,5.0,nan,152.7,nan,nan,nan,nan,nan,nan,nan,nan,nan,212.6,166.4,208.6,192.0
WMO82184,PORTO DE MOZ BRAZIL,-1.73333,-52.23333,16.0,nan,262.0,245.0,252.9,275.0,nan,nan,nan,nan,nan,nan,nan,nan,nan,nan
WMO82397,FORTALEZA BRAZIL,-3.76667,-38.60000,26.0,nan,303.6,304.6,300.0,289.7,292.0,280.9,296.3,297.0,288.9,nan,nan,283.1,287.9,nan
WMO82586,QUIXERAMOBIM BRAZIL,-5.20000,-39.30000,212.0,nan,296.4,305.0,297.0,277.1,269.4,272.9,306.3,301.3,284.9,nan,nan,nan,274.0,265.7
WMO82900,RECIFE BRAZIL,-8.05000,-34.91667,7.0,nan,268.7,221.3,212.1,239.4,205.1,177.9,176.7,155.4,170.1,243.9,244.6,179.0,221.1,223.9
WMO83236,BARREIRAS BRAZIL,-12.15000,-45.00000,439.0,nan,204.7,291.6,277.3,278.0,262.3,228.0,266.0,256.6,279.0,266.6,261.7,nan,249.9,257.3
WMO83437,MONTES CLAROS BRAZIL,-16.71667,-43.86667,646.0,nan,167.4,288.9,273.4,205.3,243.4,210.6,264.6,227.1,262.1,287.0,256.0,213.0,230.9,258.4
WMO83618,TRES LAGOAS BRAZIL,-20.78333,-51.70000,313.0,nan,207.1,201.3,202.6,191.9,nan,nan,nan,nan,nan,nan,nan,nan,nan,nan
WMO83726,SAO CARLOS BRAZIL,-22.01667,-47.88333,856.0,nan,192.7,211.0,183.9,162.0,198.7,239.0,222.9,178.9,220.3,176.0,nan,nan,nan,nan
WMO83997,ST.VITORIA DO PALMAR BRAZIL,-33.51667,-53.35000,24.0,nan,198.0,167.1,191.6,181.6,210.9,193.1,163.0,187.3,180.9,164.1,168.1,nan,189.7,nan
WMO84140,PICHILINGUE ECUADOR,-1.10000,-79.45000,nan,nan,nan,nan,32.9,83.0,57.9,66.9,59.4,75.4,60.4,66.3,59.6,64.3,75.0,62.4
WMO85033,GUAYARAMERIN BOLIVIA,-10.81667,-65.35000,nan,nan,nan,124.6,203.0,219.0,184.0,nan,nan,nan,nan,nan,nan,nan,nan,nan
WMO85154,TRINIDAD BOLIVIA,-14.81667,-64.91667,nan,nan,179.0,158.7,206.0,220.4,195.0,224.1,246.4,151.0,214.0,nan,nan,198.7,224.7,nan
WMO85406,ARICA CHILE,-18.35000,-70.33333,nan,nan,190.1,118.1,175.6,150.3,155.0,195.4,150.1,166.7,139.7,144.7,200.9,167.0,172.9,183.1
WMO85577,QUINTA NORMAL CHILE,-33.43333,-70.66667,nan,nan,187.6,240.4,221.4,183.3,231.1,253.0,200.1,209.4,204.1,173.1,225.6,195.0,189.7,nan
WMO85864,COYHAIQUE CHILE,-45.58333,-73.10000,nan,nan,166.7,174.7,209.3,190.1,164.4,198.1,209.3,209.1,181.0,196.4,185.6,165.1,159.0,nan
WMO86086,PUERTO CASADO PARAGUAY,-22.28333,-57.93333,78.0,nan,nan,nan,nan,nan,175.3,239.9,228.6,189.3,265.4,nan,nan,nan,198.1,207.6
WMO86221,PARAGUARI PARAGUAY,-25.63333,-57.13333,116.0,nan,nan,nan,nan,nan,195.0,225.6,205.3,183.6,207.3,173.7,242.4,191.1,168.9,202.0
WMO86285,CAPITAN MEZA PARAGUAY,-26.83333,-55.33333,263.0,nan,nan,nan,nan,nan,200.3,232.0,187.6,201.7,195.0,165.4,219.3,nan,155.0,191.9
WMO86560,COLONIA URUGUAY,-34.45000,-57.76667,20.0,nan,228.0,nan,nan,nan,nan,nan,nan,nan,nan,nan,180.3,183.4,195.7,238.0
WMO87078,LAS LOMITAS ARGENTINA,-24.70000,-60.58333,130.0,nan,261.0,204.0,224.3,223.9,202.4,213.9,202.9,216.1,209.7,nan,nan,157.7,154.9,nan
WMO87166,CORRIENTES AERO. ARGENTINA,-27.45000,-58.76667,62.0,nan,nan,nan,nan,nan,nan,nan,nan,nan,nan,nan,nan,nan,nan,nan
WMO87289,PASO DE LOS LIBRES AERO ARGENTINA,-29.68333,-57.15000,70.0,nan,200.0,109.0,187.6,202.1,214.1,195.3,147.7,196.3,165.3,152.4,189.3,145.1,168.7,nan
WMO87374,PARANA AERO ARGENTINA,-31.78333,-60.48333,78.0,nan,256.3,196.7,257.4,267.3,247.1,232.0,212.7,241.1,226.7,196.0,227.7,195.1,210.4,211.9
WMO87484,PERGAMINO ARGENTINA,-33.93333,-60.55000,nan,nan,nan,nan,nan,nan,nan,nan,nan,nan,nan,nan,nan,nan,nan,nan
WMO87550,NUEVE DE JULIO ARGENTINA,-35.45000,-60.88333,76.0,nan,nan,nan,nan,nan,nan,nan,nan,nan,nan,nan,nan,nan,nan,nan
WMO87640,BOLIVAR AERO ARGENTINA,-36.20000,-61.06667,94.0,nan,220.0,189.0,229.7,247.0,283.0,245.3,192.0,198.6,227.3,nan,nan,227.6,213.6,230.1
WMO87692,MAR DEL PLATA AERO ARGENTINA,-37.93333,-57.58333,21.0,nan,105.9,132.7,133.4,217.0,158.9,147.4,136.9,123.9,90.9,116.1,103.7,143.4,103.0,nan
WMO87800,EL BOLSON AERO ARGENTINA,-41.96667,-71.51667,337.0,nan,nan,nan,nan,nan,nan,nan,nan,nan,nan,nan,nan,nan,nan,nan
WMO87903,LAGO ARGENTINO ARGENTINA,-50.33333,-72.30000,nan,nan,nan,nan,nan,nan,nan,nan,nan,nan,nan,nan,nan,nan,nan,nan
WMO88903,GRYTVIKEN  SOUTH GEORGIA ISLANDS(UNITED KINGDOM OF GREAT BRITAIN),-54.28333,-36.48333,3.0,nan,nan,125.6,155.6,156.6,172.9,150.0,130.0,156.0,129.9,nan,nan,nan,nan,nan
WMO89042,SIGNY ISLAND / SOUTH ORKNEY ISL. ANTARCTICA,-60.70000,-45.60000,nan,nan,nan,nan,nan,nan,nan,nan,nan,nan,nan,nan,nan,nan,nan,nan
WMO89063,VERNADSKY STATIONS OPERATED BY UKRAINE,-65.25000,-64.26667,11.0,nan,nan,nan,nan,nan,nan,42.0,nan,nan,nan,nan,23.6,61.0,93.0,97.0
WMO89606,VOSTOK STATIONS OPERATED BY THE RUSSIAN FEDERATION,-78.45000,106.85000,3489.0,nan,244.9,325.7,367.4,337.0,367.7,350.6,362.4,335.7,335.3,284.0,361.1,322.3,258.4,nan
WMO91275,JOHNSTON ISLAND (WSO AIRPORT) ISLANDS IN THE PACIFIC OCEAN NORTH OF THE EQUATOR,16.70000,-169.50000,nan,nan,nan,nan,nan,nan,nan,nan,nan,nan,nan,nan,nan,nan,nan,nan
WMO91557,BAUERFIELD (EFATE) VANUATU,-17.70000,168.30000,21.0,nan,nan,nan,nan,nan,nan,nan,nan,nan,nan,nan,nan,nan,nan,nan
WMO91683,NAUSORI FIJI,-18.05000,178.56667,7.0,nan,nan,nan,nan,nan,nan,nan,nan,nan,nan,nan,nan,nan,nan,nan
WMO91938,TAHITI-FAAA FRENCH POLYNESIA (SOCIETY ISLANDS),-17.55000,-149.60000,2.0,nan,228.6,220.3,233.0,222.1,216.4,224.0,249.6,230.0,215.6,nan,nan,nan,245.4,224.9
WMO91958,RAPA FRENCH POLYNESIA (AUSTRAL ISLANDS),-27.61667,-144.33333,2.0,nan,106.9,110.0,125.3,123.7,140.0,117.7,133.9,93.6,103.7,156.7,122.7,185.0,163.7,146.0
WMO92077,GURNEY W.O. PAPUA NEW GUINEA,-10.31667,150.33333,23.0,nan,nan,nan,nan,nan,nan,nan,nan,nan,nan,nan,nan,nan,nan,nan
WMO93417,PARAPARAUMU NEW ZEALAND,-40.90000,174.98333,nan,nan,142.6,194.0,169.4,163.9,nan,nan,nan,nan,nan,nan,nan,nan,nan,nan
WMO93986,WAITANGI / CHATHAM ISL. NEW ZEALAND,-44.00000,-176.60000,nan,nan,nan,nan,nan,nan,nan,nan,nan,nan,nan,nan,nan,nan,nan,nan
WMO94238,TENNANT CREEK AIRPORT AUSTRALIA,-19.63333,134.18333,377.0,nan,312.7,309.4,313.1,306.1,260.1,nan,295.0,304.7,355.0,nan,nan,nan,nan,nan
WMO94476,OODNADATTA AIRPORT AUSTRALIA,-27.55000,135.43333,117.0,nan,nan,nan,nan,nan,nan,nan,nan,nan,nan,nan,nan,nan,nan,nan
WMO94738,SCONE SCS AUSTRALIA,-32.05000,150.91667,216.0,nan,nan,nan,nan,nan,nan,nan,nan,nan,nan,nan,nan,nan,nan,nan
WMO94926,CANBERRA AIRPORT AUSTRALIA,-35.30000,149.20000,577.0,nan,311.4,288.7,281.1,229.7,nan,nan,nan,nan,nan,nan,nan,nan,nan,nan
WMO95971,GROVE/TAS AUSTRALIA,-42.98333,147.06667,nan,nan,nan,197.0,203.4,139.0,nan,nan,nan,nan,nan,nan,nan,nan,nan,nan
WMO96091,TANJUNG PINANG/KIJANG INDONESIA,0.91667,104.53333,18.0,nan,nan,nan,nan,nan,nan,116.0,159.0,157.3,188.1,95.6,120.0,123.4,181.0,178.3
WMO96249,TANJUNG PANDAN/BULUH TUMBANG INDONESIA,-2.75000,107.75000,44.0,nan,229.0,156.4,111.0,162.1,86.0,119.6,154.3,173.3,179.7,174.1,119.1,156.6,164.1,nan
WMO96481,TAWAU MALAYSIA (SABAH AND SARAWAK),4.26667,117.88333,20.0,nan,nan,nan,nan,nan,nan,216.3,190.7,192.4,nan,nan,nan,nan,nan,nan
WMO96615,KETAPANG/KALIMANTAN INDONESIA,-1.85000,109.96667,nan,nan,nan,202.0,164.1,209.3,156.7,145.0,166.0,211.0,201.3,nan,nan,187.3,198.0,nan
WMO96745,JAKARTA/OBSERVATORY INDONESIA,-6.18333,106.83333,8.0,nan,219.0,198.4,183.4,212.7,nan,236.0,181.3,182.1,202.6,210.0,157.0,180.9,188.6,nan
WMO96845,SURAKARTA/JAVA INDONESIA,-7.51667,110.75000,nan,nan,nan,nan,nan,nan,nan,nan,nan,nan,nan,nan,nan,nan,nan,nan
WMO97014,MENADO/ SAM RATULANGI INDONESIA,1.53333,124.91667,80.0,nan,132.6,173.3,141.9,201.3,188.0,178.6,192.0,174.1,234.1,272.3,155.9,nan,193.1,209.1
WMO97180,UJUNG PANDANG/HASANUDDIN INDONESIA,-5.06667,119.55000,14.0,nan,286.1,249.0,186.4,278.4,162.9,254.0,267.1,280.7,318.4,nan,nan,nan,263.4,274.0
WMO97320,MALI/ALOR ISLAND INDONESIA,-8.13333,124.60000,nan,nan,nan,nan,nan,nan,nan,296.6,303.9,297.1,242.7,nan,nan,234.3,310.1,nan
WMO97460,LABUHA/WEST IRIAN INDONESIA,0.63333,127.50000,nan,nan,274.0,170.1,132.1,244.0,209.3,162.9,219.6,156.0,203.9,nan,nan,nan,199.3,210.6
WMO97690,JAYAPURA/SENTANI INDONESIA,-2.56667,140.48333,99.0,nan,nan,nan,65.0,58.9,127.6,63.0,194.4,146.9,159.4,nan,nan,166.9,144.1,187.4
WMO97810,TUAL/MOLUKKEN INDONESIA,-5.68333,132.75000,nan,nan,237.0,185.7,169.7,198.1,146.9,146.1,165.4,207.3,248.1,nan,nan,nan,124.7,151.1
WMO98425,MANILA PHILIPPINES,14.58333,120.98333,nan,nan,nan,nan,nan,nan,nan,nan,nan,nan,nan,nan,nan,nan,nan,nan
WMO98836,ZAMBOANGA PHILIPPINES,6.91667,122.05000,6.0,nan,154.7,189.0,178.0,212.3,192.7,210.6,194.4,181.4,186.9,189.7,181.9,nan,nan,nan
