id,name,latitude,longitude,elev,2005,2006,2007,2008,2009,2010,2011,2012,2013,2014,2015,2016,2017,2018,2019
id,name,latitude,longitude,elev,2005,2006,2007,2008,2009,2010,2011,2012,2013,2014,2015,2016,2017,2018,2019
WMO02197,HAPARANDA SWEDEN,65.81667,24.10000,15.0,nan,nan,nan,nan,nan,24.1,18.7,12.0,20.0,nan,nan,nan,nan,nan,nan
WMO02805,UTSJOKI KEVO FINLAND,69.75000,27.03333,101.0,nan,8.1,3.9,3.9,2.1,2.6,0.9,1.3,0.0,3.9,1.3,2.6,3.4,3.0,nan
WMO02963,JOKIOINEN OBSERVATORY FINLAND,60.81667,23.50000,103.0,nan,32.9,21.7,19.4,22.4,20.9,16.1,10.9,11.0,9.1,32.6,24.1,16.0,19.7,nan
WMO03160,EDINBURGH (TURNHOUSE AIRPORT) UNITED KINGDOM OF GREAT BRITAIN AND NORTHERN IRELAND,56.00000,-3.40000,nan,nan,nan,nan,nan,nan,nan,nan,nan,nan,nan,nan,nan,nan,nan,nan
WMO03534,BIRMINGHAM_AIRPORT UNITED KINGDOM OF GREAT BRITAIN AND NORTHERN IRELAND,52.45000,-1.73333,nan,nan,nan,nan,nan,nan,nan,nan,nan,nan,nan,nan,nan,nan,nan,nan
WMO03827,PLYMOUTH-MOUNT BATTON UNITED KINGDOM OF GREAT BRITAIN AND NORTHERN IRELAND,50.40000,-4.10000,nan,nan,nan,nan,nan,nan,nan,nan,nan,nan,nan,nan,nan,nan,nan,nan
WMO03964,GALWAY IRELAND,53.30000,-9.00000,nan,nan,nan,nan,nan,nan,nan,nan,nan,nan,nan,nan,nan,nan,nan,nan
WMO04030,REYKJAVIK ICELAND,64.13333,-21.90000,61.0,nan,30.3,17.0,16.9,35.9,50.0,22.4,26.7,20.1,17.1,nan,nan,nan,24.0,34.1
WMO06590,LUXEMBOURG/LUXEMBOURG LUXEMBOURG,49.61667,6.21667,376.0,nan,53.6,60.9,49.4,31.7,18.0,49.4,31.1,51.3,24.0,nan,nan,nan,59.3,47.0
WMO07015,LILLE-LESQUIN FRANCE,50.56667,3.08333,47.0,nan,57.4,75.7,54.3,56.4,30.4,64.9,53.0,69.9,55.9,56.7,78.4,58.1,nan,nan
WMO07149,ORLY FRANCE,48.71667,2.38333,90.0,nan,nan,nan,nan,60.7,44.1,66.6,36.1,83.1,50.0,86.4,96.3,53.7,61.3,nan
WMO07299,BALE-MULHOUSE FRANCE,47.60000,7.50000,273.0,nan,112.3,71.9,52.0,54.4,38.6,71.0,63.6,91.9,49.1,131.4,95.1,56.3,nan,nan
WMO07577,MONTELIMAR FRANCE,44.56667,4.71667,74.0,nan,124.4,157.1,81.7,94.4,85.6,103.1,99.4,110.7,87.1,112.3,135.0,95.0,99.1,nan
WMO07747,PERPIGNAN FRANCE,42.73333,2.86667,44.0,nan,163.0,206.9,136.3,115.1,134.7,136.3,137.3,154.6,126.4,nan,nan,nan,137.1,142.9
WMO08023,SANTANDER SPAIN,43.48333,-3.78333,59.0,nan,122.6,108.9,62.9,85.4,83.0,101.9,111.1,92.7,72.7,132.1,133.3,103.4,121.0,87.0
WMO08075,BURGOS/VILLAFRIA SPAIN,42.35000,-3.61667,892.0,nan,106.6,121.6,74.4,70.6,94.4,102.0,73.0,81.9,67.4,nan,nan,nan,92.4,86.0
WMO08161,ZARAGOZA SPAIN,41.63333,-0.90000,nan,nan,nan,nan,nan,nan,nan,nan,nan,nan,nan,nan,nan,nan,nan,nan
WMO08219,COLMENAR VIEJO/FAMET SPAIN,40.68333,-3.75000,998.0,nan,143.1,186.1,146.0,126.4,135.4,141.1,123.4,178.7,154.1,164.4,147.0,187.9,138.9,nan
WMO08238,TORTOSA SPAIN,40.81667,0.48333,50.0,nan,164.3,200.9,165.0,137.6,168.4,171.1,156.3,174.3,161.6,181.3,162.4,192.9,172.3,nan
WMO08314,MENORCA/MAHON SPAIN,39.85000,4.20000,86.0,nan,135.4,122.3,104.7,116.7,119.6,130.4,123.7,128.0,111.6,138.7,158.1,147.9,154.3,nan
WMO08397,MORON DE LA FRONTERA SPAIN,37.15000,-5.60000,88.0,nan,203.1,205.3,177.4,167.1,150.4,205.4,160.6,214.9,184.3,217.1,194.7,nan,192.3,170.4
WMO08452,CADIZ OBS. SPAIN,36.50000,-6.25000,9.0,nan,180.6,nan,166.7,nan,nan,nan,144.3,nan,nan,nan,nan,nan,nan,nan
WMO08515,SANTA MARIA (ACORES) PORTUGAL,36.96667,-25.16667,100.0,nan,165.0,141.0,138.1,85.0,102.0,nan,92.0,nan,82.0,nan,nan,nan,139.6,103.7
WMO08558,EVORA/C. COORD PORTUGAL,38.53333,-7.90000,246.0,nan,162.0,207.4,174.9,113.4,56.0,nan,nan,49.0,nan,nan,nan,80.0,nan,nan
WMO10035,SCHLESWIG GERMANY,54.51667,9.53333,nan,nan,29.4,48.7,32.4,27.7,52.7,36.4,40.7,49.0,45.6,34.7,48.0,nan,38.3,43.0
WMO10131,CUXHAVEN GERMANY,53.86667,8.70000,12.0,nan,36.9,37.9,40.9,30.6,40.9,28.3,36.6,49.0,41.4,nan,nan,nan,41.6,40.9
WMO10168,GOLDBERG GERMANY,53.60000,12.10000,59.0,nan,nan,nan,nan,32.6,23.0,42.1,41.3,45.4,35.1,46.3,54.0,30.4,40.0,nan
WMO10235,SOLTAU GERMANY,52.95000,9.78333,77.0,nan,nan,nan,nan,32.1,19.7,35.6,32.0,46.0,38.4,46.9,47.1,17.3,37.7,39.3
WMO10282,FELDBERG/MECKLENBURG GERMANY,53.31667,13.41667,116.0,nan,nan,nan,nan,38.4,23.9,48.7,29.9,39.6,23.1,38.1,49.7,30.7,32.6,nan
WMO10325,BAD SALZUFLEN GERMANY,52.10000,8.75000,136.0,nan,nan,nan,nan,40.7,30.9,60.4,36.1,47.7,38.9,61.6,66.0,16.3,52.1,nan
WMO10381,BERLIN-DAHLEM GERMANY,52.46667,13.30000,nan,nan,66.9,41.3,43.4,43.6,19.3,74.4,40.3,47.0,48.1,72.3,66.4,nan,43.0,54.4
WMO10427,KAHLER ASTEN GERMANY,51.16667,8.48333,858.0,nan,49.3,30.7,44.7,21.4,12.3,56.3,28.7,45.0,32.1,47.0,62.6,10.3,38.1,23.0
WMO10453,BROCKEN GERMANY,51.80000,10.61667,1152.0,nan,57.3,39.7,60.7,27.6,30.7,83.3,40.9,48.6,57.4,nan,nan,23.4,46.0,nan
WMO10490,DOBERLUG-KIRCHHAIN GERMANY,51.63333,13.56667,97.0,nan,nan,nan,nan,51.9,28.0,82.0,47.3,47.3,44.1,70.9,64.4,35.3,47.0,nan
WMO10520,ANDERNACH GERMANY,50.41667,7.41667,76.0,nan,nan,nan,nan,nan,nan,42.0,35.0,41.7,28.0,nan,nan,nan,45.7,43.1
WMO10552,SCHMUECKE GERMANY,50.65000,10.76667,939.0,nan,nan,nan,nan,14.6,23.7,68.6,31.0,49.6,37.4,39.4,67.6,13.4,42.1,nan
WMO10579,MARIENBERG GERMANY,50.65000,13.13333,640.0,nan,nan,nan,nan,68.4,47.4,92.4,59.7,64.9,42.6,79.1,92.3,46.0,58.1,63.4
WMO10646,NEUHUETTEN-SPESSART GERMANY,50.00000,9.41667,340.0,nan,nan,nan,nan,22.0,20.0,46.1,29.1,36.3,16.6,nan,nan,nan,34.0,43.3
WMO10706,THOLEY GERMANY,49.46667,7.03333,387.0,nan,nan,nan,nan,31.1,18.7,38.6,35.6,53.7,19.9,nan,nan,nan,60.3,50.1
WMO10742,OEHRINGEN GERMANY,49.20000,9.51667,274.0,nan,78.7,59.1,54.1,53.1,30.6,66.3,46.0,56.9,38.1,91.4,71.6,30.6,48.9,nan
WMO10796,ZWIESEL GERMANY,49.01667,13.23333,616.0,nan,nan,nan,nan,53.6,37.7,72.7,57.7,63.7,63.6,nan,nan,40.0,69.7,nan
WMO10852,AUGSBURG GERMANY,48.41667,10.93333,476.0,nan,86.7,39.9,69.1,60.7,44.7,43.6,59.9,65.3,40.3,107.0,57.9,38.1,41.3,40.0
WMO10929,KONSTANZ GERMANY,47.66667,9.18333,444.0,nan,72.4,50.3,46.3,45.1,42.0,44.6,53.4,67.4,38.0,70.0,65.7,48.0,43.6,nan
WMO11028,ST. POELTEN (HESSERKASERNE) AUSTRIA,48.20000,15.60000,nan,nan,nan,nan,nan,nan,nan,nan,nan,nan,nan,nan,nan,nan,nan,nan
WMO11406,EGER CZECH REPUBLIC,50.08333,12.40000,nan,nan,nan,nan,nan,nan,nan,nan,nan,nan,nan,nan,nan,nan,nan,nan
WMO11787,LYSA HORA CZECH REPUBLIC,49.53333,18.43333,1326.0,nan,60.7,74.9,56.1,49.9,48.6,108.1,47.6,72.9,47.1,nan,nan,nan,51.6,48.9
WMO12330,POZNAN POLAND,52.41667,16.83333,88.0,nan,62.0,36.9,48.7,37.6,19.1,67.6,29.0,42.0,30.3,55.0,50.6,37.7,34.9,nan
WMO12843,BUDAPEST/PESTSZENTLORINC HUNGARY,47.43333,19.18333,139.0,nan,60.9,69.3,85.0,54.4,71.9,85.4,63.6,66.9,67.9,66.1,94.7,69.6,77.0,89.1
WMO13363,PLJEVLJA MONTENEGRO,43.35000,19.35000,788.0,nan,43.0,nan,nan,61.3,85.0,82.7,66.0,62.0,62.4,85.7,114.6,58.3,63.0,62.1
WMO13615,TIRANA ALBANIA,41.33333,19.78333,90.0,nan,nan,nan,nan,48.0,nan,nan,nan,nan,nan,nan,nan,nan,nan,nan
WMO15023,SUCEAVA ROMANIA,47.61667,26.23333,353.0,nan,108.4,58.4,70.7,54.7,85.1,98.6,69.9,109.9,66.9,nan,nan,nan,52.4,78.6
WMO15360,SULINA ROMANIA,45.13333,29.75000,13.0,nan,100.9,67.9,75.1,70.4,92.9,82.9,86.0,103.3,56.1,101.7,90.1,78.1,47.7,115.1
WMO16008,S. VALENTINO ALLA MUTA ITALY,46.75000,10.53333,1461.0,nan,nan,nan,nan,nan,nan,nan,nan,nan,nan,nan,nan,nan,nan,nan
WMO16099,TREVISO/S.ANGELO ITALY,45.65000,12.18333,nan,nan,109.9,128.4,nan,nan,nan,nan,nan,nan,nan,nan,nan,nan,nan,nan
WMO16191,FALCONARA ITALY,43.60000,13.40000,nan,nan,nan,nan,nan,nan,nan,nan,nan,nan,nan,nan,nan,nan,nan,nan
WMO16258,MONTE S. ANGELO ITALY,41.70000,15.93333,848.0,nan,nan,nan,nan,nan,nan,nan,nan,nan,nan,nan,nan,nan,nan,0.0
WMO16429,TRAPANI BIRGI ITALY,37.90000,12.48333,9.0,nan,162.4,138.4,158.0,148.1,135.3,164.4,152.9,138.7,151.4,182.4,166.9,161.6,163.3,nan
WMO16597,LUQA MALTA,35.85000,14.48333,nan,nan,176.7,165.9,175.0,190.0,178.6,161.7,188.4,167.0,170.1,nan,nan,nan,167.0,177.3
WMO16746,SOUDA (AIRPORT) GREECE,35.48333,24.11667,151.0,nan,138.3,105.4,117.3,155.4,139.9,111.1,100.9,119.1,119.7,140.0,107.6,162.9,105.7,nan
WMO17062,ISTANBUL TURKEY,40.90000,29.15000,nan,nan,89.7,101.0,97.0,93.0,112.9,nan,126.0,113.0,nan,nan,nan,nan,nan,nan
WMO17092,ERZINCAN TURKEY,39.70000,39.51667,1154.0,nan,167.3,126.7,120.1,84.4,140.7,132.7,114.7,160.6,127.1,143.7,125.6,131.0,70.0,nan
WMO17150,BALIKESIR TURKEY,39.61667,27.91667,102.0,nan,94.7,81.4,100.4,84.1,95.4,129.0,96.9,98.1,77.9,121.7,132.7,126.9,79.3,nan
WMO17202,ELAZIG TURKEY,38.60000,39.28333,881.0,nan,200.1,128.7,102.1,80.4,128.6,119.9,93.3,101.3,86.9,178.3,137.4,131.4,96.3,nan
WMO17255,KAHRAMANMARAS TURKEY,37.60000,36.93333,572.0,nan,159.4,112.6,124.6,101.1,138.1,130.9,88.1,123.0,144.0,160.1,180.0,134.6,84.6,nan
WMO17351,ADANA/BOLGE TURKEY,36.98333,35.35000,27.0,nan,207.0,154.0,163.4,104.1,170.4,166.3,144.1,158.0,132.9,nan,nan,167.4,123.9,nan
WMO20674,OSTROV DIKSON RUSSIAN FEDERATION (IN ASIA),73.50000,80.40000,46.0,nan,0.0,0.0,0.0,0.0,0.0,0.0,0.0,0.0,0.0,0.0,0.0,0.0,0.0,nan
WMO21965,OSTROV CHETYREKHSTOLBOVOY RUSSIAN FEDERATION,70.60000,162.50000,nan,nan,nan,nan,nan,nan,nan,nan,nan,nan,nan,nan,nan,nan,nan,nan
WMO22602,REBOLY RUSSIAN FEDERATION (IN EUROPE),63.83333,30.81667,182.0,nan,nan,nan,nan,nan,nan,nan,nan,nan,nan,nan,nan,nan,nan,nan
WMO23205,NAR'JAN-MAR RUSSIAN FEDERATION (IN ASIA),67.61667,53.01667,11.0,nan,5.1,4.3,3.0,0.4,3.0,5.1,4.3,3.0,4.3,nan,nan,0.0,3.9,nan
WMO23472,TURUHANSK RUSSIAN FEDERATION (IN ASIA),65.78333,87.98333,37.0,nan,18.4,20.1,15.0,20.6,0.4,8.6,24.1,19.4,9.9,13.9,24.7,10.7,21.6,nan
WMO23884,BOR RUSSIAN FEDERATION (IN ASIA),61.56667,90.01667,57.0,nan,28.3,17.0,22.0,34.4,19.7,15.4,29.3,16.3,3.6,27.1,18.0,nan,22.6,13.4
WMO24143,DZARDZAN RUSSIAN FEDERATION (IN ASIA),68.73333,124.00000,38.0,nan,nan,nan,nan,nan,nan,nan,nan,nan,nan,nan,nan,nan,nan,nan
WMO24713,NAKANNO RUSSIAN FEDERATION (IN ASIA),62.88333,108.43333,245.0,nan,40.0,30.7,62.0,31.9,29.9,28.6,29.7,23.6,30.0,nan,nan,nan,23.7,32.9
WMO25173,MYS SHMIDTA RUSSIAN FEDERATION (IN ASIA),68.90000,-179.63333,3.0,nan,nan,nan,nan,nan,nan,nan,nan,nan,nan,nan,nan,nan,nan,nan
WMO25538,VERHNEE PENZINO RUSSIAN FEDERATION (IN ASIA),64.21667,164.23333,325.0,nan,40.4,21.0,nan,45.0,14.1,7.0,11.6,9.4,0.4,21.0,40.0,nan,nan,nan
WMO26038,TALLINN-HARKU ESTONIA,59.38333,24.60000,34.0,nan,29.9,22.1,23.1,20.3,16.6,30.3,16.4,26.4,21.0,33.0,22.0,21.3,17.9,nan
WMO26393,VYSNIJ VOLOCEK RUSSIAN FEDERATION,57.58333,34.56667,nan,nan,nan,nan,nan,nan,nan,nan,nan,nan,nan,nan,nan,nan,nan,nan
WMO26629,KAUNAS LITHUANIA,54.88333,23.83333,76.0,nan,29.7,33.3,40.3,26.1,27.9,39.6,32.6,33.7,38.6,34.7,25.1,nan,16.4,28.6
WMO27199,KIROV RUSSIAN FEDERATION (IN EUROPE),58.56667,49.56667,158.0,nan,nan,nan,nan,nan,nan,nan,nan,nan,nan,nan,nan,nan,nan,nan
WMO28138,BISER RUSSIAN FEDERATION (IN ASIA),58.51667,58.85000,463.0,nan,28.9,37.7,28.9,30.9,42.6,31.4,39.1,20.1,28.4,27.6,38.1,24.6,35.1,nan
WMO28573,ISHIM RUSSIAN FEDERATION (IN ASIA),56.10000,69.43333,82.0,nan,52.1,77.0,65.7,64.0,88.6,80.6,83.7,55.3,58.9,nan,nan,87.4,77.4,nan
WMO28766,BLAGOVESHCHENKA KAZAKHSTAN,54.36667,66.96667,151.0,nan,nan,nan,nan,nan,nan,104.9,74.1,72.3,69.0,nan,nan,90.7,65.4,nan
WMO29594,TAJSHET RUSSIAN FEDERATION (IN ASIA),55.95000,98.00000,306.0,nan,59.9,63.6,66.3,64.7,50.7,78.4,75.0,43.6,63.3,nan,nan,45.7,43.7,47.0
WMO30230,KIRENSK RUSSIAN FEDERATION (IN ASIA),57.76667,108.06667,258.0,nan,54.6,45.3,45.0,63.0,48.9,69.0,nan,71.0,56.3,nan,nan,nan,49.1,60.4
WMO30635,UST'-BARGUZIN RUSSIAN FEDERATION (IN ASIA),53.41667,109.01667,460.0,nan,nan,nan,nan,nan,nan,nan,nan,nan,nan,nan,nan,nan,nan,nan
WMO30949,KYRA RUSSIAN FEDERATION (IN ASIA),49.56667,111.96667,907.0,nan,149.1,156.7,170.6,139.4,130.6,174.9,111.4,156.0,161.3,173.1,157.6,159.0,170.6,nan
WMO31416,IM POLINY OSIPENKO RUSSIAN FEDERATION (IN ASIA),52.41667,136.50000,70.0,nan,145.7,161.6,114.6,88.0,105.0,139.1,110.7,98.1,114.1,136.3,162.3,nan,123.4,118.9
WMO32061,ALEKSANDROVSK-SAHALINSKIJ RUSSIAN FEDERATION (IN ASIA),50.90000,142.16667,31.0,nan,74.6,53.7,49.0,31.9,48.6,52.4,64.4,49.4,49.0,85.4,59.6,nan,57.0,53.9
WMO32389,KLJUCHI RUSSIAN FEDERATION (IN ASIA),56.31667,160.83333,28.0,nan,63.3,64.1,48.7,64.1,59.1,53.3,57.6,42.3,62.6,93.0,58.0,55.4,53.1,54.1
WMO33041,GOMEL BELARUS,52.40000,30.95000,126.0,nan,33.6,17.0,34.0,18.9,35.0,45.0,48.0,39.0,47.4,40.4,19.9,11.0,29.3,nan
WMO33777,VOZNESENS'K UKRAINE,47.56667,31.33333,34.0,nan,nan,nan,nan,nan,nan,nan,nan,nan,nan,nan,nan,nan,nan,nan
WMO33983,KERCH UKRAINE,45.40000,36.41667,49.0,nan,nan,nan,nan,nan,nan,nan,nan,nan,nan,nan,nan,nan,nan,nan
WMO34300,KHARKIV UKRAINE,49.96667,36.13333,155.0,nan,19.6,27.7,48.0,18.9,35.3,35.4,56.3,49.4,41.3,nan,nan,14.7,49.3,nan
WMO34927,KRASNODAR-KRUGLIK RUSSIAN FEDERATION (IN EUROPE),45.05000,39.03333,29.0,nan,83.9,67.9,114.0,74.3,89.3,64.1,64.3,139.1,82.0,64.6,62.4,nan,nan,nan
WMO35376,BERLIK KAZAKHSTAN,49.88333,69.51667,349.0,nan,66.7,130.0,130.0,nan,nan,nan,nan,nan,nan,nan,nan,nan,nan,nan
WMO36003,PAVLODAR KAZAKHSTAN,52.30000,76.93333,122.0,nan,77.0,82.0,97.4,85.1,84.9,92.6,82.4,74.0,76.6,nan,nan,nan,73.7,68.1
WMO36870,ALMATY KAZAKHSTAN,43.23333,76.93333,851.0,nan,116.0,94.7,102.9,105.1,146.7,64.0,108.7,124.7,124.0,103.3,86.0,98.4,98.1,50.0
WMO37472,MAHACHKALA RUSSIAN FEDERATION (IN EUROPE),43.00000,47.50000,-18.0,nan,91.9,58.1,100.7,51.1,106.3,107.1,62.9,111.0,79.6,111.1,104.1,nan,58.3,92.4
WMO37860,MASHTAGA AZERBAIJAN,40.53333,50.00000,28.0,nan,nan,98.0,65.0,57.7,127.4,nan,79.0,114.3,63.9,101.1,104.1,60.9,63.4,nan
WMO38341,ZHAMBYL KAZAKHSTAN,42.85000,71.38333,nan,nan,140.1,91.0,154.0,111.0,170.1,87.1,136.9,121.1,119.3,nan,nan,113.6,116.7,nan
WMO38511,CHAGYL TURKMENISTAN,40.78333,55.33333,115.0,nan,nan,110.9,177.9,91.1,203.3,140.3,147.1,134.1,146.1,125.0,134.4,129.4,107.3,143.4
WMO38734,DEHAVZ TAJIKISTAN,39.45000,70.20000,2561.0,nan,nan,nan,nan,nan,nan,nan,nan,nan,nan,nan,nan,nan,nan,nan
WMO38933,KURGAN-TYUBE TAJIKISTAN,37.81667,68.78333,427.0,nan,nan,nan,nan,nan,nan,nan,nan,138.0,105.0,nan,nan,nan,78.7,106.0
WMO40100,BEYROUTH (AEROPORT) LEBANON,33.81667,35.48333,19.0,nan,169.0,nan,nan,69.0,94.0,116.0,93.0,nan,nan,nan,nan,nan,nan,nan
WMO40255,IRBID JORDAN,32.60000,35.90000,nan,nan,nan,nan,nan,nan,nan,nan,nan,nan,nan,nan,nan,nan,nan,nan
WMO40373,AL-QAISUMAH SAUDI ARABIA,28.31667,46.13333,358.0,nan,nan,nan,nan,nan,nan,nan,nan,nan,nan,nan,nan,nan,nan,111.0
WMO40435,AL-DAWADAMI SAUDI ARABIA,26.98333,44.11667,923.0,nan,nan,nan,nan,nan,nan,nan,nan,nan,nan,nan,nan,nan,nan,nan
WMO40650,BAGHDAD IRAQ,33.26667,44.23333,nan,nan,nan,nan,nan,nan,nan,nan,nan,nan,nan,nan,nan,nan,nan,nan
WMO40723,BOJNOURD IRAN ISLAMIC REPUBLIC OF,37.46667,57.33333,nan,nan,nan,172.1,146.0,158.4,236.3,156.3,128.4,152.1,161.9,152.7,134.4,175.6,152.4,nan
WMO40766,KERMANSHAH IRAN ISLAMIC REPUBLIC OF,34.35000,47.15000,1319.0,nan,176.1,200.3,196.1,135.0,227.7,209.6,157.0,151.4,171.6,181.3,181.4,nan,119.9,168.9
WMO40821,YAZD IRAN ISLAMIC REPUBLIC OF,31.90000,54.40000,nan,nan,nan,231.1,nan,nan,264.0,230.4,213.6,234.4,247.1,245.0,228.1,nan,232.3,226.3
WMO40911,MAZAR-I-SHARIF AFGHANISTAN ISLAMIC STATE OF,36.70000,67.20000,378.0,nan,nan,nan,nan,nan,nan,nan,nan,nan,nan,nan,nan,nan,nan,nan
WMO41061,WADI AL-DAWASSER AIRPORT SAUDI ARABIA,20.50000,45.25000,622.0,nan,259.9,306.1,296.3,280.4,299.6,290.1,271.4,287.0,295.3,269.0,290.7,195.0,270.9,nan
WMO41196,SHARJAH INTERNATIONAL AIRPORT UNITED ARAB EMIRATES,25.33333,55.51667,33.0,nan,221.0,257.1,265.0,254.9,nan,264.0,nan,nan,259.7,nan,nan,nan,nan,nan
WMO41256,MUSCAT INT'L AIRPORT OMAN,23.58333,58.28333,8.0,nan,nan,nan,nan,nan,177.0,169.0,183.0,132.0,209.0,nan,303.0,262.0,291.1,277.4
WMO41287,JOBA OMAN,20.86667,58.23333,34.0,nan,nan,nan,nan,nan,nan,nan,nan,nan,nan,nan,nan,nan,nan,nan
WMO41515,DROSH PAKISTAN,35.56667,71.78333,1465.0,nan,nan,nan,nan,nan,nan,nan,nan,nan,nan,nan,nan,nan,nan,nan
WMO41685,BARKHAN PAKISTAN,29.88333,69.71667,1098.0,nan,nan,nan,nan,nan,nan,nan,nan,nan,nan,nan,nan,nan,nan,nan
WMO41764,HYDERABAD PAKISTAN,25.38333,68.41667,30.0,nan,nan,nan,nan,nan,nan,nan,nan,nan,nan,nan,nan,nan,nan,nan
WMO41923,DHAKA BANGLADESH,23.76667,90.38333,9.0,nan,nan,nan,nan,nan,nan,nan,nan,163.3,121.0,160.4,164.4,149.3,147.6,132.1
WMO42314,DIBRUGARH /MOHANBARI INDIA (STATIONS NORTH OF LATITUDE 20~N),27.48333,95.01667,111.0,nan,197.9,228.0,235.3,183.3,214.4,197.3,223.3,215.9,212.3,nan,nan,nan,193.3,191.6
WMO42909,VERAVAL INDIA (STATIONS NORTH OF LATITUDE 20~N),20.90000,70.36667,11.0,nan,nan,nan,nan,nan,nan,nan,nan,nan,nan,nan,nan,nan,nan,nan
WMO43295,BANGALORE INDIA (STATIONS SOUTH OF LATITUDE 20~N),12.96667,77.58333,923.0,nan,168.9,175.4,195.1,145.3,125.9,177.6,207.0,202.1,166.3,74.0,193.6,194.0,167.1,nan
WMO44213,BARUUNTURUUN MONGOLIA,49.65000,94.40000,1232.0,nan,nan,nan,nan,nan,nan,nan,nan,nan,nan,nan,nan,nan,nan,nan
WMO44277,ALTAI MONGOLIA,46.40000,96.25000,2181.0,nan,nan,nan,nan,nan,nan,nan,nan,nan,nan,73.0,113.4,nan,86.0,nan
WMO44373,DALANZADGAD MONGOLIA,43.58333,104.41667,1465.0,nan,193.4,219.9,209.1,176.9,200.3,208.4,185.4,218.1,205.7,nan,nan,nan,nan,nan
WMO47014,CHUNGGANG DEMOCRATIC PEOPLE'S REPUBLIC OF KOREA,41.78333,126.88333,331.0,nan,68.0,109.4,97.3,114.0,102.0,nan,66.0,nan,105.0,100.0,87.0,nan,128.4,89.0
WMO47112,INCHEON REPUBLIC OF KOREA,37.46667,126.61667,69.0,nan,nan,nan,nan,142.1,173.7,157.0,186.4,194.3,197.7,nan,nan,nan,203.4,184.4
WMO47407,ASAHIKAWA JAPAN,43.75000,142.36667,140.0,nan,59.3,63.9,62.9,63.9,62.0,74.0,56.7,68.6,75.0,nan,nan,47.9,52.6,nan
WMO47582,AKITA JAPAN,39.71667,140.08333,21.0,nan,64.7,57.0,76.0,65.0,66.1,58.0,41.7,62.9,56.1,72.7,66.0,52.7,79.6,76.6
WMO47618,MATSUMOTO JAPAN,36.25000,137.96667,nan,nan,144.0,nan,nan,nan,nan,nan,nan,nan,nan,nan,nan,nan,nan,nan
WMO47678,HACHIJOJIMA JAPAN,33.11667,139.76667,156.0,nan,94.9,108.3,132.0,113.0,105.7,96.6,99.4,107.4,80.4,76.6,129.7,nan,79.3,92.7
WMO47800,IZUHARA JAPAN,34.18333,129.28333,4.0,nan,144.1,150.7,144.7,136.1,149.1,138.6,141.6,168.3,149.3,101.7,144.9,170.7,151.3,147.1
WMO47893,KOCHI JAPAN,33.56667,133.53333,4.0,nan,nan,171.6,170.4,177.3,187.0,170.9,170.4,184.4,178.3,165.6,174.7,180.4,156.0,166.4
WMO47991,MINAMITORISHIMA JAPAN,24.28333,153.98333,8.0,nan,197.7,187.4,226.1,204.7,201.0,207.6,199.4,172.4,163.9,245.3,162.9,nan,212.9,176.9
WMO48462,ARANYAPRATHET THAILAND,13.68333,102.50000,49.0,nan,nan,nan,nan,nan,nan,nan,nan,nan,nan,nan,nan,nan,nan,nan
WMO48657,KUANTAN MALAYSIA (PENINSULAR MALAYSIA),3.78333,103.21667,16.0,nan,nan,nan,nan,nan,nan,nan,nan,nan,nan,nan,nan,nan,nan,nan
WMO48830,LANG SON VIET NAM,21.83333,106.76667,263.0,nan,141.0,116.0,148.0,nan,118.3,167.0,68.3,162.6,112.9,nan,nan,92.4,140.0,nan
WMO48914,CA MAU VIET NAM,9.18333,105.15000,2.0,nan,216.0,138.9,107.0,nan,108.6,143.0,174.6,135.4,159.6,186.9,128.6,128.9,137.0,162.1
WMO48991,PHNOM-PENH (KHMOUGH) CAMBODIA,11.60000,104.86667,10.0,nan,nan,nan,nan,nan,183.1,234.7,223.4,241.7,221.1,255.0,nan,nan,nan,nan
WMO51709,KASHI CHINA,39.48333,75.75000,1386.0,nan,171.1,178.6,180.6,180.1,220.7,159.0,170.0,169.3,164.7,176.4,161.0,182.3,117.0,nan
WMO52681,MINQIN CHINA,38.63333,103.08333,1369.0,nan,234.6,246.9,229.9,227.9,236.1,217.4,210.7,247.3,204.0,198.6,246.7,246.4,222.7,224.0
WMO53845,YAN AN CHINA,36.58333,109.45000,1181.0,nan,188.7,180.9,230.4,178.3,223.4,131.4,175.4,210.4,202.6,143.1,191.6,222.4,187.6,202.0
WMO54857,QINGDAO CHINA,36.06667,120.33333,77.0,nan,130.3,167.0,157.4,157.4,198.1,126.3,158.1,184.0,153.3,108.0,137.0,183.1,126.0,nan
WMO56187,WENJIANG CHINA,30.75000,103.86667,555.0,nan,58.6,39.0,43.1,47.0,78.4,33.3,45.1,67.9,59.0,nan,47.1,98.9,49.9,50.0
WMO57083,ZHENGZHOU CHINA,34.71667,113.65000,111.0,nan,129.0,113.6,153.4,141.7,179.7,78.9,114.1,152.4,161.7,81.4,125.0,nan,90.6,121.0
WMO57993,GANZHOU CHINA,25.86667,115.00000,138.0,nan,128.6,139.1,169.7,111.3,150.9,164.4,96.4,161.3,129.3,48.7,123.3,114.9,73.3,nan
WMO59211,BAISE CHINA,23.90000,106.60000,177.0,nan,114.6,109.6,108.4,110.3,118.3,107.7,70.7,102.4,86.9,nan,nan,nan,96.9,129.0
WMO60010,IZANA SPAIN (CANARY ISLANDS),28.30000,-16.48333,2368.0,nan,231.3,248.4,233.1,255.4,253.7,224.9,212.3,204.9,207.9,262.0,205.0,253.6,270.4,265.0
WMO60120,KENITRA MOROCCO,34.30000,-6.58333,nan,nan,197.9,195.0,180.3,207.0,165.1,195.1,188.1,208.0,150.0,228.0,194.9,nan,191.1,175.3
WMO60320,CEUTA SPAIN (CEUTA AND MELILLA),35.90000,-5.33333,88.0,nan,nan,nan,nan,149.1,nan,nan,nan,147.3,161.6,nan,nan,nan,152.6,141.9
WMO60387,DELLYS ALGERIA,36.91667,3.95000,8.0,nan,165.4,180.9,150.9,162.4,132.4,147.4,161.1,153.1,nan,nan,162.4,146.4,178.0,nan
WMO60423,SOUK AHRAS ALGERIA,36.28333,7.96667,680.0,nan,145.7,128.1,131.7,144.9,156.7,142.1,179.9,169.0,165.6,nan,nan,160.1,196.7,nan
WMO60467,M'SILA ALGERIA,35.66667,4.50000,442.0,nan,164.6,199.4,169.0,218.6,153.0,162.9,199.9,183.9,nan,nan,nan,184.6,211.9,nan
WMO60514,KSAR CHELLALA ALGERIA,35.16667,2.31667,801.0,nan,164.6,186.4,179.3,207.7,180.1,182.1,199.4,182.4,nan,nan,nan,193.0,219.0,nan
WMO60536,SAIDA ALGERIA,34.86667,0.15000,752.0,nan,163.3,192.6,159.6,205.9,173.0,191.7,181.1,181.4,168.7,236.6,178.4,192.4,220.0,nan
WMO60566,GHARDAIA ALGERIA,32.40000,3.80000,469.0,nan,232.4,265.9,238.9,262.7,244.7,261.6,258.3,219.7,236.1,266.9,232.7,243.7,263.6,nan
WMO60630,IN-SALAH ALGERIA,27.23333,2.50000,269.0,nan,261.4,274.7,258.7,273.7,273.0,277.0,277.1,257.4,253.1,280.1,256.7,nan,284.6,289.0
WMO60735,KAIROUAN TUNISIA,35.66667,10.10000,68.0,nan,196.3,196.6,196.7,213.6,202.6,191.0,228.4,188.3,196.4,nan,nan,nan,nan,141.7
WMO61053,DOSSO NIGER,13.03333,3.30000,213.0,nan,nan,nan,nan,nan,nan,nan,290.0,291.0,294.0,272.1,279.4,268.3,288.0,nan
WMO61223,TOMBOUCTOU MALI,16.71667,-3.00000,264.0,nan,nan,283.0,274.4,248.0,288.0,291.6,nan,nan,nan,nan,nan,nan,nan,nan
WMO61272,SEGOU MALI,13.40000,-6.15000,289.0,nan,nan,276.0,nan,nan,281.0,284.3,nan,267.1,268.3,218.0,249.9,175.7,232.4,254.0
WMO61415,NOUADHIBOU MAURITANIA,20.93333,-17.03333,3.0,nan,209.7,233.0,234.0,178.7,254.0,159.0,234.0,203.6,219.7,164.6,126.1,nan,nan,161.0
WMO61499,AIOUN EL ATROUSS MAURITANIA,16.70000,-9.60000,223.0,nan,nan,nan,nan,nan,nan,nan,nan,nan,nan,nan,nan,nan,nan,nan
WMO61695,ZIGUINCHOR SENEGAL,12.55000,-16.26667,nan,nan,245.0,247.3,257.1,207.1,250.7,248.4,262.0,233.3,203.3,nan,nan,nan,nan,280.9
WMO61818,KINDIA GUINEA,10.05000,-12.86667,nan,nan,nan,nan,nan,nan,nan,nan,nan,nan,nan,nan,nan,nan,nan,nan
WMO61878,NJALA SIERRA LEONE,8.10000,-12.10000,56.0,nan,nan,nan,nan,nan,nan,nan,nan,nan,nan,nan,nan,nan,nan,nan
WMO61974,AGALEGA MAURITIUS,-10.38333,56.60000,4.0,nan,169.9,249.1,244.0,228.6,267.9,206.0,228.3,260.1,284.3,260.0,247.0,253.4,227.6,232.7
WMO62002,NALUT LIBYA,31.86667,10.98333,621.0,nan,nan,213.0,232.6,258.9,249.6,nan,250.7,200.3,239.7,253.7,182.6,nan,nan,236.6
WMO62055,AGEDABIA LIBYA,30.71667,20.16667,7.0,nan,nan,209.3,189.6,231.3,228.9,nan,nan,nan,nan,nan,nan,nan,nan,nan
WMO62176,GIGHBUB LIBYA,29.75000,24.53333,-1.0,nan,nan,260.3,238.3,270.0,276.1,nan,265.0,nan,nan,nan,nan,nan,nan,nan
WMO62387,MINYA EGYPT,28.08333,30.73333,40.0,nan,nan,nan,nan,263.6,282.0,283.0,nan,225.4,274.3,nan,239.0,295.0,nan,nan
WMO62464,HURGUADA POLLUTION EGYPT,27.28333,33.73333,6.0,nan,nan,nan,nan,nan,nan,nan,nan,nan,nan,nan,nan,nan,nan,nan
WMO62730,KASSALA SUDAN,15.46667,36.40000,500.0,nan,318.9,296.1,287.7,291.3,285.7,nan,307.6,321.1,319.0,nan,nan,nan,nan,nan
WMO62781,EN NAHUD SUDAN,12.70000,28.43333,564.0,nan,316.1,295.9,318.9,289.6,284.0,nan,272.6,274.6,308.0,289.0,285.3,277.4,nan,nan
WMO63021,ASMARA ERITREA,15.28333,38.91667,2325.0,nan,nan,nan,nan,nan,nan,nan,nan,nan,nan,nan,nan,nan,nan,nan
WMO63630,GULU UGANDA,2.75000,32.33333,1105.0,nan,nan,nan,nan,nan,nan,nan,nan,nan,nan,nan,nan,nan,nan,nan
WMO63820,MOMBASA INTERNATIONAL AIRPORT KENYA,-4.00000,39.60000,nan,nan,nan,nan,nan,nan,nan,264.6,nan,249.1,nan,nan,nan,262.9,nan,nan
WMO64247,MBUJI-MAYI DEMOCRATIC REPUBLIC OF THE CONGO,-6.16667,23.61667,677.0,nan,nan,nan,nan,nan,130.0,nan,136.0,nan,nan,nan,nan,nan,nan,nan
WMO64453,DJAMBALA CONGO,-2.53333,14.76667,790.0,nan,nan,nan,nan,nan,nan,nan,140.3,135.4,107.0,nan,nan,104.0,127.4,nan
WMO64507,TCHIBANGA GABON,-2.85000,11.01667,79.0,nan,nan,nan,nan,nan,nan,nan,nan,nan,nan,nan,nan,nan,nan,nan
WMO64605,BOSSEMBELE CENTRAL AFRICAN REPUBLIC,5.26667,17.63333,674.0,nan,nan,nan,nan,nan,nan,nan,nan,nan,nan,nan,nan,nan,nan,nan
WMO64700,NDJAMENA CHAD,12.13333,15.03333,295.0,nan,312.0,314.0,308.0,298.4,310.1,317.0,313.9,312.4,313.7,274.0,292.9,306.0,293.9,nan
WMO64754,AM-TIMAN CHAD,11.03333,20.28333,436.0,nan,nan,nan,nan,nan,nan,nan,nan,nan,nan,nan,nan,nan,nan,nan
WMO64900,YOKO CAMEROON,5.55000,12.36667,1031.0,nan,nan,nan,nan,nan,nan,nan,nan,nan,nan,nan,nan,nan,nan,nan
WMO65123,MINNA NIGERIA,9.61667,6.53333,256.0,nan,nan,nan,264.0,282.7,293.4,272.0,281.9,283.1,nan,272.4,263.3,113.0,273.0,nan
WMO65338,BOHICON BENIN,7.16667,2.06667,167.0,nan,241.3,222.6,191.1,254.0,243.1,232.3,227.0,238.9,237.3,220.4,231.3,206.6,249.9,256.3
WMO65387,LOME TOGO,6.16667,1.25000,25.0,nan,nan,nan,nan,nan,260.0,nan,nan,nan,nan,nan,nan,nan,225.7,nan
WMO65502,OUAHIGOUYA BURKINA FASO,13.58333,-2.43333,nan,nan,294.0,287.0,288.0,291.7,293.9,296.6,277.1,288.3,269.9,nan,nan,nan,275.0,312.4
WMO65545,BONDOUKOU COTE D'IVOIRE,8.05000,-2.78333,370.0,nan,nan,nan,nan,nan,nan,nan,230.0,nan,215.0,250.0,246.7,227.0,nan,nan
WMO65594,SAN PEDRO COTE D'IVOIRE,4.75000,-6.65000,30.0,nan,nan,nan,nan,nan,nan,nan,nan,217.1,226.0,nan,nan,199.0,nan,nan
WMO67009,ANTSIRANANA MADAGASCAR,-12.35000,49.30000,105.0,nan,179.3,208.0,nan,nan,233.1,227.7,nan,222.6,233.7,213.0,276.0,nan,240.4,nan
WMO67161,TOLIARA MADAGASCAR,-23.38333,43.73333,8.0,nan,nan,nan,nan,nan,nan,nan,nan,nan,nan,nan,nan,nan,nan,nan
WMO67283,QUELIMANE MOZAMBIQUE,-17.88333,36.88333,16.0,nan,258.0,228.1,258.7,295.0,nan,288.1,270.1,285.7,nan,nan,nan,nan,nan,nan
WMO67346,CHANGALANE MOZAMBIQUE,-26.28333,32.18333,104.0,nan,nan,nan,nan,nan,nan,nan,nan,259.0,258.0,nan,160.6,182.9,nan,nan
WMO67693,CHILEKA MALAWI,-15.68333,34.96667,767.0,nan,nan,nan,nan,nan,nan,nan,nan,nan,nan,260.0,nan,nan,nan,nan
WMO68006,ONDANGWA NAMIBIA,-17.93333,15.98333,nan,nan,nan,nan,nan,nan,nan,nan,nan,nan,nan,nan,nan,nan,nan,nan
WMO68174,POLOKWANE SOUTH AFRICA,-23.86667,29.45000,1226.0,nan,242.7,222.0,211.0,255.3,241.0,227.1,251.6,227.7,205.7,290.6,220.7,259.1,262.1,nan
WMO68442,BLOEMFONTEIN AIRPORT SOUTH AFRICA,-29.10000,26.30000,1353.0,nan,317.6,294.3,306.1,314.1,292.6,298.0,280.4,290.1,271.6,nan,nan,303.6,327.0,nan
WMO68828,GEORGE AIRPORT SOUTH AFRICA,-34.01667,22.38333,191.0,nan,225.6,204.3,228.1,244.3,206.4,249.0,240.0,257.7,215.6,nan,nan,255.1,259.4,nan
WMO70231,MCGRATH AK UNITED STATES OF AMERICA (ALASKA),62.95000,-155.58333,103.0,nan,nan,nan,nan,nan,nan,nan,nan,nan,nan,nan,nan,nan,nan,nan
WMO71066,HIGH LEVEL ALTA CANADA,58.61667,-117.15000,nan,nan,nan,nan,nan,nan,nan,nan,nan,nan,nan,nan,nan,nan,nan,nan
WMO71299,KAPUSKASING CDA ON ONT CANADA,49.40000,-82.43333,nan,nan,nan,nan,nan,nan,nan,nan,nan,nan,nan,nan,nan,nan,nan,nan
WMO71727,BAGOTVILLE A QUE CANADA,48.33333,-71.00000,nan,nan,nan,nan,nan,nan,nan,nan,nan,nan,nan,nan,nan,nan,nan,nan
WMO71831,KAPUSKASING CANADA,49.40000,-82.50000,nan,nan,nan,nan,nan,nan,nan,nan,nan,nan,nan,nan,nan,nan,nan,nan
WMO71874,LETHBRIDGE AIRPORT CANADA,49.60000,-112.80000,nan,nan,nan,nan,nan,nan,nan,nan,nan,nan,nan,nan,nan,nan,nan,nan
WMO71915,CORAL HARBOUR A NU CANADA,64.18333,-83.35000,nan,nan,nan,nan,nan,nan,nan,nan,nan,nan,nan,nan,nan,nan,nan,nan
WMO71957,INUVIK/NWT (SY) CANADA,68.30000,-133.48333,nan,nan,nan,nan,nan,nan,nan,nan,nan,nan,nan,nan,nan,nan,nan,nan
WMO72226,MONTGOMERY/DANNELLY  AL. UNITED STATES OF AMERICA,32.30000,-86.40000,62.0,nan,nan,nan,nan,nan,nan,nan,nan,nan,nan,nan,nan,nan,nan,nan
WMO72259,DALLAS-FORT WORTH/FORT WORTH REG.AIRPORT TX. UNITED STATES OF AMERICA,32.90000,-97.03333,182.0,nan,nan,nan,nan,nan,nan,nan,nan,nan,nan,nan,nan,nan,nan,nan
WMO72308,NORFOLK/INT. VA. UNITED STATES OF AMERICA,36.90000,-76.20000,9.0,nan,nan,nan,nan,nan,nan,nan,nan,nan,nan,nan,nan,nan,nan,nan
WMO72344,FORT SMITH/MUN. AR. UNITED STATES OF AMERICA,35.33333,-94.36667,141.0,nan,nan,nan,nan,nan,nan,nan,nan,nan,nan,nan,nan,nan,nan,nan
WMO72406,BALTIMORE/BALTIMORE-WASHINGTON INT. MD. UNITED STATES OF AMERICA,39.18333,-76.66667,47.0,nan,nan,nan,nan,nan,nan,nan,nan,nan,nan,nan,nan,nan,nan,nan
WMO72439,SPRINGFIELD/CAPITAL  IL. UNITED STATES OF AMERICA,39.85000,-89.66667,187.0,nan,nan,nan,nan,nan,nan,nan,nan,nan,nan,nan,nan,nan,nan,nan
WMO72483,SACRAMENTO/EXECUTIVE CA. UNITED STATES OF AMERICA,38.51667,-121.50000,8.0,nan,nan,nan,nan,nan,nan,nan,nan,nan,nan,nan,nan,nan,nan,nan
WMO72517,ALLENTOWN/A.-BETHLEHEM-EASTON PA. UNITED STATES OF AMERICA,40.65000,-75.43333,117.0,nan,nan,nan,nan,nan,nan,nan,nan,nan,nan,nan,nan,nan,nan,nan
WMO72537,DETROIT/METROPOLITAN MI. UNITED STATES OF AMERICA,42.23333,-83.33333,202.0,nan,nan,nan,nan,nan,nan,nan,nan,nan,nan,nan,nan,nan,nan,nan
WMO72597,MEDFORD/MEDFORD-JACKSON COUNTY OR. UNITED STATES OF AMERICA,42.36667,-122.86667,398.0,nan,nan,nan,nan,nan,nan,nan,nan,nan,nan,nan,nan,nan,nan,nan
WMO72658,MINNEAPOLIS/ST.PAUL INT. MN. UNITED STATES OF AMERICA,44.88333,-93.21667,255.0,nan,nan,nan,nan,nan,nan,nan,nan,nan,nan,nan,nan,nan,nan,nan
WMO72753,FARGO/HECTOR FIELD  ND. UNITED STATES OF AMERICA,46.90000,-96.80000,274.0,nan,nan,nan,nan,nan,nan,nan,nan,nan,nan,nan,nan,nan,nan,nan
WMO76040,EJIDO NUEVO LEON MEXICO,32.40000,-115.18333,nan,nan,272.0,224.0,218.0,237.0,203.0,240.0,254.0,229.0,269.0,254.7,222.4,nan,246.0,202.4
WMO76256,EMPALME SON. MEXICO,27.95000,-110.80000,nan,nan,284.3,275.6,248.0,252.0,258.9,239.0,270.3,260.0,245.9,235.0,221.1,240.3,233.4,183.0
WMO76402,CIUDAD CONSTITUCION BCS MEXICO,25.00000,-111.63333,nan,nan,257.7,228.6,230.4,258.0,252.3,262.0,213.4,241.4,262.6,nan,nan,nan,239.7,219.1
WMO76539,SAN LUIS POTOSI  S.L.P. MEXICO,22.20000,-101.01667,nan,nan,197.7,227.6,227.1,nan,242.0,211.0,180.9,249.0,155.3,133.0,163.3,nan,176.1,178.7
WMO76612,GUADALAJARA JAL. MEXICO,20.70000,-103.38333,nan,nan,nan,nan,nan,nan,nan,nan,247.0,nan,nan,nan,226.0,228.0,202.7,nan
WMO76658,COLIMA MEXICO,19.23333,-103.73333,nan,nan,256.1,247.1,276.0,246.6,286.0,267.0,200.0,209.3,209.9,202.0,222.4,nan,231.3,221.0
WMO76692,HACIENDA YLANG YLANG VERACRUZ VER. MEXICO,19.15000,-96.13333,nan,nan,164.7,193.6,207.4,148.1,210.1,181.0,170.0,160.3,145.0,133.3,175.6,nan,175.3,172.3
WMO76805,ACAPULCO GRO. MEXICO,16.75000,-99.75000,nan,nan,195.0,288.0,287.1,286.3,287.0,290.0,265.6,273.9,239.9,283.3,291.4,284.6,258.4,nan
WMO78310,CABO SAN ANTONIO  PINAR DEL RIO CUBA,21.86667,-84.95000,8.0,nan,nan,nan,nan,nan,209.3,nan,nan,nan,nan,nan,nan,nan,nan,nan
WMO78482,BARAHONA DOMINICAN REPUBLIC,18.20000,-71.10000,nan,nan,nan,nan,nan,nan,nan,nan,nan,nan,nan,nan,nan,nan,nan,nan
WMO78760,PUNTARENAS COSTA RICA,9.96667,-84.83333,3.0,nan,nan,nan,nan,nan,nan,nan,nan,nan,nan,nan,nan,nan,nan,nan
WMO80001,SAN ANDRES (ISLA)/SESQUICENTENARIO COLOMBIA,12.58333,-81.71667,6.0,nan,210.9,189.6,207.0,180.0,174.6,193.7,192.7,219.3,197.1,215.7,165.6,162.7,221.6,nan
WMO80094,BUCARAMANGA/PALONEGRO COLOMBIA,7.10000,-73.20000,1189.0,nan,154.1,141.6,150.7,202.6,109.6,131.7,194.6,177.0,178.4,169.9,nan,nan,197.3,132.3
WMO80219,GIRARDOT/SANTIAGO VILLA COLOMBIA,4.28333,-74.80000,293.0,nan,nan,nan,nan,nan,nan,nan,nan,nan,nan,nan,nan,nan,nan,nan
WMO80398,LETICIA/VASQUEZ COBO COLOMBIA,-4.16667,-69.95000,84.0,nan,136.1,128.3,174.0,131.9,155.9,135.4,148.0,138.3,145.3,nan,nan,nan,127.1,123.7
WMO80420,CUMANA VENEZUELA,10.45000,-64.18333,4.0,nan,272.0,268.7,256.7,279.4,225.7,198.6,232.3,259.1,263.1,nan,nan,260.0,nan,nan
WMO80435,MATURIN VENEZUELA,9.75000,-63.18333,66.0,nan,239.0,237.7,258.1,237.9,253.3,204.7,217.1,191.9,182.9,nan,nan,226.0,nan,nan
WMO80457,PUERTO AYACUCHO VENEZUELA,5.60000,-67.50000,74.0,nan,211.6,217.0,213.6,249.1,190.0,204.4,226.9,240.6,232.7,239.0,195.6,136.0,nan,nan
WMO81401,SAINT-LAURENT FRENCH GUIANA,5.48333,-54.01667,5.0,nan,128.0,nan,nan,nan,nan,nan,nan,nan,nan,nan,152.9,118.3,159.3,108.0
WMO82184,PORTO DE MOZ BRAZIL,-1.73333,-52.23333,16.0,nan,181.0,nan,183.3,182.1,nan,nan,nan,nan,nan,nan,nan,nan,nan,nan
WMO82397,FORTALEZA BRAZIL,-3.76667,-38.60000,26.0,nan,286.6,278.4,293.6,270.3,259.3,295.4,299.1,283.7,281.4,nan,nan,281.3,249.1,nan
WMO82586,QUIXERAMOBIM BRAZIL,-5.20000,-39.30000,212.0,nan,268.0,257.9,290.0,257.7,228.1,280.4,276.4,256.0,261.3,nan,nan,nan,237.9,266.3
WMO82900,RECIFE BRAZIL,-8.05000,-34.91667,7.0,nan,267.9,255.0,242.9,247.7,237.0,230.6,226.4,146.1,227.0,240.4,234.1,252.1,239.3,277.0
WMO83236,BARREIRAS BRAZIL,-12.15000,-45.00000,439.0,nan,220.0,230.0,162.0,nan,193.6,180.4,204.4,173.1,213.1,262.4,231.0,nan,174.0,244.0
WMO83437,MONTES CLAROS BRAZIL,-16.71667,-43.86667,646.0,nan,157.0,218.7,122.1,188.3,177.7,148.7,216.7,167.9,211.6,227.9,193.7,127.0,168.7,226.0
WMO83618,TRES LAGOAS BRAZIL,-20.78333,-51.70000,313.0,nan,197.3,203.7,233.7,nan,nan,nan,nan,nan,nan,nan,nan,nan,nan,nan
WMO83726,SAO CARLOS BRAZIL,-22.01667,-47.88333,856.0,nan,157.4,172.4,182.4,135.7,nan,221.0,179.1,180.3,148.1,122.6,nan,nan,nan,nan
WMO83997,ST.VITORIA DO PALMAR BRAZIL,-33.51667,-53.35000,24.0,nan,244.9,272.1,268.9,182.1,271.6,256.6,250.9,269.6,230.0,223.3,246.7,nan,235.4,nan
WMO84140,PICHILINGUE ECUADOR,-1.10000,-79.45000,nan,nan,nan,nan,45.6,42.0,31.1,68.3,65.6,60.1,50.7,72.3,71.3,45.0,nan,41.0
WMO85033,GUAYARAMERIN BOLIVIA,-10.81667,-65.35000,nan,nan,nan,133.0,nan,116.9,160.0,nan,nan,nan,nan,nan,nan,nan,nan,nan
WMO85154,TRINIDAD BOLIVIA,-14.81667,-64.91667,nan,nan,nan,157.0,171.0,187.7,223.0,248.0,163.0,186.0,156.0,nan,nan,169.3,165.3,nan
WMO85406,ARICA CHILE,-18.35000,-70.33333,nan,nan,249.0,265.0,291.6,235.6,289.3,242.1,226.0,264.3,226.1,192.4,286.6,250.7,245.4,260.1
WMO85577,QUINTA NORMAL CHILE,-33.43333,-70.66667,nan,nan,317.1,328.9,330.4,291.3,315.3,328.9,300.3,327.0,307.4,290.9,326.0,305.6,314.3,nan
WMO85864,COYHAIQUE CHILE,-45.58333,-73.10000,nan,nan,191.6,232.7,266.3,202.9,239.4,261.1,208.0,247.0,218.7,235.6,220.0,232.7,230.3,nan
WMO86086,PUERTO CASADO PARAGUAY,-22.28333,-57.93333,78.0,nan,nan,nan,nan,nan,231.7,254.6,268.0,241.1,228.0,nan,nan,nan,256.1,239.6
WMO86221,PARAGUARI PARAGUAY,-25.63333,-57.13333,116.0,nan,nan,nan,nan,nan,250.6,267.0,240.0,252.0,223.7,185.3,232.6,254.3,275.4,nan
WMO86285,CAPITAN MEZA PARAGUAY,-26.83333,-55.33333,263.0,nan,nan,nan,nan,nan,259.0,274.0,220.6,246.7,225.3,152.3,242.7,nan,253.3,272.6
WMO86560,COLONIA URUGUAY,-34.45000,-57.76667,20.0,nan,276.0,nan,nan,nan,nan,nan,nan,nan,nan,nan,273.3,256.6,231.6,nan
WMO87078,LAS LOMITAS ARGENTINA,-24.70000,-60.58333,130.0,nan,217.0,215.1,264.6,226.7,254.6,249.7,211.1,184.7,160.3,nan,nan,232.6,223.9,nan
WMO87166,CORRIENTES AERO. ARGENTINA,-27.45000,-58.76667,62.0,nan,282.0,nan,nan,nan,nan,nan,nan,nan,nan,250.0,nan,nan,nan,nan
WMO87289,PASO DE LOS LIBRES AERO ARGENTINA,-29.68333,-57.15000,70.0,nan,229.3,261.9,291.3,204.3,279.0,269.9,266.4,283.9,222.7,197.9,245.9,287.4,243.6,nan
WMO87374,PARANA AERO ARGENTINA,-31.78333,-60.48333,78.0,nan,276.4,269.7,306.6,247.3,307.3,307.9,264.9,279.9,263.1,239.1,267.9,250.6,242.9,235.0
WMO87484,PERGAMINO ARGENTINA,-33.93333,-60.55000,nan,nan,nan,nan,nan,nan,nan,nan,nan,nan,nan,nan,nan,nan,nan,nan
WMO87550,NUEVE DE JULIO ARGENTINA,-35.45000,-60.88333,76.0,nan,nan,nan,nan,nan,nan,nan,nan,nan,nan,nan,nan,nan,nan,nan
WMO87640,BOLIVAR AERO ARGENTINA,-36.20000,-61.06667,94.0,nan,314.0,303.6,292.1,267.6,322.9,337.7,298.6,306.1,311.7,nan,nan,280.4,295.9,282.0
WMO87692,MAR DEL PLATA AERO ARGENTINA,-37.93333,-57.58333,21.0,nan,185.0,192.1,151.7,189.7,256.9,226.0,199.6,192.6,176.1,198.7,209.0,171.3,187.1,nan
WMO87800,EL BOLSON AERO ARGENTINA,-41.96667,-71.51667,337.0,nan,nan,nan,nan,nan,nan,nan,nan,nan,nan,262.0,nan,nan,nan,nan
WMO87903,LAGO ARGENTINO ARGENTINA,-50.33333,-72.30000,nan,nan,nan,nan,nan,nan,nan,nan,nan,nan,nan,nan,nan,nan,nan,nan
WMO88903,GRYTVIKEN  SOUTH GEORGIA ISLANDS(UNITED KINGDOM OF GREAT BRITAIN),-54.28333,-36.48333,3.0,nan,232.0,165.9,211.4,172.4,183.3,229.4,187.9,200.0,172.3,nan,nan,nan,nan,nan
WMO89042,SIGNY ISLAND / SOUTH ORKNEY ISL. ANTARCTICA,-60.70000,-45.60000,nan,nan,nan,nan,nan,nan,nan,nan,nan,nan,nan,nan,nan,nan,nan,nan
WMO89063,VERNADSKY STATIONS OPERATED BY UKRAINE,-65.25000,-64.26667,11.0,nan,nan,nan,nan,nan,nan,nan,nan,nan,nan,56.0,109.7,110.9,71.3,nan
WMO89606,VOSTOK STATIONS OPERATED BY THE RUSSIAN FEDERATION,-78.45000,106.85000,3489.0,nan,442.3,710.1,698.0,650.0,679.0,698.3,681.0,695.6,706.4,675.9,675.9,696.1,662.9,nan
WMO91275,JOHNSTON ISLAND (WSO AIRPORT) ISLANDS IN THE PACIFIC OCEAN NORTH OF THE EQUATOR,16.70000,-169.50000,nan,nan,nan,nan,nan,nan,nan,nan,nan,nan,nan,nan,nan,nan,nan,nan
WMO91557,BAUERFIELD (EFATE) VANUATU,-17.70000,168.30000,21.0,nan,nan,nan,nan,nan,nan,nan,nan,nan,nan,nan,nan,nan,nan,nan
WMO91683,NAUSORI FIJI,-18.05000,178.56667,7.0,nan,nan,nan,nan,nan,nan,nan,nan,nan,nan,nan,nan,nan,nan,nan
WMO91938,TAHITI-FAAA FRENCH POLYNESIA (SOCIETY ISLANDS),-17.55000,-149.60000,2.0,nan,219.0,165.0,216.6,220.4,230.9,203.3,188.9,252.9,200.1,nan,nan,nan,234.4,193.7
WMO91958,RAPA FRENCH POLYNESIA (AUSTRAL ISLANDS),-27.61667,-144.33333,2.0,nan,113.3,123.4,121.6,140.7,124.4,149.4,102.4,123.1,109.1,108.4,97.6,97.4,123.1,nan
WMO92077,GURNEY W.O. PAPUA NEW GUINEA,-10.31667,150.33333,23.0,nan,170.0,nan,nan,nan,nan,nan,nan,nan,nan,nan,nan,nan,nan,nan
WMO93417,PARAPARAUMU NEW ZEALAND,-40.90000,174.98333,nan,nan,189.9,207.0,224.1,186.1,nan,nan,nan,nan,nan,nan,nan,nan,nan,nan
WMO93986,WAITANGI / CHATHAM ISL. NEW ZEALAND,-44.00000,-176.60000,nan,nan,nan,nan,nan,nan,nan,nan,nan,nan,nan,nan,nan,nan,nan,nan
WMO94238,TENNANT CREEK AIRPORT AUSTRALIA,-19.63333,134.18333,377.0,nan,313.6,262.0,275.9,284.4,290.6,nan,294.9,265.0,247.6,nan,295.0,nan,nan,nan
WMO94476,OODNADATTA AIRPORT AUSTRALIA,-27.55000,135.43333,117.0,nan,nan,nan,nan,nan,nan,nan,nan,nan,nan,nan,nan,nan,nan,nan
WMO94738,SCONE SCS AUSTRALIA,-32.05000,150.91667,216.0,nan,nan,nan,nan,nan,nan,nan,nan,nan,nan,nan,nan,nan,nan,nan
WMO94926,CANBERRA AIRPORT AUSTRALIA,-35.30000,149.20000,577.0,nan,290.7,248.0,285.4,299.7,nan,nan,nan,nan,nan,nan,nan,nan,nan,nan
WMO95971,GROVE/TAS AUSTRALIA,-42.98333,147.06667,nan,nan,nan,242.4,200.7,nan,nan,nan,nan,nan,nan,nan,nan,nan,nan,nan
WMO96091,TANJUNG PINANG/KIJANG INDONESIA,0.91667,104.53333,18.0,nan,nan,21.0,nan,nan,nan,105.3,61.6,89.4,141.6,102.6,103.9,116.1,122.3,121.0
WMO96249,TANJUNG PANDAN/BULUH TUMBANG INDONESIA,-2.75000,107.75000,44.0,nan,120.0,70.9,95.0,95.1,71.4,88.4,57.0,75.0,154.6,116.3,62.7,79.7,95.1,nan
WMO96481,TAWAU MALAYSIA (SABAH AND SARAWAK),4.26667,117.88333,20.0,nan,nan,nan,nan,nan,nan,161.1,189.7,199.6,nan,nan,nan,nan,nan,nan
WMO96615,KETAPANG/KALIMANTAN INDONESIA,-1.85000,109.96667,nan,nan,nan,136.0,106.0,148.7,142.4,160.7,154.1,145.4,147.0,nan,nan,156.9,155.7,nan
WMO96745,JAKARTA/OBSERVATORY INDONESIA,-6.18333,106.83333,8.0,nan,120.7,99.7,89.1,117.4,73.6,108.0,101.0,96.6,109.3,117.1,89.3,101.7,103.9,nan
WMO96845,SURAKARTA/JAVA INDONESIA,-7.51667,110.75000,nan,nan,nan,nan,nan,nan,nan,nan,nan,nan,nan,nan,nan,nan,nan,nan
WMO97014,MENADO/ SAM RATULANGI INDONESIA,1.53333,124.91667,80.0,nan,135.3,115.9,109.4,155.1,135.1,136.4,145.6,140.9,156.4,170.4,140.9,nan,118.1,183.0
WMO97180,UJUNG PANDANG/HASANUDDIN INDONESIA,-5.06667,119.55000,14.0,nan,152.0,128.6,111.3,155.0,122.3,128.7,165.6,153.4,193.1,nan,nan,nan,174.0,272.0
WMO97320,MALI/ALOR ISLAND INDONESIA,-8.13333,124.60000,nan,nan,nan,nan,nan,nan,nan,244.0,nan,202.7,187.7,nan,nan,208.4,205.4,nan
WMO97460,LABUHA/WEST IRIAN INDONESIA,0.63333,127.50000,nan,nan,241.6,156.1,147.7,216.9,153.4,168.4,206.4,146.0,192.1,nan,nan,nan,178.4,244.4
WMO97690,JAYAPURA/SENTANI INDONESIA,-2.56667,140.48333,99.0,nan,nan,nan,47.3,82.3,67.4,128.9,178.7,126.6,167.3,nan,nan,103.1,103.1,nan
WMO97810,TUAL/MOLUKKEN INDONESIA,-5.68333,132.75000,nan,nan,143.0,138.7,121.6,146.1,105.9,177.0,136.7,74.0,143.4,nan,nan,nan,85.1,158.4
WMO98425,MANILA PHILIPPINES,14.58333,120.98333,nan,nan,nan,nan,nan,nan,nan,nan,nan,nan,nan,nan,nan,nan,nan,nan
WMO98836,ZAMBOANGA PHILIPPINES,6.91667,122.05000,6.0,nan,229.6,200.3,164.0,240.7,216.9,195.7,222.1,222.1,234.4,256.0,217.0,nan,nan,nan
