id,name,latitude,longitude,elev,2005,2006,2007,2008,2009,2010,2011,2012,2013,2014,2015,2016,2017,2018,2019
id,name,latitude,longitude,elev,2005,2006,2007,2008,2009,2010,2011,2012,2013,2014,2015,2016,2017,2018,2019
WMO02197,HAPARANDA SWEDEN,65.81667,24.10000,15.0,nan,nan,nan,nan,nan,nan,182.9,140.9,172.1,104.3,nan,nan,nan,nan,nan
WMO02805,UTSJOKI KEVO FINLAND,69.75000,27.03333,101.0,nan,115.4,97.3,79.1,105.3,87.7,123.0,67.4,92.3,67.4,81.6,88.1,86.3,95.0,97.1
WMO02963,JOKIOINEN OBSERVATORY FINLAND,60.81667,23.50000,103.0,nan,119.7,127.6,71.4,87.0,90.6,146.4,119.6,156.1,96.0,93.7,72.7,117.0,137.6,93.1
WMO03160,EDINBURGH (TURNHOUSE AIRPORT) UNITED KINGDOM OF GREAT BRITAIN AND NORTHERN IRELAND,56.00000,-3.40000,nan,nan,nan,nan,nan,nan,nan,nan,nan,nan,nan,nan,nan,nan,nan,nan
WMO03534,BIRMINGHAM_AIRPORT UNITED KINGDOM OF GREAT BRITAIN AND NORTHERN IRELAND,52.45000,-1.73333,nan,nan,nan,nan,nan,nan,nan,nan,nan,nan,nan,nan,nan,nan,nan,nan
WMO03827,PLYMOUTH-MOUNT BATTON UNITED KINGDOM OF GREAT BRITAIN AND NORTHERN IRELAND,50.40000,-4.10000,nan,nan,nan,nan,nan,nan,nan,nan,nan,nan,nan,nan,nan,nan,nan,nan
WMO03964,GALWAY IRELAND,53.30000,-9.00000,nan,nan,nan,nan,nan,nan,nan,nan,nan,nan,nan,nan,nan,nan,nan,nan
WMO04030,REYKJAVIK ICELAND,64.13333,-21.90000,61.0,nan,106.0,111.7,93.0,109.9,104.7,61.1,51.9,116.3,82.9,nan,nan,nan,103.6,93.4
WMO06590,LUXEMBOURG/LUXEMBOURG LUXEMBOURG,49.61667,6.21667,376.0,nan,90.3,113.9,109.1,97.0,107.9,122.7,159.3,81.3,139.6,nan,nan,nan,102.0,148.1
WMO07015,LILLE-LESQUIN FRANCE,50.56667,3.08333,47.0,nan,80.1,98.4,108.9,108.3,91.0,122.7,137.7,77.7,152.9,121.1,103.4,109.4,104.7,nan
WMO07149,ORLY FRANCE,48.71667,2.38333,90.0,nan,nan,nan,nan,127.0,127.9,126.7,149.4,82.0,150.1,126.7,106.9,102.9,96.6,nan
WMO07299,BALE-MULHOUSE FRANCE,47.60000,7.50000,273.0,nan,100.1,141.0,135.1,96.6,102.6,137.7,191.7,68.1,168.7,141.4,90.1,152.4,88.0,nan
WMO07577,MONTELIMAR FRANCE,44.56667,4.71667,74.0,nan,138.3,158.6,169.3,188.0,152.1,165.9,246.9,155.0,168.7,150.4,146.6,174.9,125.9,217.6
WMO07747,PERPIGNAN FRANCE,42.73333,2.86667,44.0,nan,183.6,174.9,198.0,228.0,190.7,175.4,252.6,138.4,200.6,nan,nan,nan,141.6,240.7
WMO08023,SANTANDER SPAIN,43.48333,-3.78333,59.0,nan,141.1,121.7,124.3,184.1,129.0,151.0,168.3,124.9,139.1,92.4,121.6,136.0,121.1,215.6
WMO08075,BURGOS/VILLAFRIA SPAIN,42.35000,-3.61667,892.0,nan,136.7,129.9,155.0,194.7,102.4,127.9,199.7,95.1,153.4,nan,nan,nan,103.6,237.4
WMO08161,ZARAGOZA SPAIN,41.63333,-0.90000,nan,nan,nan,nan,nan,nan,nan,nan,nan,nan,nan,nan,nan,nan,nan,nan
WMO08219,COLMENAR VIEJO/FAMET SPAIN,40.68333,-3.75000,998.0,nan,177.1,182.1,195.3,218.7,150.0,169.4,247.7,138.1,170.0,184.1,209.1,180.4,164.1,267.1
WMO08238,TORTOSA SPAIN,40.81667,0.48333,50.0,nan,202.0,201.9,196.1,215.3,173.0,190.3,268.4,181.7,201.0,194.3,205.4,224.1,175.1,nan
WMO08314,MENORCA/MAHON SPAIN,39.85000,4.20000,86.0,nan,163.7,141.9,152.9,188.6,123.0,148.0,185.9,155.0,183.6,131.7,149.9,222.6,150.4,nan
WMO08397,MORON DE LA FRONTERA SPAIN,37.15000,-5.60000,88.0,nan,195.6,203.9,232.6,199.9,150.9,215.7,270.6,174.0,189.9,212.1,219.4,nan,180.3,254.0
WMO08452,CADIZ OBS. SPAIN,36.50000,-6.25000,9.0,nan,210.1,nan,250.0,189.0,nan,nan,nan,190.6,nan,nan,nan,nan,nan,nan
WMO08515,SANTA MARIA (ACORES) PORTUGAL,36.96667,-25.16667,100.0,nan,183.4,198.0,212.0,nan,135.6,173.3,nan,150.4,114.0,nan,nan,nan,168.0,155.9
WMO08558,EVORA/C. COORD PORTUGAL,38.53333,-7.90000,246.0,nan,197.4,186.6,216.4,239.3,133.3,141.7,205.9,104.0,201.0,nan,nan,189.0,134.1,193.9
WMO10035,SCHLESWIG GERMANY,54.51667,9.53333,nan,nan,80.0,119.6,91.3,59.1,80.9,100.3,109.3,93.9,121.9,90.4,87.4,nan,91.7,86.9
WMO10131,CUXHAVEN GERMANY,53.86667,8.70000,12.0,nan,79.1,125.9,100.9,82.6,99.6,114.0,101.4,103.6,136.7,nan,nan,nan,115.1,91.9
WMO10168,GOLDBERG GERMANY,53.60000,12.10000,59.0,nan,nan,nan,nan,nan,83.3,132.9,120.0,110.7,142.0,106.4,87.6,97.4,126.9,nan
WMO10235,SOLTAU GERMANY,52.95000,9.78333,77.0,nan,nan,nan,nan,96.0,87.7,120.0,107.0,92.6,122.7,99.3,77.1,99.6,110.6,92.6
WMO10282,FELDBERG/MECKLENBURG GERMANY,53.31667,13.41667,116.0,nan,nan,nan,nan,nan,81.0,150.1,132.3,103.4,132.7,103.0,81.9,98.1,122.7,88.0
WMO10325,BAD SALZUFLEN GERMANY,52.10000,8.75000,136.0,nan,84.3,nan,nan,69.6,87.9,130.1,115.0,85.4,137.0,109.1,80.0,106.3,133.9,98.6
WMO10381,BERLIN-DAHLEM GERMANY,52.46667,13.30000,nan,nan,77.0,129.9,109.3,64.4,91.9,156.6,146.0,94.3,158.7,132.7,92.7,nan,143.6,111.0
WMO10427,KAHLER ASTEN GERMANY,51.16667,8.48333,858.0,nan,79.6,96.6,84.1,56.1,73.7,137.7,130.7,75.4,116.6,102.1,62.0,98.9,98.7,95.7
WMO10453,BROCKEN GERMANY,51.80000,10.61667,1152.0,nan,80.1,106.0,91.7,50.6,84.6,155.9,138.3,82.1,108.3,nan,nan,100.1,86.1,90.0
WMO10490,DOBERLUG-KIRCHHAIN GERMANY,51.63333,13.56667,97.0,nan,nan,nan,nan,nan,93.1,159.7,137.3,77.7,144.3,129.7,79.1,107.1,123.4,nan
WMO10520,ANDERNACH GERMANY,50.41667,7.41667,76.0,nan,nan,nan,nan,nan,nan,nan,132.1,81.0,135.4,nan,nan,nan,117.6,132.9
WMO10552,SCHMUECKE GERMANY,50.65000,10.76667,939.0,nan,nan,nan,nan,nan,82.0,159.4,138.1,67.7,121.3,114.7,49.6,104.3,78.3,95.0
WMO10579,MARIENBERG GERMANY,50.65000,13.13333,640.0,nan,nan,nan,nan,nan,100.9,157.7,140.4,74.4,141.6,137.6,67.7,109.0,123.0,127.4
WMO10646,NEUHUETTEN-SPESSART GERMANY,50.00000,9.41667,340.0,nan,nan,nan,nan,nan,72.0,144.4,145.4,69.4,133.1,nan,nan,nan,103.3,119.9
WMO10706,THOLEY GERMANY,49.46667,7.03333,387.0,nan,nan,nan,nan,nan,92.1,143.7,168.7,76.1,135.0,nan,nan,nan,105.6,153.9
WMO10742,OEHRINGEN GERMANY,49.20000,9.51667,274.0,nan,82.0,116.7,117.3,71.9,98.9,135.3,151.0,78.1,150.4,127.9,81.0,125.7,101.0,146.4
WMO10796,ZWIESEL GERMANY,49.01667,13.23333,616.0,nan,nan,nan,nan,nan,105.6,161.1,160.1,90.3,161.7,nan,nan,131.6,112.7,142.9
WMO10852,AUGSBURG GERMANY,48.41667,10.93333,476.0,nan,88.0,136.3,140.0,62.6,120.3,139.0,145.1,81.6,164.7,117.6,91.7,127.9,94.7,151.9
WMO10929,KONSTANZ GERMANY,47.66667,9.18333,444.0,nan,88.7,149.4,156.6,77.9,111.1,151.6,179.1,76.1,156.7,124.3,90.9,144.6,85.6,nan
WMO11028,ST. POELTEN (HESSERKASERNE) AUSTRIA,48.20000,15.60000,nan,nan,nan,nan,nan,nan,nan,nan,nan,nan,nan,nan,nan,nan,nan,nan
WMO11406,EGER CZECH REPUBLIC,50.08333,12.40000,nan,nan,nan,nan,nan,nan,nan,nan,nan,nan,nan,nan,nan,nan,nan,nan
WMO11787,LYSA HORA CZECH REPUBLIC,49.53333,18.43333,1326.0,nan,84.0,82.1,85.9,19.4,84.0,159.9,136.6,50.1,145.7,nan,nan,nan,67.9,125.4
WMO12330,POZNAN POLAND,52.41667,16.83333,88.0,nan,76.0,105.6,93.1,62.6,83.4,134.4,130.7,79.4,142.7,116.0,68.6,104.6,112.4,nan
WMO12843,BUDAPEST/PESTSZENTLORINC HUNGARY,47.43333,19.18333,139.0,nan,100.3,132.1,143.4,100.3,116.6,137.6,207.0,74.6,159.4,164.1,128.0,153.6,80.9,182.3
WMO13363,PLJEVLJA MONTENEGRO,43.35000,19.35000,788.0,nan,124.0,103.9,144.1,nan,100.4,104.0,135.1,nan,163.0,61.0,93.7,139.7,61.0,148.1
WMO13615,TIRANA ALBANIA,41.33333,19.78333,90.0,nan,nan,nan,nan,107.9,104.3,nan,nan,nan,nan,nan,nan,nan,nan,nan
WMO15023,SUCEAVA ROMANIA,47.61667,26.23333,353.0,nan,106.0,134.4,131.4,98.1,121.3,147.7,137.6,99.1,122.6,nan,nan,nan,76.4,140.9
WMO15360,SULINA ROMANIA,45.13333,29.75000,13.0,nan,116.6,136.9,146.4,133.1,125.6,136.0,158.4,95.9,108.3,99.3,91.7,134.3,80.6,157.6
WMO16008,S. VALENTINO ALLA MUTA ITALY,46.75000,10.53333,1461.0,nan,nan,nan,nan,nan,nan,nan,nan,nan,nan,nan,nan,nan,nan,nan
WMO16099,TREVISO/S.ANGELO ITALY,45.65000,12.18333,nan,nan,124.9,146.7,nan,nan,nan,nan,nan,nan,nan,nan,nan,nan,nan,nan
WMO16191,FALCONARA ITALY,43.60000,13.40000,nan,nan,nan,nan,nan,nan,nan,nan,nan,nan,nan,nan,nan,nan,nan,nan
WMO16258,MONTE S. ANGELO ITALY,41.70000,15.93333,848.0,nan,nan,nan,nan,nan,nan,nan,nan,nan,nan,nan,nan,nan,nan,nan
WMO16429,TRAPANI BIRGI ITALY,37.90000,12.48333,9.0,nan,165.9,160.1,206.3,185.9,159.6,164.7,187.0,147.4,161.7,138.6,170.0,203.0,138.7,201.9
WMO16597,LUQA MALTA,35.85000,14.48333,nan,nan,227.4,187.4,204.7,215.7,200.4,198.9,217.1,223.1,208.9,nan,nan,nan,194.9,215.4
WMO16746,SOUDA (AIRPORT) GREECE,35.48333,24.11667,151.0,nan,179.7,154.1,206.7,180.3,201.4,147.1,176.6,204.4,203.6,152.9,215.6,168.9,181.7,164.4
WMO17062,ISTANBUL TURKEY,40.90000,29.15000,nan,nan,118.1,112.4,161.9,89.1,133.6,142.6,207.0,133.6,nan,nan,nan,nan,nan,nan
WMO17092,ERZINCAN TURKEY,39.70000,39.51667,1154.0,nan,129.7,151.4,138.4,97.1,122.7,146.3,136.6,131.6,168.6,118.9,169.0,149.4,140.9,127.9
WMO17150,BALIKESIR TURKEY,39.61667,27.91667,102.0,nan,81.0,129.0,146.0,109.9,129.9,143.0,166.6,135.4,151.9,104.9,143.1,129.7,114.3,175.9
WMO17202,ELAZIG TURKEY,38.60000,39.28333,881.0,nan,nan,155.4,152.9,99.6,125.1,163.7,172.3,150.1,192.6,141.4,183.0,175.4,177.3,152.1
WMO17255,KAHRAMANMARAS TURKEY,37.60000,36.93333,572.0,nan,118.6,139.6,162.9,88.4,102.6,166.3,159.6,130.0,169.3,108.0,167.6,180.0,144.0,136.9
WMO17351,ADANA/BOLGE TURKEY,36.98333,35.35000,27.0,nan,130.9,173.3,177.1,143.3,126.0,201.9,151.9,183.1,193.4,nan,nan,203.4,183.0,175.9
WMO20674,OSTROV DIKSON RUSSIAN FEDERATION (IN ASIA),73.50000,80.40000,46.0,nan,91.3,50.4,88.4,94.6,85.1,52.0,78.9,111.4,55.0,74.4,77.1,39.6,73.7,50.1
WMO21965,OSTROV CHETYREKHSTOLBOVOY RUSSIAN FEDERATION,70.60000,162.50000,nan,nan,nan,nan,nan,nan,nan,nan,nan,nan,nan,nan,nan,nan,nan,nan
WMO22602,REBOLY RUSSIAN FEDERATION (IN EUROPE),63.83333,30.81667,182.0,nan,nan,nan,nan,nan,nan,nan,nan,nan,nan,nan,nan,nan,nan,nan
WMO23205,NAR'JAN-MAR RUSSIAN FEDERATION (IN ASIA),67.61667,53.01667,11.0,nan,128.6,76.6,110.6,95.9,100.0,111.7,177.6,151.9,71.6,nan,nan,55.6,126.7,81.0
WMO23472,TURUHANSK RUSSIAN FEDERATION (IN ASIA),65.78333,87.98333,37.0,nan,126.6,144.4,115.6,145.0,160.6,99.6,150.0,161.3,121.0,88.9,107.3,77.3,126.4,66.9
WMO23884,BOR RUSSIAN FEDERATION (IN ASIA),61.56667,90.01667,57.0,nan,134.9,105.4,81.4,155.6,141.4,101.9,135.7,123.9,106.3,92.0,114.6,nan,111.9,87.9
WMO24143,DZARDZAN RUSSIAN FEDERATION (IN ASIA),68.73333,124.00000,38.0,nan,nan,nan,nan,nan,nan,nan,nan,nan,nan,nan,nan,nan,nan,nan
WMO24713,NAKANNO RUSSIAN FEDERATION (IN ASIA),62.88333,108.43333,245.0,nan,182.7,193.6,125.6,185.7,194.0,137.7,173.3,173.0,133.6,nan,nan,nan,156.3,128.1
WMO25173,MYS SHMIDTA RUSSIAN FEDERATION (IN ASIA),68.90000,-179.63333,3.0,nan,nan,nan,nan,nan,nan,nan,nan,nan,nan,nan,nan,nan,nan,nan
WMO25538,VERHNEE PENZINO RUSSIAN FEDERATION (IN ASIA),64.21667,164.23333,325.0,nan,124.0,100.0,269.0,198.3,nan,nan,159.3,156.7,132.7,163.0,138.3,nan,nan,nan
WMO26038,TALLINN-HARKU ESTONIA,59.38333,24.60000,34.0,nan,114.6,132.3,69.9,86.1,88.6,163.4,121.7,158.3,128.0,109.0,103.9,102.3,130.1,112.9
WMO26393,VYSNIJ VOLOCEK RUSSIAN FEDERATION,57.58333,34.56667,nan,nan,nan,nan,nan,nan,nan,nan,nan,nan,nan,nan,nan,nan,nan,nan
WMO26629,KAUNAS LITHUANIA,54.88333,23.83333,76.0,nan,112.6,135.7,102.7,75.6,97.9,162.4,118.4,132.1,101.0,95.0,67.4,nan,126.4,100.4
WMO27199,KIROV RUSSIAN FEDERATION (IN EUROPE),58.56667,49.56667,158.0,nan,nan,nan,nan,nan,nan,nan,nan,nan,nan,nan,nan,nan,nan,nan
WMO28138,BISER RUSSIAN FEDERATION (IN ASIA),58.51667,58.85000,463.0,nan,57.6,137.1,95.3,106.1,122.0,135.1,157.6,120.0,87.1,178.9,108.7,113.9,139.1,83.9
WMO28573,ISHIM RUSSIAN FEDERATION (IN ASIA),56.10000,69.43333,82.0,nan,187.4,115.3,169.1,163.4,174.0,189.3,173.3,147.9,114.0,nan,nan,205.0,189.4,179.3
WMO28766,BLAGOVESHCHENKA KAZAKHSTAN,54.36667,66.96667,151.0,nan,nan,nan,nan,nan,nan,193.0,182.9,140.4,145.4,nan,nan,188.3,158.7,159.9
WMO29594,TAJSHET RUSSIAN FEDERATION (IN ASIA),55.95000,98.00000,306.0,nan,159.0,135.7,180.3,175.6,181.4,179.0,186.6,157.1,149.3,nan,nan,182.0,167.3,161.1
WMO30230,KIRENSK RUSSIAN FEDERATION (IN ASIA),57.76667,108.06667,258.0,nan,157.0,149.9,139.3,166.6,179.6,158.4,163.0,nan,146.1,nan,nan,nan,153.1,147.7
WMO30635,UST'-BARGUZIN RUSSIAN FEDERATION (IN ASIA),53.41667,109.01667,460.0,nan,nan,nan,nan,nan,nan,nan,nan,nan,nan,nan,nan,nan,nan,nan
WMO30949,KYRA RUSSIAN FEDERATION (IN ASIA),49.56667,111.96667,907.0,nan,222.4,212.0,238.0,231.0,199.6,241.3,251.0,254.1,242.1,220.3,242.7,249.3,250.0,nan
WMO31416,IM POLINY OSIPENKO RUSSIAN FEDERATION (IN ASIA),52.41667,136.50000,70.0,nan,216.1,200.6,181.0,198.7,210.9,249.3,236.4,188.1,209.0,162.9,216.1,nan,237.7,227.9
WMO32061,ALEKSANDROVSK-SAHALINSKIJ RUSSIAN FEDERATION (IN ASIA),50.90000,142.16667,31.0,nan,139.1,152.3,178.7,151.7,170.0,196.6,194.7,145.4,169.7,152.3,172.3,nan,179.4,190.7
WMO32389,KLJUCHI RUSSIAN FEDERATION (IN ASIA),56.31667,160.83333,28.0,nan,167.0,93.6,141.9,133.7,159.1,137.3,143.9,110.7,124.4,143.9,156.0,78.0,123.0,158.3
WMO33041,GOMEL BELARUS,52.40000,30.95000,126.0,nan,105.7,131.9,100.9,56.3,103.7,140.7,139.3,107.9,150.0,127.6,94.4,123.0,104.3,124.4
WMO33777,VOZNESENS'K UKRAINE,47.56667,31.33333,34.0,nan,nan,nan,nan,nan,nan,nan,nan,nan,nan,nan,nan,nan,nan,nan
WMO33983,KERCH UKRAINE,45.40000,36.41667,49.0,nan,nan,nan,nan,nan,nan,nan,nan,nan,nan,nan,nan,nan,nan,nan
WMO34300,KHARKIV UKRAINE,49.96667,36.13333,155.0,nan,85.9,154.1,101.3,61.3,107.0,160.0,126.1,89.9,146.3,nan,nan,121.6,80.6,103.9
WMO34927,KRASNODAR-KRUGLIK RUSSIAN FEDERATION (IN EUROPE),45.05000,39.03333,29.0,nan,106.1,151.6,136.3,91.6,116.0,109.9,148.1,108.1,148.1,137.7,129.0,140.4,nan,nan
WMO35376,BERLIK KAZAKHSTAN,49.88333,69.51667,349.0,nan,175.4,207.3,nan,nan,nan,nan,nan,nan,nan,nan,nan,nan,nan,nan
WMO36003,PAVLODAR KAZAKHSTAN,52.30000,76.93333,122.0,nan,177.4,165.3,150.4,151.7,173.9,194.6,170.1,148.9,164.0,nan,nan,nan,141.7,159.4
WMO36870,ALMATY KAZAKHSTAN,43.23333,76.93333,851.0,nan,153.6,138.9,172.4,115.0,104.7,149.9,117.7,153.3,151.6,139.4,182.9,123.4,109.0,182.3
WMO37472,MAHACHKALA RUSSIAN FEDERATION (IN EUROPE),43.00000,47.50000,-18.0,nan,100.4,131.3,142.9,113.6,99.6,107.4,129.6,63.0,144.7,93.3,120.0,nan,78.3,117.1
WMO37860,MASHTAGA AZERBAIJAN,40.53333,50.00000,28.0,nan,71.0,78.1,nan,148.1,52.4,102.1,112.3,105.9,184.0,95.4,72.3,nan,71.0,98.1
WMO38341,ZHAMBYL KAZAKHSTAN,42.85000,71.38333,nan,nan,130.0,147.0,180.6,121.3,114.0,153.6,125.9,125.9,173.7,nan,nan,113.9,140.0,172.7
WMO38511,CHAGYL TURKMENISTAN,40.78333,55.33333,115.0,nan,nan,nan,203.0,165.0,146.0,179.6,170.7,174.9,161.6,149.4,171.1,190.7,133.1,150.3
WMO38734,DEHAVZ TAJIKISTAN,39.45000,70.20000,2561.0,nan,nan,nan,nan,nan,nan,nan,nan,nan,nan,nan,nan,nan,nan,nan
WMO38933,KURGAN-TYUBE TAJIKISTAN,37.81667,68.78333,427.0,nan,nan,nan,nan,nan,nan,nan,nan,nan,nan,nan,nan,nan,133.1,146.9
WMO40100,BEYROUTH (AEROPORT) LEBANON,33.81667,35.48333,19.0,nan,157.7,168.0,190.0,146.0,140.0,nan,183.0,156.0,123.7,114.4,254.0,279.3,nan,nan
WMO40255,IRBID JORDAN,32.60000,35.90000,nan,nan,nan,nan,nan,nan,nan,nan,nan,nan,nan,nan,nan,nan,nan,nan
WMO40373,AL-QAISUMAH SAUDI ARABIA,28.31667,46.13333,358.0,nan,nan,nan,nan,nan,nan,nan,nan,nan,nan,nan,nan,nan,nan,nan
WMO40435,AL-DAWADAMI SAUDI ARABIA,26.98333,44.11667,923.0,nan,nan,nan,nan,nan,nan,nan,nan,nan,nan,nan,nan,nan,nan,nan
WMO40650,BAGHDAD IRAQ,33.26667,44.23333,nan,nan,nan,nan,nan,nan,nan,nan,nan,nan,nan,nan,nan,nan,nan,nan
WMO40723,BOJNOURD IRAN ISLAMIC REPUBLIC OF,37.46667,57.33333,nan,nan,nan,140.0,195.3,188.7,134.0,159.4,184.0,171.9,191.6,128.3,181.7,178.4,159.1,164.1
WMO40766,KERMANSHAH IRAN ISLAMIC REPUBLIC OF,34.35000,47.15000,1319.0,nan,188.0,161.6,196.7,164.4,152.0,188.6,196.0,210.4,198.7,197.6,201.3,nan,170.7,162.6
WMO40821,YAZD IRAN ISLAMIC REPUBLIC OF,31.90000,54.40000,nan,nan,246.3,227.0,273.4,186.0,257.0,237.4,246.7,244.1,242.1,207.9,265.1,nan,243.3,247.9
WMO40911,MAZAR-I-SHARIF AFGHANISTAN ISLAMIC STATE OF,36.70000,67.20000,378.0,nan,nan,nan,nan,nan,nan,nan,nan,nan,nan,nan,nan,nan,nan,nan
WMO41061,WADI AL-DAWASSER AIRPORT SAUDI ARABIA,20.50000,45.25000,622.0,nan,273.4,238.6,293.3,272.0,257.0,277.4,244.0,278.4,267.0,269.0,278.6,262.0,289.7,253.1
WMO41196,SHARJAH INTERNATIONAL AIRPORT UNITED ARAB EMIRATES,25.33333,55.51667,33.0,nan,272.1,276.4,263.0,281.0,275.3,278.1,nan,nan,nan,nan,nan,nan,nan,nan
WMO41256,MUSCAT INT'L AIRPORT OMAN,23.58333,58.28333,8.0,nan,nan,nan,nan,nan,nan,206.0,nan,225.0,192.0,238.0,nan,185.0,308.1,281.0
WMO41287,JOBA OMAN,20.86667,58.23333,34.0,nan,nan,nan,nan,nan,nan,nan,nan,nan,nan,nan,nan,nan,nan,nan
WMO41515,DROSH PAKISTAN,35.56667,71.78333,1465.0,nan,nan,nan,nan,nan,nan,nan,nan,nan,nan,nan,nan,nan,nan,nan
WMO41685,BARKHAN PAKISTAN,29.88333,69.71667,1098.0,nan,nan,nan,nan,nan,nan,nan,nan,nan,nan,nan,nan,nan,nan,nan
WMO41764,HYDERABAD PAKISTAN,25.38333,68.41667,30.0,nan,nan,nan,nan,nan,nan,nan,nan,nan,nan,nan,nan,nan,nan,nan
WMO41923,DHAKA BANGLADESH,23.76667,90.38333,9.0,nan,nan,nan,nan,nan,nan,nan,204.0,224.0,227.6,215.0,201.9,195.9,193.7,207.4
WMO42314,DIBRUGARH /MOHANBARI INDIA (STATIONS NORTH OF LATITUDE 20~N),27.48333,95.01667,111.0,nan,130.0,157.4,145.6,169.6,136.3,173.3,134.4,192.4,167.6,nan,nan,nan,141.9,147.6
WMO42909,VERAVAL INDIA (STATIONS NORTH OF LATITUDE 20~N),20.90000,70.36667,11.0,nan,nan,nan,nan,nan,nan,nan,nan,nan,nan,nan,nan,nan,nan,nan
WMO43295,BANGALORE INDIA (STATIONS SOUTH OF LATITUDE 20~N),12.96667,77.58333,923.0,nan,219.1,217.4,178.6,211.6,259.4,230.4,229.4,208.3,201.6,238.7,215.1,232.7,229.9,226.0
WMO44213,BARUUNTURUUN MONGOLIA,49.65000,94.40000,1232.0,nan,nan,nan,nan,nan,nan,nan,nan,nan,nan,nan,nan,nan,nan,nan
WMO44277,ALTAI MONGOLIA,46.40000,96.25000,2181.0,nan,nan,nan,nan,nan,nan,nan,nan,nan,nan,nan,164.4,nan,144.9,nan
WMO44373,DALANZADGAD MONGOLIA,43.58333,104.41667,1465.0,nan,211.0,225.6,224.9,216.1,180.0,244.4,249.9,244.6,258.7,nan,nan,nan,nan,nan
WMO47014,CHUNGGANG DEMOCRATIC PEOPLE'S REPUBLIC OF KOREA,41.78333,126.88333,331.0,nan,115.0,68.0,116.1,158.0,148.1,141.9,131.7,117.0,144.0,123.0,145.0,nan,112.7,nan
WMO47112,INCHEON REPUBLIC OF KOREA,37.46667,126.61667,69.0,nan,nan,nan,nan,nan,146.0,220.6,192.7,225.9,207.1,nan,nan,nan,211.0,213.4
WMO47407,ASAHIKAWA JAPAN,43.75000,142.36667,140.0,nan,85.4,130.9,151.4,91.6,92.6,139.6,115.9,104.7,140.4,nan,nan,122.0,109.7,109.0
WMO47582,AKITA JAPAN,39.71667,140.08333,21.0,nan,89.4,101.3,94.4,101.0,87.0,93.3,85.3,76.1,86.4,114.1,121.3,103.4,98.4,110.7
WMO47618,MATSUMOTO JAPAN,36.25000,137.96667,nan,nan,159.9,203.6,nan,nan,nan,nan,nan,nan,nan,nan,nan,nan,nan,nan
WMO47678,HACHIJOJIMA JAPAN,33.11667,139.76667,156.0,nan,92.6,126.9,113.0,125.1,95.0,133.0,96.3,108.9,109.6,123.7,99.7,nan,132.4,99.6
WMO47800,IZUHARA JAPAN,34.18333,129.28333,4.0,nan,150.9,155.1,176.9,146.9,109.7,176.3,129.6,167.3,130.9,179.4,165.4,168.9,164.9,163.7
WMO47893,KOCHI JAPAN,33.56667,133.53333,4.0,nan,nan,nan,220.4,158.0,143.3,195.3,164.1,195.9,186.0,196.7,199.9,196.7,204.7,184.6
WMO47991,MINAMITORISHIMA JAPAN,24.28333,153.98333,8.0,nan,206.3,169.0,194.4,206.0,248.4,163.3,201.6,227.1,192.9,196.9,215.7,nan,192.3,213.7
WMO48462,ARANYAPRATHET THAILAND,13.68333,102.50000,49.0,nan,nan,nan,nan,nan,nan,nan,nan,nan,nan,nan,nan,nan,nan,nan
WMO48657,KUANTAN MALAYSIA (PENINSULAR MALAYSIA),3.78333,103.21667,16.0,nan,nan,nan,nan,nan,nan,nan,nan,nan,nan,nan,nan,nan,nan,nan
WMO48830,LANG SON VIET NAM,21.83333,106.76667,263.0,nan,nan,59.1,58.0,91.0,76.0,44.1,nan,85.4,28.3,nan,nan,63.1,138.0,64.1
WMO48914,CA MAU VIET NAM,9.18333,105.15000,2.0,nan,nan,244.3,217.0,218.9,252.0,188.1,nan,232.1,263.9,253.3,242.3,213.0,242.0,263.7
WMO48991,PHNOM-PENH (KHMOUGH) CAMBODIA,11.60000,104.86667,10.0,nan,nan,nan,nan,nan,273.1,187.4,243.1,222.3,255.0,245.6,nan,nan,nan,nan
WMO51709,KASHI CHINA,39.48333,75.75000,1386.0,nan,173.6,212.3,198.3,210.4,187.3,161.1,162.7,217.0,201.0,189.6,185.3,163.7,154.6,166.0
WMO52681,MINQIN CHINA,38.63333,103.08333,1369.0,nan,258.4,230.9,272.0,241.6,229.0,248.9,254.4,257.3,263.3,271.3,252.6,255.3,262.6,280.4
WMO53845,YAN AN CHINA,36.58333,109.45000,1181.0,nan,241.4,215.6,246.7,215.1,183.6,200.3,194.4,250.7,196.7,209.1,230.1,202.6,211.9,201.7
WMO54857,QINGDAO CHINA,36.06667,120.33333,77.0,nan,192.1,183.1,224.0,160.4,128.1,205.3,175.0,173.7,195.3,190.9,210.9,183.7,157.0,167.4
WMO56187,WENJIANG CHINA,30.75000,103.86667,555.0,nan,79.4,67.0,75.0,70.6,71.1,60.7,53.1,106.4,31.3,65.0,79.0,50.7,98.1,64.0
WMO57083,ZHENGZHOU CHINA,34.71667,113.65000,111.0,nan,182.1,130.1,181.7,116.7,113.6,155.4,132.4,131.0,136.3,141.3,168.1,nan,166.3,154.4
WMO57993,GANZHOU CHINA,25.86667,115.00000,138.0,nan,65.9,89.1,108.0,94.3,97.3,72.3,60.7,110.3,77.7,60.7,104.3,66.4,130.9,nan
WMO59211,BAISE CHINA,23.90000,106.60000,177.0,nan,77.0,103.0,78.1,137.6,133.6,72.3,64.9,138.9,82.1,nan,nan,nan,113.9,81.3
WMO60010,IZANA SPAIN (CANARY ISLANDS),28.30000,-16.48333,2368.0,nan,nan,283.0,264.6,233.4,nan,nan,291.4,300.1,309.6,274.6,288.9,292.3,283.9,297.0
WMO60120,KENITRA MOROCCO,34.30000,-6.58333,nan,nan,199.6,231.0,233.4,190.7,179.7,237.6,262.0,197.4,216.4,219.0,229.1,nan,189.0,244.7
WMO60320,CEUTA SPAIN (CEUTA AND MELILLA),35.90000,-5.33333,88.0,nan,nan,nan,nan,nan,nan,nan,nan,nan,210.3,nan,nan,nan,183.4,195.3
WMO60387,DELLYS ALGERIA,36.91667,3.95000,8.0,nan,211.4,196.0,213.9,218.0,179.3,198.9,187.9,165.9,nan,nan,nan,224.4,171.6,nan
WMO60423,SOUK AHRAS ALGERIA,36.28333,7.96667,680.0,nan,196.9,186.0,228.1,198.6,182.4,187.9,195.9,191.4,165.7,nan,nan,215.9,169.4,220.7
WMO60467,M'SILA ALGERIA,35.66667,4.50000,442.0,nan,243.4,234.9,251.9,256.0,211.3,224.7,242.1,207.1,233.1,nan,nan,258.9,199.3,248.3
WMO60514,KSAR CHELLALA ALGERIA,35.16667,2.31667,801.0,nan,239.1,224.0,237.1,233.3,181.9,210.4,212.6,190.6,189.0,nan,nan,228.6,192.9,240.0
WMO60536,SAIDA ALGERIA,34.86667,0.15000,752.0,nan,230.1,198.0,229.7,255.0,189.4,200.9,219.7,201.3,214.1,201.3,222.1,238.9,196.1,nan
WMO60566,GHARDAIA ALGERIA,32.40000,3.80000,469.0,nan,282.4,270.9,264.1,272.0,231.3,251.6,266.6,267.9,257.0,273.6,284.0,261.1,219.0,231.6
WMO60630,IN-SALAH ALGERIA,27.23333,2.50000,269.0,nan,276.6,273.1,287.4,248.3,243.6,258.4,253.6,306.1,279.0,288.4,289.9,nan,263.9,274.9
WMO60735,KAIROUAN TUNISIA,35.66667,10.10000,68.0,nan,236.6,217.4,235.1,227.4,209.9,216.3,215.9,215.0,199.3,nan,nan,nan,nan,nan
WMO61053,DOSSO NIGER,13.03333,3.30000,213.0,nan,nan,nan,nan,nan,242.0,nan,243.0,288.0,284.0,nan,259.0,283.4,260.9,274.0
WMO61223,TOMBOUCTOU MALI,16.71667,-3.00000,264.0,nan,263.0,nan,239.0,231.0,259.1,279.6,226.0,nan,nan,nan,nan,nan,nan,nan
WMO61272,SEGOU MALI,13.40000,-6.15000,289.0,nan,nan,nan,278.6,nan,nan,268.1,234.0,nan,283.6,257.0,278.1,253.9,236.7,226.0
WMO61415,NOUADHIBOU MAURITANIA,20.93333,-17.03333,3.0,nan,278.4,294.0,257.6,292.0,287.0,282.0,nan,292.1,293.1,231.0,263.7,nan,nan,nan
WMO61499,AIOUN EL ATROUSS MAURITANIA,16.70000,-9.60000,223.0,nan,nan,nan,nan,nan,nan,nan,nan,nan,nan,nan,nan,nan,nan,nan
WMO61695,ZIGUINCHOR SENEGAL,12.55000,-16.26667,nan,nan,227.7,220.0,243.4,274.0,202.9,276.6,199.0,272.3,280.1,nan,nan,nan,224.0,270.0
WMO61818,KINDIA GUINEA,10.05000,-12.86667,nan,nan,nan,nan,nan,nan,nan,nan,nan,nan,nan,nan,nan,nan,nan,nan
WMO61878,NJALA SIERRA LEONE,8.10000,-12.10000,56.0,nan,nan,nan,nan,nan,nan,nan,nan,nan,nan,nan,nan,nan,nan,nan
WMO61974,AGALEGA MAURITIUS,-10.38333,56.60000,4.0,nan,201.4,180.7,225.0,229.0,238.0,202.0,212.4,217.9,200.6,194.1,199.1,190.1,211.6,187.3
WMO62002,NALUT LIBYA,31.86667,10.98333,621.0,nan,nan,262.0,265.3,253.9,258.4,242.0,229.0,275.1,237.6,251.1,275.4,247.7,287.0,nan
WMO62055,AGEDABIA LIBYA,30.71667,20.16667,7.0,nan,nan,270.0,258.7,239.4,245.7,nan,nan,nan,nan,nan,nan,nan,nan,nan
WMO62176,GIGHBUB LIBYA,29.75000,24.53333,-1.0,nan,nan,nan,282.3,287.7,291.7,nan,nan,279.0,300.0,nan,nan,nan,nan,nan
WMO62387,MINYA EGYPT,28.08333,30.73333,40.0,nan,nan,nan,nan,307.0,276.1,281.3,nan,284.1,nan,285.0,nan,265.7,nan,nan
WMO62464,HURGUADA POLLUTION EGYPT,27.28333,33.73333,6.0,nan,nan,nan,nan,nan,nan,nan,nan,nan,nan,nan,nan,nan,nan,nan
WMO62730,KASSALA SUDAN,15.46667,36.40000,500.0,nan,298.6,299.7,309.3,298.7,271.9,290.9,279.7,285.3,308.7,nan,nan,nan,286.7,281.0
WMO62781,EN NAHUD SUDAN,12.70000,28.43333,564.0,nan,290.4,290.3,306.6,302.7,238.1,273.7,268.7,275.9,265.1,223.7,248.6,nan,239.0,nan
WMO63021,ASMARA ERITREA,15.28333,38.91667,2325.0,nan,nan,nan,nan,nan,nan,nan,nan,nan,nan,nan,nan,nan,nan,nan
WMO63630,GULU UGANDA,2.75000,32.33333,1105.0,nan,nan,nan,nan,nan,nan,nan,nan,nan,nan,nan,nan,nan,nan,nan
WMO63820,MOMBASA INTERNATIONAL AIRPORT KENYA,-4.00000,39.60000,nan,nan,nan,nan,nan,266.0,nan,nan,253.0,nan,222.0,nan,nan,nan,256.0,nan
WMO64247,MBUJI-MAYI DEMOCRATIC REPUBLIC OF THE CONGO,-6.16667,23.61667,677.0,nan,nan,nan,nan,nan,nan,nan,nan,nan,nan,nan,nan,nan,nan,nan
WMO64453,DJAMBALA CONGO,-2.53333,14.76667,790.0,nan,nan,nan,nan,nan,nan,nan,172.0,160.7,158.0,nan,nan,143.0,165.0,191.0
WMO64507,TCHIBANGA GABON,-2.85000,11.01667,79.0,nan,nan,nan,nan,nan,nan,nan,nan,nan,nan,nan,nan,nan,nan,nan
WMO64605,BOSSEMBELE CENTRAL AFRICAN REPUBLIC,5.26667,17.63333,674.0,nan,nan,nan,nan,234.0,nan,nan,nan,nan,nan,nan,nan,nan,nan,nan
WMO64700,NDJAMENA CHAD,12.13333,15.03333,295.0,nan,252.9,273.7,289.9,247.0,249.0,283.9,265.3,270.0,265.3,234.4,274.0,nan,254.0,nan
WMO64754,AM-TIMAN CHAD,11.03333,20.28333,436.0,nan,nan,nan,nan,nan,nan,nan,nan,nan,nan,nan,nan,nan,nan,nan
WMO64900,YOKO CAMEROON,5.55000,12.36667,1031.0,nan,nan,nan,nan,nan,nan,nan,nan,nan,nan,nan,nan,nan,nan,nan
WMO65123,MINNA NIGERIA,9.61667,6.53333,256.0,nan,nan,nan,nan,193.3,223.3,249.4,193.9,233.0,228.6,nan,214.1,255.7,238.0,218.4
WMO65338,BOHICON BENIN,7.16667,2.06667,167.0,nan,201.1,196.1,152.9,194.0,179.3,211.1,173.6,210.6,208.1,198.0,210.1,221.7,211.0,221.0
WMO65387,LOME TOGO,6.16667,1.25000,25.0,nan,193.0,nan,nan,208.0,187.0,nan,185.6,246.0,nan,nan,nan,nan,nan,248.0
WMO65502,OUAHIGOUYA BURKINA FASO,13.58333,-2.43333,nan,nan,272.4,273.1,283.3,219.0,239.0,274.0,256.1,289.4,278.6,nan,nan,nan,276.6,253.0
WMO65545,BONDOUKOU COTE D'IVOIRE,8.05000,-2.78333,370.0,nan,237.4,nan,nan,nan,229.0,nan,224.0,nan,nan,221.7,222.0,245.9,222.0,nan
WMO65594,SAN PEDRO COTE D'IVOIRE,4.75000,-6.65000,30.0,nan,196.4,nan,nan,nan,227.0,nan,150.3,nan,204.9,nan,nan,228.7,nan,250.0
WMO67009,ANTSIRANANA MADAGASCAR,-12.35000,49.30000,105.0,nan,179.1,147.0,234.0,191.0,nan,175.7,179.1,nan,156.3,196.0,188.9,143.0,150.0,235.0
WMO67161,TOLIARA MADAGASCAR,-23.38333,43.73333,8.0,nan,nan,nan,nan,nan,nan,nan,nan,nan,nan,nan,nan,nan,nan,nan
WMO67283,QUELIMANE MOZAMBIQUE,-17.88333,36.88333,16.0,nan,nan,244.0,239.1,194.9,186.0,nan,244.0,214.4,251.0,105.0,nan,nan,nan,nan
WMO67346,CHANGALANE MOZAMBIQUE,-26.28333,32.18333,104.0,nan,nan,nan,nan,nan,nan,nan,nan,nan,nan,nan,207.7,203.0,185.0,nan
WMO67693,CHILEKA MALAWI,-15.68333,34.96667,767.0,nan,nan,nan,nan,nan,nan,nan,nan,nan,nan,257.0,nan,nan,nan,nan
WMO68006,ONDANGWA NAMIBIA,-17.93333,15.98333,nan,nan,nan,nan,nan,nan,nan,nan,nan,nan,nan,nan,nan,nan,nan,nan
WMO68174,POLOKWANE SOUTH AFRICA,-23.86667,29.45000,1226.0,nan,190.4,269.0,225.6,212.0,249.0,259.3,268.3,240.1,207.9,260.0,240.3,233.4,211.9,238.0
WMO68442,BLOEMFONTEIN AIRPORT SOUTH AFRICA,-29.10000,26.30000,1353.0,nan,222.4,297.0,242.4,240.1,273.4,242.0,251.4,271.4,235.7,nan,nan,243.6,220.6,281.0
WMO68828,GEORGE AIRPORT SOUTH AFRICA,-34.01667,22.38333,191.0,nan,197.7,223.0,216.0,232.3,229.3,193.0,209.1,244.7,218.7,nan,nan,219.3,196.1,208.4
WMO70231,MCGRATH AK UNITED STATES OF AMERICA (ALASKA),62.95000,-155.58333,103.0,nan,nan,nan,nan,nan,nan,nan,nan,nan,nan,nan,nan,nan,nan,nan
WMO71066,HIGH LEVEL ALTA CANADA,58.61667,-117.15000,nan,nan,nan,nan,nan,nan,nan,nan,nan,nan,nan,nan,nan,nan,nan,nan
WMO71299,KAPUSKASING CDA ON ONT CANADA,49.40000,-82.43333,nan,nan,nan,nan,nan,nan,nan,nan,nan,nan,nan,nan,nan,nan,nan,nan
WMO71727,BAGOTVILLE A QUE CANADA,48.33333,-71.00000,nan,nan,nan,nan,nan,nan,nan,nan,nan,nan,nan,nan,nan,nan,nan,nan
WMO71831,KAPUSKASING CANADA,49.40000,-82.50000,nan,nan,nan,nan,nan,nan,nan,nan,nan,nan,nan,nan,nan,nan,nan,nan
WMO71874,LETHBRIDGE AIRPORT CANADA,49.60000,-112.80000,nan,nan,nan,nan,nan,nan,nan,nan,nan,nan,nan,nan,nan,nan,nan,nan
WMO71915,CORAL HARBOUR A NU CANADA,64.18333,-83.35000,nan,nan,nan,nan,nan,nan,nan,nan,nan,nan,nan,nan,nan,nan,nan,nan
WMO71957,INUVIK/NWT (SY) CANADA,68.30000,-133.48333,nan,nan,nan,nan,nan,nan,nan,nan,nan,nan,nan,nan,nan,nan,nan,nan
WMO72226,MONTGOMERY/DANNELLY  AL. UNITED STATES OF AMERICA,32.30000,-86.40000,62.0,nan,nan,nan,nan,nan,nan,nan,nan,nan,nan,nan,nan,nan,nan,nan
WMO72259,DALLAS-FORT WORTH/FORT WORTH REG.AIRPORT TX. UNITED STATES OF AMERICA,32.90000,-97.03333,182.0,nan,nan,nan,nan,nan,nan,nan,nan,nan,nan,nan,nan,nan,nan,nan
WMO72308,NORFOLK/INT. VA. UNITED STATES OF AMERICA,36.90000,-76.20000,9.0,nan,nan,nan,nan,nan,nan,nan,nan,nan,nan,nan,nan,nan,nan,nan
WMO72344,FORT SMITH/MUN. AR. UNITED STATES OF AMERICA,35.33333,-94.36667,141.0,nan,nan,nan,nan,nan,nan,nan,nan,nan,nan,nan,nan,nan,nan,nan
WMO72406,BALTIMORE/BALTIMORE-WASHINGTON INT. MD. UNITED STATES OF AMERICA,39.18333,-76.66667,47.0,nan,nan,nan,nan,nan,nan,nan,nan,nan,nan,nan,nan,nan,nan,nan
WMO72439,SPRINGFIELD/CAPITAL  IL. UNITED STATES OF AMERICA,39.85000,-89.66667,187.0,nan,nan,nan,nan,nan,nan,nan,nan,nan,nan,nan,nan,nan,nan,nan
WMO72483,SACRAMENTO/EXECUTIVE CA. UNITED STATES OF AMERICA,38.51667,-121.50000,8.0,nan,nan,nan,nan,nan,nan,nan,nan,nan,nan,nan,nan,nan,nan,nan
WMO72517,ALLENTOWN/A.-BETHLEHEM-EASTON PA. UNITED STATES OF AMERICA,40.65000,-75.43333,117.0,nan,nan,nan,nan,nan,nan,nan,nan,nan,nan,nan,nan,nan,nan,nan
WMO72537,DETROIT/METROPOLITAN MI. UNITED STATES OF AMERICA,42.23333,-83.33333,202.0,nan,nan,nan,nan,nan,nan,nan,nan,nan,nan,nan,nan,nan,nan,nan
WMO72597,MEDFORD/MEDFORD-JACKSON COUNTY OR. UNITED STATES OF AMERICA,42.36667,-122.86667,398.0,nan,nan,nan,nan,nan,nan,nan,nan,nan,nan,nan,nan,nan,nan,nan
WMO72658,MINNEAPOLIS/ST.PAUL INT. MN. UNITED STATES OF AMERICA,44.88333,-93.21667,255.0,nan,nan,nan,nan,nan,nan,nan,nan,nan,nan,nan,nan,nan,nan,nan
WMO72753,FARGO/HECTOR FIELD  ND. UNITED STATES OF AMERICA,46.90000,-96.80000,274.0,nan,nan,nan,nan,nan,nan,nan,nan,nan,nan,nan,nan,nan,nan,nan
WMO76040,EJIDO NUEVO LEON MEXICO,32.40000,-115.18333,nan,nan,247.7,277.0,290.0,283.1,234.0,281.3,265.0,283.4,267.0,280.0,302.3,nan,253.0,256.9
WMO76256,EMPALME SON. MEXICO,27.95000,-110.80000,nan,nan,285.9,293.0,312.4,259.0,272.7,320.7,254.6,278.6,272.0,266.0,284.0,282.0,235.4,223.0
WMO76402,CIUDAD CONSTITUCION BCS MEXICO,25.00000,-111.63333,nan,nan,264.0,253.6,285.3,258.4,259.4,290.3,273.0,258.9,272.9,nan,nan,nan,231.1,231.1
WMO76539,SAN LUIS POTOSI  S.L.P. MEXICO,22.20000,-101.01667,nan,nan,258.9,235.6,268.1,258.9,217.4,255.3,210.0,230.3,251.0,nan,203.0,nan,216.6,229.7
WMO76612,GUADALAJARA JAL. MEXICO,20.70000,-103.38333,nan,nan,nan,nan,nan,nan,nan,nan,nan,268.6,313.0,nan,264.3,266.9,270.0,nan
WMO76658,COLIMA MEXICO,19.23333,-103.73333,nan,nan,270.0,268.0,302.0,280.7,254.0,290.1,233.6,260.7,291.7,214.4,246.7,nan,256.0,277.3
WMO76692,HACIENDA YLANG YLANG VERACRUZ VER. MEXICO,19.15000,-96.13333,nan,nan,231.7,198.1,221.6,247.0,149.4,228.4,171.0,189.1,212.0,152.0,156.7,nan,234.1,213.4
WMO76805,ACAPULCO GRO. MEXICO,16.75000,-99.75000,nan,nan,279.0,288.7,299.9,286.0,276.6,297.1,277.7,275.3,301.4,274.3,293.3,311.4,311.4,309.9
WMO78310,CABO SAN ANTONIO  PINAR DEL RIO CUBA,21.86667,-84.95000,8.0,nan,nan,nan,nan,nan,234.1,184.0,nan,nan,nan,nan,nan,nan,nan,nan
WMO78482,BARAHONA DOMINICAN REPUBLIC,18.20000,-71.10000,nan,nan,nan,nan,nan,nan,nan,nan,nan,nan,nan,nan,nan,nan,nan,nan
WMO78760,PUNTARENAS COSTA RICA,9.96667,-84.83333,3.0,nan,nan,nan,nan,nan,nan,nan,nan,nan,nan,nan,nan,nan,nan,nan
WMO80001,SAN ANDRES (ISLA)/SESQUICENTENARIO COLOMBIA,12.58333,-81.71667,6.0,nan,264.3,276.4,279.9,261.1,247.0,266.7,272.4,242.4,283.9,261.3,277.6,288.0,280.1,272.9
WMO80094,BUCARAMANGA/PALONEGRO COLOMBIA,7.10000,-73.20000,1189.0,nan,162.9,167.4,159.3,125.6,159.1,117.7,147.4,144.1,182.0,163.0,143.7,nan,nan,146.7
WMO80219,GIRARDOT/SANTIAGO VILLA COLOMBIA,4.28333,-74.80000,293.0,nan,nan,nan,nan,nan,nan,nan,nan,nan,nan,nan,nan,nan,nan,nan
WMO80398,LETICIA/VASQUEZ COBO COLOMBIA,-4.16667,-69.95000,84.0,nan,120.0,145.3,126.1,137.9,133.1,99.9,116.3,122.0,83.9,nan,nan,nan,134.0,114.0
WMO80420,CUMANA VENEZUELA,10.45000,-64.18333,4.0,nan,262.1,244.0,278.1,238.6,269.9,231.3,218.3,264.0,266.4,nan,nan,nan,nan,nan
WMO80435,MATURIN VENEZUELA,9.75000,-63.18333,66.0,nan,239.3,244.3,251.6,229.4,260.7,219.4,195.7,261.7,247.7,nan,nan,nan,nan,nan
WMO80457,PUERTO AYACUCHO VENEZUELA,5.60000,-67.50000,74.0,nan,209.6,211.7,218.1,216.0,196.0,197.0,196.4,202.3,236.9,236.0,nan,nan,nan,nan
WMO81401,SAINT-LAURENT FRENCH GUIANA,5.48333,-54.01667,5.0,nan,nan,114.3,nan,nan,nan,nan,nan,nan,nan,nan,nan,102.6,100.6,176.1
WMO82184,PORTO DE MOZ BRAZIL,-1.73333,-52.23333,16.0,nan,105.4,136.0,140.0,94.0,216.0,nan,nan,nan,nan,nan,nan,nan,nan,nan
WMO82397,FORTALEZA BRAZIL,-3.76667,-38.60000,26.0,nan,191.1,160.4,181.7,134.4,222.3,191.6,200.4,236.3,194.3,nan,nan,141.7,184.9,122.1
WMO82586,QUIXERAMOBIM BRAZIL,-5.20000,-39.30000,212.0,nan,206.4,192.7,191.7,183.1,220.4,206.0,225.9,233.0,199.9,nan,nan,nan,nan,182.1
WMO82900,RECIFE BRAZIL,-8.05000,-34.91667,7.0,nan,241.4,217.1,229.0,215.4,213.6,238.6,211.7,204.4,144.0,220.6,196.9,207.4,193.0,188.1
WMO83236,BARREIRAS BRAZIL,-12.15000,-45.00000,439.0,nan,171.7,211.1,175.1,200.3,nan,172.1,249.6,226.6,197.3,201.0,282.6,nan,183.0,207.9
WMO83437,MONTES CLAROS BRAZIL,-16.71667,-43.86667,646.0,nan,177.4,238.7,211.1,239.3,223.6,150.0,246.4,245.7,236.1,208.6,266.9,185.7,142.0,208.3
WMO83618,TRES LAGOAS BRAZIL,-20.78333,-51.70000,313.0,nan,204.6,236.9,196.0,190.7,nan,nan,nan,nan,nan,nan,nan,nan,nan,nan
WMO83726,SAO CARLOS BRAZIL,-22.01667,-47.88333,856.0,nan,171.9,194.0,171.4,155.6,183.7,100.0,207.3,143.3,193.0,133.3,nan,nan,nan,nan
WMO83997,ST.VITORIA DO PALMAR BRAZIL,-33.51667,-53.35000,24.0,nan,224.0,184.9,208.9,217.7,213.3,229.0,205.4,223.3,184.0,237.6,206.6,nan,238.9,230.0
WMO84140,PICHILINGUE ECUADOR,-1.10000,-79.45000,nan,nan,nan,nan,nan,93.7,87.9,117.0,123.0,78.0,87.3,107.9,85.6,116.3,72.0,87.1
WMO85033,GUAYARAMERIN BOLIVIA,-10.81667,-65.35000,nan,nan,nan,147.0,127.6,129.0,nan,nan,nan,nan,nan,nan,nan,nan,nan,nan
WMO85154,TRINIDAD BOLIVIA,-14.81667,-64.91667,nan,nan,nan,193.0,175.9,142.0,191.0,135.6,191.0,109.0,108.9,nan,nan,140.1,118.9,133.3
WMO85406,ARICA CHILE,-18.35000,-70.33333,nan,nan,256.6,276.3,298.0,275.4,268.1,284.7,249.4,272.4,292.9,239.9,274.1,270.1,263.9,269.7
WMO85577,QUINTA NORMAL CHILE,-33.43333,-70.66667,nan,nan,279.1,240.4,260.4,278.7,264.9,264.1,296.0,270.0,285.9,274.9,268.1,269.0,290.3,284.6
WMO85864,COYHAIQUE CHILE,-45.58333,-73.10000,nan,nan,180.3,194.6,241.4,171.0,204.3,182.0,175.4,174.7,212.3,214.3,219.1,183.6,193.9,227.7
WMO86086,PUERTO CASADO PARAGUAY,-22.28333,-57.93333,78.0,nan,nan,nan,nan,nan,nan,179.9,239.0,227.7,225.4,nan,nan,nan,208.0,228.1
WMO86221,PARAGUARI PARAGUAY,-25.63333,-57.13333,116.0,nan,nan,nan,nan,nan,nan,182.7,221.6,203.0,198.1,209.6,197.0,220.0,198.7,200.6
WMO86285,CAPITAN MEZA PARAGUAY,-26.83333,-55.33333,263.0,nan,nan,nan,nan,nan,nan,189.4,245.6,203.4,203.7,218.0,179.1,nan,185.3,205.9
WMO86560,COLONIA URUGUAY,-34.45000,-57.76667,20.0,nan,nan,nan,nan,nan,nan,nan,nan,nan,nan,nan,nan,212.3,268.6,244.3
WMO87078,LAS LOMITAS ARGENTINA,-24.70000,-60.58333,130.0,nan,226.9,235.0,234.1,198.9,236.1,170.3,208.1,223.7,210.6,nan,nan,196.0,162.1,164.0
WMO87166,CORRIENTES AERO. ARGENTINA,-27.45000,-58.76667,62.0,nan,256.0,nan,nan,nan,nan,nan,nan,nan,nan,nan,nan,nan,nan,nan
WMO87289,PASO DE LOS LIBRES AERO ARGENTINA,-29.68333,-57.15000,70.0,nan,239.1,180.6,231.3,220.3,211.4,217.0,226.3,222.1,202.7,222.4,189.3,206.9,217.7,212.4
WMO87374,PARANA AERO ARGENTINA,-31.78333,-60.48333,78.0,nan,241.0,184.7,257.7,265.1,249.3,249.9,252.9,251.3,211.4,228.1,223.6,225.9,255.0,244.1
WMO87484,PERGAMINO ARGENTINA,-33.93333,-60.55000,nan,nan,nan,nan,nan,nan,nan,nan,nan,nan,nan,nan,nan,nan,nan,nan
WMO87550,NUEVE DE JULIO ARGENTINA,-35.45000,-60.88333,76.0,nan,nan,nan,nan,nan,nan,nan,nan,nan,nan,nan,nan,nan,nan,nan
WMO87640,BOLIVAR AERO ARGENTINA,-36.20000,-61.06667,94.0,nan,250.0,156.0,219.9,262.0,231.3,273.3,232.6,280.4,223.0,nan,nan,239.9,297.6,260.7
WMO87692,MAR DEL PLATA AERO ARGENTINA,-37.93333,-57.58333,21.0,nan,182.1,127.9,184.0,168.3,170.7,213.3,162.3,171.6,161.1,174.0,160.9,134.1,191.6,170.7
WMO87800,EL BOLSON AERO ARGENTINA,-41.96667,-71.51667,337.0,nan,243.0,nan,nan,nan,nan,nan,nan,nan,nan,nan,nan,nan,nan,nan
WMO87903,LAGO ARGENTINO ARGENTINA,-50.33333,-72.30000,nan,nan,nan,nan,nan,nan,nan,nan,nan,nan,nan,nan,nan,nan,nan,nan
WMO88903,GRYTVIKEN  SOUTH GEORGIA ISLANDS(UNITED KINGDOM OF GREAT BRITAIN),-54.28333,-36.48333,3.0,nan,nan,121.6,136.0,132.7,115.1,150.3,140.6,130.9,132.9,nan,nan,133.7,nan,nan
WMO89042,SIGNY ISLAND / SOUTH ORKNEY ISL. ANTARCTICA,-60.70000,-45.60000,nan,nan,nan,nan,nan,nan,nan,nan,nan,nan,nan,nan,nan,nan,nan,nan
WMO89063,VERNADSKY STATIONS OPERATED BY UKRAINE,-65.25000,-64.26667,11.0,nan,nan,nan,nan,35.0,nan,nan,nan,nan,nan,nan,45.0,26.4,58.7,94.0
WMO89606,VOSTOK STATIONS OPERATED BY THE RUSSIAN FEDERATION,-78.45000,106.85000,3489.0,nan,426.3,433.6,422.7,377.7,401.7,399.9,434.0,275.0,429.6,436.9,448.0,444.4,417.9,nan
WMO91275,JOHNSTON ISLAND (WSO AIRPORT) ISLANDS IN THE PACIFIC OCEAN NORTH OF THE EQUATOR,16.70000,-169.50000,nan,nan,nan,nan,nan,nan,nan,nan,nan,nan,nan,nan,nan,nan,nan,nan
WMO91557,BAUERFIELD (EFATE) VANUATU,-17.70000,168.30000,21.0,nan,nan,nan,nan,nan,nan,nan,nan,nan,nan,nan,nan,nan,nan,nan
WMO91683,NAUSORI FIJI,-18.05000,178.56667,7.0,nan,nan,nan,nan,nan,nan,nan,nan,nan,nan,nan,nan,nan,nan,nan
WMO91938,TAHITI-FAAA FRENCH POLYNESIA (SOCIETY ISLANDS),-17.55000,-149.60000,2.0,nan,230.1,225.1,190.3,205.0,170.0,238.7,202.0,229.3,171.3,nan,nan,nan,193.6,210.3
WMO91958,RAPA FRENCH POLYNESIA (AUSTRAL ISLANDS),-27.61667,-144.33333,2.0,nan,131.4,117.9,175.9,157.4,129.1,167.4,123.3,137.9,119.0,62.4,53.0,130.6,160.0,124.6
WMO92077,GURNEY W.O. PAPUA NEW GUINEA,-10.31667,150.33333,23.0,nan,139.0,nan,nan,nan,nan,nan,nan,nan,nan,nan,nan,nan,nan,nan
WMO93417,PARAPARAUMU NEW ZEALAND,-40.90000,174.98333,nan,nan,204.6,234.0,209.7,198.9,nan,nan,nan,nan,nan,nan,nan,nan,nan,nan
WMO93986,WAITANGI / CHATHAM ISL. NEW ZEALAND,-44.00000,-176.60000,nan,nan,nan,nan,nan,nan,nan,nan,nan,nan,nan,nan,nan,nan,nan,nan
WMO94238,TENNANT CREEK AIRPORT AUSTRALIA,-19.63333,134.18333,377.0,nan,263.3,275.4,284.7,312.9,272.9,193.1,246.0,283.4,271.9,322.1,307.0,nan,nan,nan
WMO94476,OODNADATTA AIRPORT AUSTRALIA,-27.55000,135.43333,117.0,nan,nan,nan,nan,nan,nan,nan,nan,nan,nan,nan,nan,nan,nan,nan
WMO94738,SCONE SCS AUSTRALIA,-32.05000,150.91667,216.0,nan,nan,nan,nan,nan,nan,nan,nan,nan,nan,nan,nan,nan,nan,nan
WMO94926,CANBERRA AIRPORT AUSTRALIA,-35.30000,149.20000,577.0,nan,284.1,247.7,260.1,258.3,nan,176.7,nan,nan,nan,nan,nan,nan,nan,nan
WMO95971,GROVE/TAS AUSTRALIA,-42.98333,147.06667,nan,nan,nan,nan,192.6,165.3,nan,nan,nan,nan,nan,nan,nan,nan,nan,nan
WMO96091,TANJUNG PINANG/KIJANG INDONESIA,0.91667,104.53333,18.0,nan,nan,nan,nan,nan,nan,nan,108.9,142.3,226.1,200.3,146.9,165.1,165.1,241.1
WMO96249,TANJUNG PANDAN/BULUH TUMBANG INDONESIA,-2.75000,107.75000,44.0,nan,nan,140.0,75.3,131.0,116.0,134.7,109.1,141.4,170.6,152.3,115.1,105.4,139.7,138.4
WMO96481,TAWAU MALAYSIA (SABAH AND SARAWAK),4.26667,117.88333,20.0,nan,nan,nan,nan,nan,nan,159.0,163.4,211.6,nan,nan,nan,nan,nan,nan
WMO96615,KETAPANG/KALIMANTAN INDONESIA,-1.85000,109.96667,nan,nan,nan,nan,nan,172.6,183.9,134.0,161.7,199.0,211.0,nan,nan,173.9,205.0,180.9
WMO96745,JAKARTA/OBSERVATORY INDONESIA,-6.18333,106.83333,8.0,nan,101.0,89.9,25.0,130.1,100.9,87.9,122.0,128.3,88.9,112.1,106.4,118.7,135.9,129.0
WMO96845,SURAKARTA/JAVA INDONESIA,-7.51667,110.75000,nan,nan,nan,nan,nan,nan,nan,nan,nan,nan,nan,nan,nan,nan,nan,nan
WMO97014,MENADO/ SAM RATULANGI INDONESIA,1.53333,124.91667,80.0,nan,103.3,110.7,103.6,134.6,196.1,114.6,137.7,179.7,195.6,180.4,202.6,nan,144.6,158.7
WMO97180,UJUNG PANDANG/HASANUDDIN INDONESIA,-5.06667,119.55000,14.0,nan,138.0,127.4,133.6,149.9,181.0,115.1,147.7,185.3,176.1,nan,nan,nan,148.0,152.3
WMO97320,MALI/ALOR ISLAND INDONESIA,-8.13333,124.60000,nan,nan,nan,nan,nan,nan,nan,nan,173.4,195.0,221.1,nan,nan,170.6,203.0,193.3
WMO97460,LABUHA/WEST IRIAN INDONESIA,0.63333,127.50000,nan,nan,nan,188.0,150.0,139.1,194.4,121.1,141.7,175.4,179.7,nan,nan,nan,149.1,183.0
WMO97690,JAYAPURA/SENTANI INDONESIA,-2.56667,140.48333,99.0,nan,nan,nan,nan,70.7,76.1,44.0,139.4,147.4,173.7,nan,nan,113.9,128.3,131.1
WMO97810,TUAL/MOLUKKEN INDONESIA,-5.68333,132.75000,nan,nan,nan,102.0,92.0,120.0,145.3,94.4,113.9,141.9,157.3,nan,nan,nan,87.0,87.1
WMO98425,MANILA PHILIPPINES,14.58333,120.98333,nan,nan,nan,nan,nan,nan,nan,nan,nan,nan,nan,nan,nan,nan,nan,nan
WMO98836,ZAMBOANGA PHILIPPINES,6.91667,122.05000,6.0,nan,205.0,214.6,177.4,166.6,276.0,173.1,165.0,241.1,248.6,272.0,281.0,210.0,nan,nan
