id,name,latitude,longitude,elev,2005,2006,2007,2008,2009,2010,2011,2012,2013,2014,2015,2016,2017,2018,2019
id,name,latitude,longitude,elev,2005,2006,2007,2008,2009,2010,2011,2012,2013,2014,2015,2016,2017,2018,2019
WMO02197,HAPARANDA SWEDEN,65.81667,24.10000,15.0,nan,nan,nan,nan,nan,nan,102.3,81.3,69.0,18.9,nan,nan,nan,nan,nan
WMO02805,UTSJOKI KEVO FINLAND,69.75000,27.03333,101.0,nan,27.9,58.4,43.6,61.3,43.1,61.0,17.3,12.0,13.7,28.3,26.6,13.7,33.4,31.3
WMO02963,JOKIOINEN OBSERVATORY FINLAND,60.81667,23.50000,103.0,nan,67.9,91.1,44.6,66.6,44.6,101.6,64.7,27.9,15.3,39.1,33.4,74.4,85.6,59.6
WMO03160,EDINBURGH (TURNHOUSE AIRPORT) UNITED KINGDOM OF GREAT BRITAIN AND NORTHERN IRELAND,56.00000,-3.40000,nan,nan,nan,nan,nan,nan,nan,nan,nan,nan,nan,nan,nan,nan,nan,nan
WMO03534,BIRMINGHAM_AIRPORT UNITED KINGDOM OF GREAT BRITAIN AND NORTHERN IRELAND,52.45000,-1.73333,nan,nan,nan,nan,nan,nan,nan,nan,nan,nan,nan,nan,nan,nan,nan,nan
WMO03827,PLYMOUTH-MOUNT BATTON UNITED KINGDOM OF GREAT BRITAIN AND NORTHERN IRELAND,50.40000,-4.10000,nan,nan,nan,nan,nan,nan,nan,nan,nan,nan,nan,nan,nan,nan,nan,nan
WMO03964,GALWAY IRELAND,53.30000,-9.00000,nan,nan,nan,nan,nan,nan,nan,nan,nan,nan,nan,nan,nan,nan,nan,nan
WMO04030,REYKJAVIK ICELAND,64.13333,-21.90000,61.0,nan,51.6,112.4,50.6,54.1,79.7,50.3,33.7,48.1,85.0,nan,nan,nan,38.7,68.7
WMO06590,LUXEMBOURG/LUXEMBOURG LUXEMBOURG,49.61667,6.21667,376.0,nan,43.1,58.0,130.7,58.9,38.6,46.7,116.0,38.9,49.0,nan,nan,nan,118.7,135.9
WMO07015,LILLE-LESQUIN FRANCE,50.56667,3.08333,47.0,nan,31.0,44.0,132.4,39.9,46.9,41.3,94.1,67.9,77.0,81.3,77.4,54.6,123.6,nan
WMO07149,ORLY FRANCE,48.71667,2.38333,90.0,nan,nan,nan,nan,71.0,65.4,42.1,103.1,57.1,73.0,86.1,79.0,65.3,101.0,nan
WMO07299,BALE-MULHOUSE FRANCE,47.60000,7.50000,273.0,nan,63.7,108.3,158.1,82.4,52.6,76.7,116.9,56.4,91.1,83.7,49.1,92.1,72.6,nan
WMO07577,MONTELIMAR FRANCE,44.56667,4.71667,74.0,nan,119.3,106.7,161.0,132.9,100.3,123.6,196.9,140.6,93.7,122.9,101.4,124.7,116.7,178.0
WMO07747,PERPIGNAN FRANCE,42.73333,2.86667,44.0,nan,181.1,137.1,187.9,173.0,138.0,160.6,234.7,144.3,150.3,nan,nan,nan,120.6,196.7
WMO08023,SANTANDER SPAIN,43.48333,-3.78333,59.0,nan,106.9,105.1,133.7,130.1,103.6,117.7,103.7,78.1,100.4,57.7,100.9,125.1,75.6,174.3
WMO08075,BURGOS/VILLAFRIA SPAIN,42.35000,-3.61667,892.0,nan,131.1,92.0,126.9,130.1,65.6,109.0,140.6,79.1,81.6,nan,nan,nan,93.9,203.6
WMO08161,ZARAGOZA SPAIN,41.63333,-0.90000,nan,nan,nan,nan,nan,nan,nan,nan,nan,nan,nan,nan,nan,nan,nan,nan
WMO08219,COLMENAR VIEJO/FAMET SPAIN,40.68333,-3.75000,998.0,nan,169.1,130.7,137.0,172.0,117.9,188.6,234.9,138.3,106.6,154.9,158.4,133.6,164.7,229.3
WMO08238,TORTOSA SPAIN,40.81667,0.48333,50.0,nan,188.9,153.0,139.6,175.0,144.0,201.4,239.7,174.3,155.0,179.0,185.6,166.3,148.1,222.0
WMO08314,MENORCA/MAHON SPAIN,39.85000,4.20000,86.0,nan,115.7,128.1,141.1,149.0,117.1,141.0,132.7,111.6,149.9,103.1,116.1,130.9,110.0,167.0
WMO08397,MORON DE LA FRONTERA SPAIN,37.15000,-5.60000,88.0,nan,178.4,147.6,200.6,179.9,119.3,220.7,279.4,199.9,133.4,188.4,169.7,nan,203.3,245.3
WMO08452,CADIZ OBS. SPAIN,36.50000,-6.25000,9.0,nan,194.9,183.0,nan,180.0,nan,nan,nan,195.0,nan,nan,nan,nan,nan,nan
WMO08515,SANTA MARIA (ACORES) PORTUGAL,36.96667,-25.16667,100.0,nan,144.0,173.0,nan,nan,121.7,140.1,nan,160.9,113.6,nan,nan,nan,116.0,128.4
WMO08558,EVORA/C. COORD PORTUGAL,38.53333,-7.90000,246.0,nan,190.0,138.0,173.6,188.6,118.6,112.0,171.0,104.0,49.0,nan,nan,nan,114.6,111.0
WMO10035,SCHLESWIG GERMANY,54.51667,9.53333,nan,nan,45.3,34.0,51.7,36.1,34.1,50.4,83.7,36.0,82.1,52.1,67.0,nan,100.4,92.9
WMO10131,CUXHAVEN GERMANY,53.86667,8.70000,12.0,nan,50.4,39.4,73.4,47.6,39.9,55.6,73.1,40.9,86.0,nan,nan,nan,112.6,94.0
WMO10168,GOLDBERG GERMANY,53.60000,12.10000,59.0,nan,nan,nan,nan,nan,32.3,71.9,88.1,27.6,89.6,76.6,64.6,54.9,110.4,nan
WMO10235,SOLTAU GERMANY,52.95000,9.78333,77.0,nan,nan,nan,nan,89.6,34.3,57.0,78.0,38.4,75.1,59.1,55.3,47.9,104.7,106.1
WMO10282,FELDBERG/MECKLENBURG GERMANY,53.31667,13.41667,116.0,nan,nan,nan,nan,nan,32.9,76.3,82.9,22.9,100.4,85.0,53.7,56.9,103.3,97.7
WMO10325,BAD SALZUFLEN GERMANY,52.10000,8.75000,136.0,nan,59.3,nan,nan,48.3,30.9,62.9,73.1,34.4,76.1,85.9,68.3,54.3,115.1,101.4
WMO10381,BERLIN-DAHLEM GERMANY,52.46667,13.30000,nan,nan,60.7,63.9,92.1,38.6,49.6,92.7,99.3,27.1,113.7,106.3,68.3,nan,137.6,120.4
WMO10427,KAHLER ASTEN GERMANY,51.16667,8.48333,858.0,nan,53.3,38.0,112.3,37.7,20.0,61.1,72.7,18.7,35.4,86.7,45.4,52.6,91.0,99.3
WMO10453,BROCKEN GERMANY,51.80000,10.61667,1152.0,nan,67.3,55.1,112.4,42.9,44.7,95.3,77.4,39.4,48.1,nan,nan,59.4,60.7,105.0
WMO10490,DOBERLUG-KIRCHHAIN GERMANY,51.63333,13.56667,97.0,nan,nan,nan,nan,nan,51.9,90.0,91.6,20.4,100.4,107.9,63.1,73.0,118.3,nan
WMO10520,ANDERNACH GERMANY,50.41667,7.41667,76.0,nan,nan,nan,nan,nan,nan,nan,96.4,26.9,67.3,nan,nan,nan,122.3,120.6
WMO10552,SCHMUECKE GERMANY,50.65000,10.76667,939.0,nan,nan,nan,nan,nan,37.3,89.9,61.3,16.7,40.9,84.6,34.7,69.4,66.9,101.6
WMO10579,MARIENBERG GERMANY,50.65000,13.13333,640.0,nan,nan,nan,nan,nan,53.7,100.1,93.4,19.1,95.7,115.4,53.9,82.0,117.7,120.1
WMO10646,NEUHUETTEN-SPESSART GERMANY,50.00000,9.41667,340.0,nan,nan,nan,nan,nan,14.6,61.6,104.4,24.7,50.1,nan,nan,nan,110.4,114.9
WMO10706,THOLEY GERMANY,49.46667,7.03333,387.0,nan,nan,nan,nan,nan,30.0,57.9,118.7,25.4,33.7,nan,nan,nan,117.4,145.6
WMO10742,OEHRINGEN GERMANY,49.20000,9.51667,274.0,nan,65.9,62.9,138.9,56.9,46.3,56.7,104.3,30.7,78.9,74.7,46.9,85.0,94.3,130.1
WMO10796,ZWIESEL GERMANY,49.01667,13.23333,616.0,nan,nan,nan,nan,nan,57.6,105.3,96.1,42.1,106.6,nan,nan,106.6,95.7,140.1
WMO10852,AUGSBURG GERMANY,48.41667,10.93333,476.0,nan,67.9,86.4,157.0,63.6,57.9,70.9,101.9,38.4,94.7,65.6,53.9,80.7,73.6,125.1
WMO10929,KONSTANZ GERMANY,47.66667,9.18333,444.0,nan,52.1,100.0,178.7,59.3,61.7,83.1,103.7,42.4,87.3,59.1,55.4,64.3,64.1,nan
WMO11028,ST. POELTEN (HESSERKASERNE) AUSTRIA,48.20000,15.60000,nan,nan,nan,nan,nan,nan,nan,nan,nan,nan,nan,nan,nan,nan,nan,nan
WMO11406,EGER CZECH REPUBLIC,50.08333,12.40000,nan,nan,nan,nan,nan,nan,nan,nan,nan,nan,nan,nan,nan,nan,nan,nan
WMO11787,LYSA HORA CZECH REPUBLIC,49.53333,18.43333,1326.0,nan,87.4,32.0,79.4,27.9,46.9,122.6,78.4,21.3,93.9,nan,nan,nan,42.7,108.9
WMO12330,POZNAN POLAND,52.41667,16.83333,88.0,nan,41.7,40.9,65.7,28.6,49.6,74.7,75.6,16.1,111.4,73.1,68.0,59.4,92.6,nan
WMO12843,BUDAPEST/PESTSZENTLORINC HUNGARY,47.43333,19.18333,139.0,nan,75.3,102.0,142.3,75.3,62.4,72.0,123.1,45.0,74.3,109.7,84.7,75.9,59.1,135.4
WMO13363,PLJEVLJA MONTENEGRO,43.35000,19.35000,788.0,nan,73.0,81.1,143.0,nan,61.0,98.1,50.0,nan,nan,61.0,83.7,102.1,63.3,83.0
WMO13615,TIRANA ALBANIA,41.33333,19.78333,90.0,nan,nan,nan,nan,112.4,60.6,nan,nan,nan,nan,nan,nan,nan,nan,nan
WMO15023,SUCEAVA ROMANIA,47.61667,26.23333,353.0,nan,97.6,74.0,98.6,76.0,65.7,112.6,88.1,57.9,71.3,nan,nan,nan,38.9,84.3
WMO15360,SULINA ROMANIA,45.13333,29.75000,13.0,nan,94.1,94.7,121.9,95.4,82.0,100.3,114.4,63.9,48.1,72.6,77.1,92.0,51.6,90.1
WMO16008,S. VALENTINO ALLA MUTA ITALY,46.75000,10.53333,1461.0,nan,nan,nan,nan,nan,nan,nan,nan,nan,nan,nan,nan,nan,nan,nan
WMO16099,TREVISO/S.ANGELO ITALY,45.65000,12.18333,nan,nan,116.7,109.3,nan,nan,nan,nan,nan,nan,nan,nan,nan,nan,nan,nan
WMO16191,FALCONARA ITALY,43.60000,13.40000,nan,nan,nan,nan,nan,nan,nan,nan,nan,nan,nan,nan,nan,nan,nan,nan
WMO16258,MONTE S. ANGELO ITALY,41.70000,15.93333,848.0,nan,nan,nan,nan,nan,nan,nan,nan,nan,nan,nan,nan,nan,nan,nan
WMO16429,TRAPANI BIRGI ITALY,37.90000,12.48333,9.0,nan,143.6,145.0,197.6,135.7,140.7,138.1,152.4,127.4,146.9,98.4,158.9,159.7,125.3,169.6
WMO16597,LUQA MALTA,35.85000,14.48333,nan,nan,170.3,164.7,179.3,179.6,190.7,174.3,190.0,210.6,197.6,nan,nan,nan,140.7,189.4
WMO16746,SOUDA (AIRPORT) GREECE,35.48333,24.11667,151.0,nan,128.9,115.7,142.9,121.4,160.0,112.0,114.7,183.4,164.4,128.9,182.3,129.4,128.1,106.4
WMO17062,ISTANBUL TURKEY,40.90000,29.15000,nan,nan,84.6,98.0,135.6,54.0,89.0,113.6,nan,69.0,nan,nan,nan,nan,nan,nan
WMO17092,ERZINCAN TURKEY,39.70000,39.51667,1154.0,nan,96.6,139.3,145.4,78.0,80.7,100.7,131.3,118.1,168.7,95.7,147.3,144.9,160.7,125.9
WMO17150,BALIKESIR TURKEY,39.61667,27.91667,102.0,nan,81.4,114.6,103.0,76.0,81.6,127.0,110.0,104.0,124.6,90.3,120.6,95.9,60.0,103.9
WMO17202,ELAZIG TURKEY,38.60000,39.28333,881.0,nan,nan,94.4,110.0,70.0,72.1,117.4,135.6,106.0,183.3,104.6,120.1,175.4,140.1,129.4
WMO17255,KAHRAMANMARAS TURKEY,37.60000,36.93333,572.0,nan,86.6,106.9,143.7,63.3,62.7,137.6,124.1,87.3,163.1,58.1,127.6,112.0,96.4,83.3
WMO17351,ADANA/BOLGE TURKEY,36.98333,35.35000,27.0,nan,100.6,146.4,191.1,102.9,86.1,154.6,161.7,140.1,186.3,nan,nan,203.6,144.6,151.4
WMO20674,OSTROV DIKSON RUSSIAN FEDERATION (IN ASIA),73.50000,80.40000,46.0,nan,7.7,9.4,0.9,8.6,30.9,10.3,10.3,10.3,33.4,12.9,20.6,12.9,20.6,7.7
WMO21965,OSTROV CHETYREKHSTOLBOVOY RUSSIAN FEDERATION,70.60000,162.50000,nan,nan,nan,nan,nan,nan,nan,nan,nan,nan,nan,nan,nan,nan,nan,nan
WMO22602,REBOLY RUSSIAN FEDERATION (IN EUROPE),63.83333,30.81667,182.0,nan,nan,nan,nan,16.0,nan,nan,nan,nan,nan,nan,nan,nan,nan,nan
WMO23205,NAR'JAN-MAR RUSSIAN FEDERATION (IN ASIA),67.61667,53.01667,11.0,nan,79.6,75.9,56.6,46.0,66.1,64.1,77.4,39.0,58.3,nan,nan,37.0,52.9,33.4
WMO23472,TURUHANSK RUSSIAN FEDERATION (IN ASIA),65.78333,87.98333,37.0,nan,69.9,84.3,46.6,75.7,101.3,61.0,57.4,49.7,84.9,41.0,63.4,49.3,67.7,36.3
WMO23884,BOR RUSSIAN FEDERATION (IN ASIA),61.56667,90.01667,57.0,nan,81.1,90.3,59.0,99.6,103.7,78.6,80.9,55.1,89.1,52.3,72.9,nan,87.9,65.0
WMO24143,DZARDZAN RUSSIAN FEDERATION (IN ASIA),68.73333,124.00000,38.0,nan,nan,nan,nan,nan,nan,nan,nan,nan,nan,nan,nan,nan,nan,nan
WMO24713,NAKANNO RUSSIAN FEDERATION (IN ASIA),62.88333,108.43333,245.0,nan,113.0,102.9,91.6,102.4,119.0,97.9,106.4,100.4,90.4,nan,nan,nan,105.6,54.9
WMO25173,MYS SHMIDTA RUSSIAN FEDERATION (IN ASIA),68.90000,-179.63333,3.0,nan,nan,nan,nan,nan,nan,nan,nan,nan,nan,nan,nan,nan,nan,nan
WMO25538,VERHNEE PENZINO RUSSIAN FEDERATION (IN ASIA),64.21667,164.23333,325.0,nan,76.1,88.3,32.0,144.0,nan,nan,97.9,136.6,66.6,97.1,40.0,nan,nan,nan
WMO26038,TALLINN-HARKU ESTONIA,59.38333,24.60000,34.0,nan,61.7,76.9,49.3,51.7,44.6,108.1,72.6,38.6,33.9,54.4,40.0,69.0,56.4,65.3
WMO26393,VYSNIJ VOLOCEK RUSSIAN FEDERATION,57.58333,34.56667,nan,nan,nan,nan,nan,nan,nan,nan,nan,nan,nan,nan,nan,nan,nan,nan
WMO26629,KAUNAS LITHUANIA,54.88333,23.83333,76.0,nan,44.7,77.7,59.0,68.0,38.6,118.4,84.1,27.9,56.1,58.6,38.6,nan,64.7,59.4
WMO27199,KIROV RUSSIAN FEDERATION (IN EUROPE),58.56667,49.56667,158.0,nan,nan,nan,nan,nan,nan,nan,nan,nan,nan,nan,nan,nan,nan,nan
WMO28138,BISER RUSSIAN FEDERATION (IN ASIA),58.51667,58.85000,463.0,nan,33.0,98.6,49.9,91.7,105.1,115.6,167.4,91.9,63.9,67.4,57.0,62.1,110.4,48.6
WMO28573,ISHIM RUSSIAN FEDERATION (IN ASIA),56.10000,69.43333,82.0,nan,142.9,38.1,122.0,155.0,152.9,119.7,178.9,113.3,110.1,nan,nan,129.3,145.6,126.3
WMO28766,BLAGOVESHCHENKA KAZAKHSTAN,54.36667,66.96667,151.0,nan,nan,nan,nan,nan,nan,145.6,197.0,126.6,124.0,nan,nan,123.9,117.4,119.3
WMO29594,TAJSHET RUSSIAN FEDERATION (IN ASIA),55.95000,98.00000,306.0,nan,116.6,102.4,122.3,114.3,139.9,111.9,117.3,104.1,91.0,nan,nan,115.4,106.3,143.1
WMO30230,KIRENSK RUSSIAN FEDERATION (IN ASIA),57.76667,108.06667,258.0,nan,125.0,66.6,97.4,109.9,103.9,113.6,94.1,nan,92.7,nan,nan,nan,111.3,90.4
WMO30635,UST'-BARGUZIN RUSSIAN FEDERATION (IN ASIA),53.41667,109.01667,460.0,nan,nan,nan,nan,nan,nan,nan,nan,nan,nan,nan,nan,nan,nan,nan
WMO30949,KYRA RUSSIAN FEDERATION (IN ASIA),49.56667,111.96667,907.0,nan,193.1,189.3,217.3,216.7,173.3,192.4,215.7,201.7,196.7,189.9,213.6,193.7,209.6,nan
WMO31416,IM POLINY OSIPENKO RUSSIAN FEDERATION (IN ASIA),52.41667,136.50000,70.0,nan,181.6,192.6,189.6,182.0,168.0,175.7,222.9,167.3,160.7,134.1,212.3,nan,212.7,191.0
WMO32061,ALEKSANDROVSK-SAHALINSKIJ RUSSIAN FEDERATION (IN ASIA),50.90000,142.16667,31.0,nan,124.4,161.7,186.0,122.4,111.0,138.7,175.1,109.0,122.4,124.7,147.4,nan,156.6,160.1
WMO32389,KLJUCHI RUSSIAN FEDERATION (IN ASIA),56.31667,160.83333,28.0,nan,130.6,83.1,87.6,75.0,87.4,112.9,78.6,73.1,65.1,88.7,123.4,63.0,52.7,124.1
WMO33041,GOMEL BELARUS,52.40000,30.95000,126.0,nan,71.0,84.9,88.4,45.0,35.4,77.9,119.0,63.4,86.6,68.4,62.4,65.0,63.7,70.1
WMO33777,VOZNESENS'K UKRAINE,47.56667,31.33333,34.0,nan,nan,nan,nan,nan,nan,0.0,nan,nan,nan,nan,nan,nan,nan,nan
WMO33983,KERCH UKRAINE,45.40000,36.41667,49.0,nan,nan,nan,nan,nan,nan,nan,nan,nan,nan,nan,nan,nan,nan,nan
WMO34300,KHARKIV UKRAINE,49.96667,36.13333,155.0,nan,70.4,97.1,85.4,36.9,56.3,103.3,92.9,58.1,58.7,nan,nan,60.4,57.3,54.4
WMO34927,KRASNODAR-KRUGLIK RUSSIAN FEDERATION (IN EUROPE),45.05000,39.03333,29.0,nan,70.6,120.6,140.7,85.6,85.6,84.3,111.6,93.1,128.4,101.0,127.7,102.4,nan,nan
WMO35376,BERLIK KAZAKHSTAN,49.88333,69.51667,349.0,nan,134.4,132.9,nan,109.0,nan,nan,nan,nan,nan,nan,nan,nan,nan,nan
WMO36003,PAVLODAR KAZAKHSTAN,52.30000,76.93333,122.0,nan,154.3,96.7,138.6,103.0,158.7,158.9,153.0,128.0,117.3,nan,nan,nan,131.7,114.6
WMO36870,ALMATY KAZAKHSTAN,43.23333,76.93333,851.0,nan,106.4,113.7,134.0,70.0,71.3,85.3,101.4,121.0,112.1,116.4,180.1,123.0,103.0,136.1
WMO37472,MAHACHKALA RUSSIAN FEDERATION (IN EUROPE),43.00000,47.50000,-18.0,nan,82.0,145.3,117.3,57.9,60.7,67.7,83.0,48.0,101.3,91.0,106.3,nan,48.0,76.3
WMO37860,MASHTAGA AZERBAIJAN,40.53333,50.00000,28.0,nan,71.0,40.0,nan,51.0,29.3,60.9,69.0,55.0,35.0,72.9,82.0,89.0,55.0,70.0
WMO38341,ZHAMBYL KAZAKHSTAN,42.85000,71.38333,nan,nan,127.6,112.0,150.3,70.7,80.6,101.6,109.7,97.1,149.3,nan,nan,121.4,131.7,122.9
WMO38511,CHAGYL TURKMENISTAN,40.78333,55.33333,115.0,nan,nan,nan,188.0,125.3,122.9,122.9,153.4,124.1,112.1,80.6,178.0,154.0,119.3,107.0
WMO38734,DEHAVZ TAJIKISTAN,39.45000,70.20000,2561.0,nan,nan,nan,nan,nan,nan,nan,nan,nan,nan,nan,nan,nan,nan,nan
WMO38933,KURGAN-TYUBE TAJIKISTAN,37.81667,68.78333,427.0,nan,nan,nan,nan,nan,nan,nan,nan,nan,61.0,nan,nan,nan,106.0,101.0
WMO40100,BEYROUTH (AEROPORT) LEBANON,33.81667,35.48333,19.0,nan,110.4,136.7,nan,102.0,108.0,nan,nan,77.0,114.0,79.0,nan,289.0,nan,nan
WMO40255,IRBID JORDAN,32.60000,35.90000,nan,nan,nan,nan,nan,nan,nan,nan,nan,nan,nan,nan,nan,nan,nan,nan
WMO40373,AL-QAISUMAH SAUDI ARABIA,28.31667,46.13333,358.0,nan,nan,nan,nan,nan,nan,nan,nan,nan,nan,nan,nan,nan,nan,nan
WMO40435,AL-DAWADAMI SAUDI ARABIA,26.98333,44.11667,923.0,nan,nan,nan,nan,nan,nan,nan,nan,nan,nan,nan,nan,nan,nan,nan
WMO40650,BAGHDAD IRAQ,33.26667,44.23333,nan,nan,nan,nan,nan,nan,nan,nan,nan,nan,nan,nan,nan,nan,nan,nan
WMO40723,BOJNOURD IRAN ISLAMIC REPUBLIC OF,37.46667,57.33333,nan,nan,nan,nan,165.9,151.0,121.4,121.4,151.9,160.3,211.0,94.1,171.6,157.0,160.1,159.7
WMO40766,KERMANSHAH IRAN ISLAMIC REPUBLIC OF,34.35000,47.15000,1319.0,nan,133.9,139.7,175.7,153.0,135.7,143.0,174.0,212.0,186.3,178.0,185.9,nan,127.6,152.1
WMO40821,YAZD IRAN ISLAMIC REPUBLIC OF,31.90000,54.40000,nan,nan,205.1,221.1,240.0,192.0,nan,226.0,233.4,236.0,228.6,178.4,267.9,nan,198.9,222.4
WMO40911,MAZAR-I-SHARIF AFGHANISTAN ISLAMIC STATE OF,36.70000,67.20000,378.0,nan,nan,nan,nan,nan,nan,nan,nan,nan,nan,nan,nan,nan,nan,nan
WMO41061,WADI AL-DAWASSER AIRPORT SAUDI ARABIA,20.50000,45.25000,622.0,nan,258.7,173.6,265.0,276.0,264.0,254.1,152.0,277.4,279.0,269.0,287.4,303.0,272.0,239.6
WMO41196,SHARJAH INTERNATIONAL AIRPORT UNITED ARAB EMIRATES,25.33333,55.51667,33.0,nan,237.7,249.0,256.7,nan,249.0,252.0,nan,nan,nan,nan,nan,nan,nan,nan
WMO41256,MUSCAT INT'L AIRPORT OMAN,23.58333,58.28333,8.0,nan,nan,nan,nan,nan,nan,215.9,nan,224.9,193.4,241.0,250.0,198.9,271.3,262.0
WMO41287,JOBA OMAN,20.86667,58.23333,34.0,nan,nan,nan,nan,nan,nan,nan,nan,nan,nan,nan,nan,nan,nan,nan
WMO41515,DROSH PAKISTAN,35.56667,71.78333,1465.0,nan,nan,nan,nan,nan,nan,nan,nan,nan,nan,nan,nan,nan,nan,nan
WMO41685,BARKHAN PAKISTAN,29.88333,69.71667,1098.0,nan,nan,nan,nan,nan,nan,nan,nan,nan,nan,nan,nan,nan,nan,nan
WMO41764,HYDERABAD PAKISTAN,25.38333,68.41667,30.0,nan,nan,nan,nan,nan,nan,nan,nan,nan,nan,nan,nan,nan,nan,nan
WMO41923,DHAKA BANGLADESH,23.76667,90.38333,9.0,nan,nan,nan,nan,nan,nan,nan,199.0,188.0,168.4,148.9,172.3,203.0,150.6,180.0
WMO42314,DIBRUGARH /MOHANBARI INDIA (STATIONS NORTH OF LATITUDE 20~N),27.48333,95.01667,111.0,nan,139.7,138.3,155.0,188.4,172.1,188.3,135.0,225.0,167.1,nan,nan,nan,132.4,153.4
WMO42909,VERAVAL INDIA (STATIONS NORTH OF LATITUDE 20~N),20.90000,70.36667,11.0,nan,nan,nan,nan,nan,nan,nan,nan,nan,nan,nan,nan,nan,nan,nan
WMO43295,BANGALORE INDIA (STATIONS SOUTH OF LATITUDE 20~N),12.96667,77.58333,923.0,nan,233.7,208.3,179.1,238.9,300.7,214.3,236.3,216.3,197.4,245.3,213.9,226.9,223.4,229.4
WMO44213,BARUUNTURUUN MONGOLIA,49.65000,94.40000,1232.0,nan,nan,nan,nan,nan,nan,nan,nan,nan,nan,nan,nan,nan,nan,nan
WMO44277,ALTAI MONGOLIA,46.40000,96.25000,2181.0,nan,nan,nan,nan,nan,nan,nan,nan,nan,nan,nan,149.0,nan,131.6,nan
WMO44373,DALANZADGAD MONGOLIA,43.58333,104.41667,1465.0,nan,209.1,208.6,226.3,183.4,153.3,211.3,243.1,219.1,207.1,nan,nan,nan,nan,nan
WMO47014,CHUNGGANG DEMOCRATIC PEOPLE'S REPUBLIC OF KOREA,41.78333,126.88333,331.0,nan,121.4,nan,119.0,128.6,135.0,147.0,122.0,117.0,nan,123.0,138.6,nan,106.6,144.0
WMO47112,INCHEON REPUBLIC OF KOREA,37.46667,126.61667,69.0,nan,nan,nan,nan,nan,152.4,175.6,207.1,187.7,180.1,nan,nan,nan,217.6,201.3
WMO47407,ASAHIKAWA JAPAN,43.75000,142.36667,140.0,nan,67.9,105.9,109.9,78.1,85.7,100.3,74.7,106.0,99.6,nan,nan,61.6,91.9,76.3
WMO47582,AKITA JAPAN,39.71667,140.08333,21.0,nan,50.0,103.4,41.1,63.9,79.7,89.3,59.0,49.4,51.3,82.0,55.0,46.0,65.7,65.4
WMO47618,MATSUMOTO JAPAN,36.25000,137.96667,nan,nan,138.9,186.1,nan,nan,nan,nan,nan,nan,nan,nan,nan,nan,nan,nan
WMO47678,HACHIJOJIMA JAPAN,33.11667,139.76667,156.0,nan,65.9,100.6,95.3,104.4,69.9,98.0,58.4,82.6,85.4,91.9,87.1,nan,90.9,82.1
WMO47800,IZUHARA JAPAN,34.18333,129.28333,4.0,nan,123.9,150.1,189.6,118.3,115.1,124.3,107.7,163.4,90.6,136.6,153.9,170.4,143.3,138.3
WMO47893,KOCHI JAPAN,33.56667,133.53333,4.0,nan,nan,nan,205.4,151.0,160.7,176.9,163.7,182.0,159.4,187.7,180.7,189.7,186.6,160.0
WMO47991,MINAMITORISHIMA JAPAN,24.28333,153.98333,8.0,nan,167.3,165.9,180.1,183.1,191.1,144.1,174.4,192.4,148.6,165.3,228.6,nan,178.9,180.0
WMO48462,ARANYAPRATHET THAILAND,13.68333,102.50000,49.0,nan,nan,nan,nan,nan,nan,nan,nan,nan,nan,nan,nan,nan,nan,nan
WMO48657,KUANTAN MALAYSIA (PENINSULAR MALAYSIA),3.78333,103.21667,16.0,nan,nan,nan,nan,nan,nan,nan,nan,nan,nan,nan,nan,nan,nan,nan
WMO48830,LANG SON VIET NAM,21.83333,106.76667,263.0,nan,nan,89.9,28.4,125.6,nan,60.1,nan,49.4,60.7,nan,nan,88.0,nan,72.9
WMO48914,CA MAU VIET NAM,9.18333,105.15000,2.0,nan,nan,234.7,167.1,178.9,nan,176.4,130.0,174.9,227.7,228.6,212.3,176.9,nan,215.4
WMO48991,PHNOM-PENH (KHMOUGH) CAMBODIA,11.60000,104.86667,10.0,nan,nan,nan,nan,nan,257.6,222.6,218.9,207.4,257.1,242.0,nan,nan,nan,nan
WMO51709,KASHI CHINA,39.48333,75.75000,1386.0,nan,131.4,215.3,133.0,179.7,144.7,160.6,141.3,182.3,171.9,144.1,181.4,146.0,152.3,128.6
WMO52681,MINQIN CHINA,38.63333,103.08333,1369.0,nan,226.4,238.0,236.3,220.9,220.9,208.9,220.9,238.0,212.1,228.1,247.4,228.9,241.3,240.7
WMO53845,YAN AN CHINA,36.58333,109.45000,1181.0,nan,182.4,217.9,216.9,176.7,184.7,156.1,183.0,218.1,143.1,195.1,229.4,200.6,220.6,151.4
WMO54857,QINGDAO CHINA,36.06667,120.33333,77.0,nan,139.9,178.9,197.9,109.1,110.1,152.9,167.9,101.3,150.6,155.4,165.3,162.3,150.3,111.4
WMO56187,WENJIANG CHINA,30.75000,103.86667,555.0,nan,34.0,66.7,54.0,51.6,40.6,48.1,20.9,53.0,25.1,56.0,93.0,42.6,84.0,48.4
WMO57083,ZHENGZHOU CHINA,34.71667,113.65000,111.0,nan,109.7,118.3,154.4,63.1,105.0,87.3,102.7,84.6,78.3,131.7,171.4,nan,154.1,74.4
WMO57993,GANZHOU CHINA,25.86667,115.00000,138.0,nan,50.7,113.3,81.4,112.7,80.9,95.1,35.6,66.1,95.0,73.7,111.7,99.0,122.9,nan
WMO59211,BAISE CHINA,23.90000,106.60000,177.0,nan,53.3,93.1,46.6,166.6,122.7,96.0,36.9,93.3,89.1,nan,nan,nan,78.0,67.4
WMO60010,IZANA SPAIN (CANARY ISLANDS),28.30000,-16.48333,2368.0,nan,nan,272.9,233.1,206.0,nan,231.0,233.1,269.1,270.0,250.1,248.3,254.7,202.7,285.6
WMO60120,KENITRA MOROCCO,34.30000,-6.58333,nan,nan,151.4,187.3,189.9,169.0,140.9,221.3,240.6,195.7,189.3,173.0,186.0,nan,192.7,207.4
WMO60320,CEUTA SPAIN (CEUTA AND MELILLA),35.90000,-5.33333,88.0,nan,nan,nan,nan,nan,nan,nan,nan,nan,169.4,nan,nan,nan,183.6,160.9
WMO60387,DELLYS ALGERIA,36.91667,3.95000,8.0,nan,160.0,173.7,195.0,186.0,151.3,156.7,158.4,142.6,nan,nan,nan,155.0,158.0,nan
WMO60423,SOUK AHRAS ALGERIA,36.28333,7.96667,680.0,nan,120.3,171.1,216.3,145.3,167.0,174.9,145.1,162.0,180.6,nan,nan,156.1,165.3,183.7
WMO60467,M'SILA ALGERIA,35.66667,4.50000,442.0,nan,175.4,207.1,229.7,209.7,185.0,200.4,242.0,190.9,210.0,nan,nan,210.6,202.6,237.1
WMO60514,KSAR CHELLALA ALGERIA,35.16667,2.31667,801.0,nan,171.9,187.1,213.4,220.7,156.3,195.7,219.4,199.3,185.4,nan,nan,172.3,195.1,241.0
WMO60536,SAIDA ALGERIA,34.86667,0.15000,752.0,nan,154.3,164.7,189.0,205.3,147.6,197.3,227.9,197.9,178.4,125.3,189.6,178.1,189.1,nan
WMO60566,GHARDAIA ALGERIA,32.40000,3.80000,469.0,nan,228.1,234.0,248.9,257.6,209.1,250.9,263.9,262.0,245.7,221.3,251.3,227.3,222.0,225.4
WMO60630,IN-SALAH ALGERIA,27.23333,2.50000,269.0,nan,223.1,255.4,257.1,238.3,251.3,269.7,267.3,294.9,249.4,256.0,264.0,nan,220.7,272.6
WMO60735,KAIROUAN TUNISIA,35.66667,10.10000,68.0,nan,191.0,193.7,211.7,192.4,186.1,207.7,205.1,185.6,202.1,nan,nan,nan,nan,nan
WMO61053,DOSSO NIGER,13.03333,3.30000,213.0,nan,nan,nan,nan,nan,nan,nan,243.0,nan,288.0,nan,263.0,256.0,251.0,299.0
WMO61223,TOMBOUCTOU MALI,16.71667,-3.00000,264.0,nan,263.0,nan,nan,225.4,261.4,272.6,235.6,nan,nan,nan,nan,nan,nan,nan
WMO61272,SEGOU MALI,13.40000,-6.15000,289.0,nan,nan,nan,264.6,nan,nan,269.9,241.7,nan,265.9,262.6,255.3,235.9,211.7,260.0
WMO61415,NOUADHIBOU MAURITANIA,20.93333,-17.03333,3.0,nan,251.0,218.0,232.6,287.0,248.0,264.0,nan,249.9,287.9,223.4,246.4,nan,nan,nan
WMO61499,AIOUN EL ATROUSS MAURITANIA,16.70000,-9.60000,223.0,nan,nan,nan,nan,nan,nan,nan,nan,nan,nan,nan,nan,nan,nan,nan
WMO61695,ZIGUINCHOR SENEGAL,12.55000,-16.26667,nan,nan,218.0,nan,222.3,250.7,223.0,247.1,225.3,252.6,255.1,nan,nan,nan,nan,nan
WMO61818,KINDIA GUINEA,10.05000,-12.86667,nan,nan,nan,nan,nan,nan,nan,nan,nan,nan,nan,nan,nan,nan,nan,nan
WMO61878,NJALA SIERRA LEONE,8.10000,-12.10000,56.0,nan,nan,nan,nan,nan,nan,nan,nan,nan,nan,nan,nan,nan,nan,nan
WMO61974,AGALEGA MAURITIUS,-10.38333,56.60000,4.0,nan,192.6,142.0,176.0,221.7,204.0,193.3,158.3,216.4,160.7,175.7,178.1,197.1,224.3,157.0
WMO62002,NALUT LIBYA,31.86667,10.98333,621.0,nan,nan,nan,226.7,245.1,256.9,213.7,222.0,255.6,227.3,219.9,256.1,227.3,nan,nan
WMO62055,AGEDABIA LIBYA,30.71667,20.16667,7.0,nan,191.0,nan,213.6,200.9,217.9,211.0,nan,nan,nan,nan,nan,nan,nan,nan
WMO62176,GIGHBUB LIBYA,29.75000,24.53333,-1.0,nan,nan,nan,258.0,273.6,266.9,259.0,nan,263.7,nan,nan,nan,nan,nan,nan
WMO62387,MINYA EGYPT,28.08333,30.73333,40.0,nan,nan,nan,nan,nan,271.7,243.0,nan,252.4,nan,281.4,nan,254.6,nan,nan
WMO62464,HURGUADA POLLUTION EGYPT,27.28333,33.73333,6.0,nan,nan,nan,nan,nan,nan,nan,nan,nan,nan,nan,nan,nan,nan,nan
WMO62730,KASSALA SUDAN,15.46667,36.40000,500.0,nan,293.9,279.1,290.7,282.3,242.3,282.0,280.0,292.9,294.7,nan,nan,nan,283.9,281.0
WMO62781,EN NAHUD SUDAN,12.70000,28.43333,564.0,nan,295.6,278.0,242.1,283.1,242.1,261.7,266.6,265.0,280.3,274.0,286.6,nan,246.9,nan
WMO63021,ASMARA ERITREA,15.28333,38.91667,2325.0,nan,nan,nan,nan,nan,nan,nan,nan,nan,nan,nan,nan,nan,nan,nan
WMO63630,GULU UGANDA,2.75000,32.33333,1105.0,nan,nan,nan,nan,nan,nan,nan,nan,nan,nan,nan,nan,nan,nan,nan
WMO63820,MOMBASA INTERNATIONAL AIRPORT KENYA,-4.00000,39.60000,nan,nan,nan,nan,nan,233.0,nan,nan,253.0,nan,227.9,nan,nan,nan,249.3,nan
WMO64247,MBUJI-MAYI DEMOCRATIC REPUBLIC OF THE CONGO,-6.16667,23.61667,677.0,nan,nan,nan,nan,nan,nan,nan,nan,nan,nan,nan,nan,nan,nan,nan
WMO64453,DJAMBALA CONGO,-2.53333,14.76667,790.0,nan,nan,nan,nan,nan,nan,nan,172.0,168.1,132.9,nan,nan,nan,144.0,130.0
WMO64507,TCHIBANGA GABON,-2.85000,11.01667,79.0,nan,nan,nan,nan,nan,nan,nan,nan,nan,nan,nan,nan,nan,nan,nan
WMO64605,BOSSEMBELE CENTRAL AFRICAN REPUBLIC,5.26667,17.63333,674.0,nan,nan,nan,nan,214.0,nan,nan,nan,nan,nan,nan,nan,nan,nan,nan
WMO64700,NDJAMENA CHAD,12.13333,15.03333,295.0,nan,266.0,283.1,279.0,247.0,nan,260.1,263.3,274.3,287.4,265.3,280.7,308.0,276.9,nan
WMO64754,AM-TIMAN CHAD,11.03333,20.28333,436.0,nan,nan,nan,nan,nan,nan,nan,nan,nan,nan,nan,nan,nan,nan,nan
WMO64900,YOKO CAMEROON,5.55000,12.36667,1031.0,nan,nan,nan,nan,nan,nan,nan,nan,nan,nan,nan,nan,nan,nan,nan
WMO65123,MINNA NIGERIA,9.61667,6.53333,256.0,nan,nan,nan,nan,194.3,257.4,234.1,187.0,213.0,233.9,nan,198.3,228.7,231.3,224.1
WMO65338,BOHICON BENIN,7.16667,2.06667,167.0,nan,198.0,188.0,83.9,187.0,220.6,183.0,151.6,196.1,203.6,198.0,195.4,199.1,180.3,207.1
WMO65387,LOME TOGO,6.16667,1.25000,25.0,nan,193.0,nan,nan,207.1,231.0,148.0,157.1,nan,nan,nan,nan,nan,nan,233.0
WMO65502,OUAHIGOUYA BURKINA FASO,13.58333,-2.43333,nan,nan,273.0,280.3,287.0,233.4,289.0,266.6,250.9,277.4,265.6,nan,nan,nan,241.6,296.0
WMO65545,BONDOUKOU COTE D'IVOIRE,8.05000,-2.78333,370.0,nan,238.0,nan,nan,nan,236.3,237.0,nan,nan,nan,221.4,235.6,223.0,nan,nan
WMO65594,SAN PEDRO COTE D'IVOIRE,4.75000,-6.65000,30.0,nan,189.0,nan,nan,nan,230.3,nan,56.0,nan,186.0,nan,nan,190.4,nan,nan
WMO67009,ANTSIRANANA MADAGASCAR,-12.35000,49.30000,105.0,nan,127.6,152.9,nan,187.6,nan,148.6,159.6,nan,102.3,176.0,163.6,189.0,nan,142.0
WMO67161,TOLIARA MADAGASCAR,-23.38333,43.73333,8.0,nan,nan,nan,nan,nan,nan,nan,nan,nan,nan,nan,nan,nan,nan,nan
WMO67283,QUELIMANE MOZAMBIQUE,-17.88333,36.88333,16.0,nan,nan,164.0,251.6,211.3,186.0,nan,200.0,175.0,213.4,nan,nan,nan,nan,nan
WMO67346,CHANGALANE MOZAMBIQUE,-26.28333,32.18333,104.0,nan,nan,nan,nan,nan,nan,nan,nan,nan,252.0,nan,196.3,204.0,157.4,nan
WMO67693,CHILEKA MALAWI,-15.68333,34.96667,767.0,nan,nan,nan,nan,nan,nan,nan,nan,nan,nan,nan,nan,nan,nan,nan
WMO68006,ONDANGWA NAMIBIA,-17.93333,15.98333,nan,nan,nan,nan,nan,nan,nan,nan,nan,nan,nan,nan,nan,nan,nan,nan
WMO68174,POLOKWANE SOUTH AFRICA,-23.86667,29.45000,1226.0,nan,212.7,288.4,247.6,217.4,247.9,234.3,261.4,247.3,241.0,256.9,243.9,197.6,179.6,219.4
WMO68442,BLOEMFONTEIN AIRPORT SOUTH AFRICA,-29.10000,26.30000,1353.0,nan,197.4,302.6,247.0,199.3,248.7,239.0,234.0,288.1,223.0,nan,nan,190.1,253.6,279.7
WMO68828,GEORGE AIRPORT SOUTH AFRICA,-34.01667,22.38333,191.0,nan,165.3,215.3,217.9,214.0,219.4,167.3,227.3,264.1,212.6,nan,nan,219.6,209.1,221.7
WMO70231,MCGRATH AK UNITED STATES OF AMERICA (ALASKA),62.95000,-155.58333,103.0,nan,nan,nan,nan,nan,nan,nan,nan,nan,nan,nan,nan,nan,nan,nan
WMO71066,HIGH LEVEL ALTA CANADA,58.61667,-117.15000,nan,nan,nan,nan,nan,nan,nan,nan,nan,nan,nan,nan,nan,nan,nan,nan
WMO71299,KAPUSKASING CDA ON ONT CANADA,49.40000,-82.43333,nan,nan,nan,nan,nan,nan,nan,nan,nan,nan,nan,nan,nan,nan,nan,nan
WMO71727,BAGOTVILLE A QUE CANADA,48.33333,-71.00000,nan,nan,nan,nan,nan,nan,nan,nan,nan,nan,nan,nan,nan,nan,nan,nan
WMO71831,KAPUSKASING CANADA,49.40000,-82.50000,nan,nan,nan,nan,nan,nan,nan,nan,nan,nan,nan,nan,nan,nan,nan,nan
WMO71874,LETHBRIDGE AIRPORT CANADA,49.60000,-112.80000,nan,nan,nan,nan,nan,nan,nan,nan,nan,nan,nan,nan,nan,nan,nan,nan
WMO71915,CORAL HARBOUR A NU CANADA,64.18333,-83.35000,nan,nan,nan,nan,nan,nan,nan,nan,nan,nan,nan,nan,nan,nan,nan,nan
WMO71957,INUVIK/NWT (SY) CANADA,68.30000,-133.48333,nan,nan,nan,nan,nan,nan,nan,nan,nan,nan,nan,nan,nan,nan,nan,nan
WMO72226,MONTGOMERY/DANNELLY  AL. UNITED STATES OF AMERICA,32.30000,-86.40000,62.0,nan,nan,nan,nan,nan,nan,nan,nan,nan,nan,nan,nan,nan,nan,nan
WMO72259,DALLAS-FORT WORTH/FORT WORTH REG.AIRPORT TX. UNITED STATES OF AMERICA,32.90000,-97.03333,182.0,nan,nan,nan,nan,nan,nan,nan,nan,nan,nan,nan,nan,nan,nan,nan
WMO72308,NORFOLK/INT. VA. UNITED STATES OF AMERICA,36.90000,-76.20000,9.0,nan,nan,nan,nan,nan,nan,nan,nan,nan,nan,nan,nan,nan,nan,nan
WMO72344,FORT SMITH/MUN. AR. UNITED STATES OF AMERICA,35.33333,-94.36667,141.0,nan,nan,nan,nan,nan,nan,nan,nan,nan,nan,nan,nan,nan,nan,nan
WMO72406,BALTIMORE/BALTIMORE-WASHINGTON INT. MD. UNITED STATES OF AMERICA,39.18333,-76.66667,47.0,nan,nan,nan,nan,nan,nan,nan,nan,nan,nan,nan,nan,nan,nan,nan
WMO72439,SPRINGFIELD/CAPITAL  IL. UNITED STATES OF AMERICA,39.85000,-89.66667,187.0,nan,nan,nan,nan,nan,nan,nan,nan,nan,nan,nan,nan,nan,nan,nan
WMO72483,SACRAMENTO/EXECUTIVE CA. UNITED STATES OF AMERICA,38.51667,-121.50000,8.0,nan,nan,nan,nan,nan,nan,nan,nan,nan,nan,nan,nan,nan,nan,nan
WMO72517,ALLENTOWN/A.-BETHLEHEM-EASTON PA. UNITED STATES OF AMERICA,40.65000,-75.43333,117.0,nan,nan,nan,nan,nan,nan,nan,nan,nan,nan,nan,nan,nan,nan,nan
WMO72537,DETROIT/METROPOLITAN MI. UNITED STATES OF AMERICA,42.23333,-83.33333,202.0,nan,nan,nan,nan,nan,nan,nan,nan,nan,nan,nan,nan,nan,nan,nan
WMO72597,MEDFORD/MEDFORD-JACKSON COUNTY OR. UNITED STATES OF AMERICA,42.36667,-122.86667,398.0,nan,nan,nan,nan,nan,nan,nan,nan,nan,nan,nan,nan,nan,nan,nan
WMO72658,MINNEAPOLIS/ST.PAUL INT. MN. UNITED STATES OF AMERICA,44.88333,-93.21667,255.0,nan,nan,nan,nan,nan,nan,nan,nan,nan,nan,nan,nan,nan,nan,nan
WMO72753,FARGO/HECTOR FIELD  ND. UNITED STATES OF AMERICA,46.90000,-96.80000,274.0,nan,nan,nan,nan,nan,nan,nan,nan,nan,nan,nan,nan,nan,nan,nan
WMO76040,EJIDO NUEVO LEON MEXICO,32.40000,-115.18333,nan,nan,234.7,252.9,270.0,249.9,234.0,259.0,265.0,267.0,223.9,239.3,275.3,nan,253.0,216.7
WMO76256,EMPALME SON. MEXICO,27.95000,-110.80000,nan,nan,254.6,286.7,281.1,255.3,246.7,280.6,255.3,232.6,247.1,252.3,252.9,245.6,203.3,210.7
WMO76402,CIUDAD CONSTITUCION BCS MEXICO,25.00000,-111.63333,nan,nan,239.6,232.7,254.6,239.7,228.9,269.7,243.6,234.4,250.3,nan,nan,nan,187.9,193.7
WMO76539,SAN LUIS POTOSI  S.L.P. MEXICO,22.20000,-101.01667,nan,nan,246.1,211.3,247.6,240.9,175.0,231.6,203.4,218.4,195.0,nan,203.3,nan,166.0,201.0
WMO76612,GUADALAJARA JAL. MEXICO,20.70000,-103.38333,nan,nan,nan,nan,nan,nan,nan,nan,nan,260.0,252.0,nan,243.7,262.9,217.4,nan
WMO76658,COLIMA MEXICO,19.23333,-103.73333,nan,nan,268.7,254.4,300.7,267.1,203.4,271.0,181.0,263.0,263.3,203.1,242.9,nan,226.7,269.1
WMO76692,HACIENDA YLANG YLANG VERACRUZ VER. MEXICO,19.15000,-96.13333,nan,nan,183.6,164.7,209.3,212.3,98.4,173.9,166.0,171.6,202.4,157.9,126.9,nan,212.6,213.9
WMO76805,ACAPULCO GRO. MEXICO,16.75000,-99.75000,nan,nan,278.9,271.0,282.7,281.6,221.7,284.6,255.9,280.0,279.6,251.6,303.1,289.3,270.1,285.7
WMO78310,CABO SAN ANTONIO  PINAR DEL RIO CUBA,21.86667,-84.95000,8.0,nan,nan,nan,nan,nan,184.1,188.7,nan,nan,nan,nan,nan,nan,nan,nan
WMO78482,BARAHONA DOMINICAN REPUBLIC,18.20000,-71.10000,nan,nan,nan,nan,nan,nan,nan,nan,nan,nan,nan,nan,nan,nan,nan,nan
WMO78760,PUNTARENAS COSTA RICA,9.96667,-84.83333,3.0,nan,nan,nan,nan,nan,nan,nan,nan,nan,nan,nan,nan,nan,nan,nan
WMO80001,SAN ANDRES (ISLA)/SESQUICENTENARIO COLOMBIA,12.58333,-81.71667,6.0,nan,228.3,254.0,256.3,233.0,222.3,223.4,251.1,248.4,264.6,243.1,254.3,202.0,259.0,243.6
WMO80094,BUCARAMANGA/PALONEGRO COLOMBIA,7.10000,-73.20000,1189.0,nan,186.6,225.0,175.6,155.1,166.9,150.0,166.4,171.3,193.0,175.6,167.3,nan,nan,171.3
WMO80219,GIRARDOT/SANTIAGO VILLA COLOMBIA,4.28333,-74.80000,293.0,nan,nan,nan,nan,nan,nan,nan,nan,nan,nan,nan,nan,nan,nan,nan
WMO80398,LETICIA/VASQUEZ COBO COLOMBIA,-4.16667,-69.95000,84.0,nan,117.1,156.4,93.1,135.7,103.4,94.3,113.9,95.0,92.7,nan,nan,nan,nan,97.9
WMO80420,CUMANA VENEZUELA,10.45000,-64.18333,4.0,nan,257.1,272.0,276.4,236.7,280.4,244.3,253.4,265.9,258.1,nan,nan,nan,nan,nan
WMO80435,MATURIN VENEZUELA,9.75000,-63.18333,66.0,nan,233.1,262.4,231.0,204.1,242.6,212.0,212.4,244.0,208.4,nan,nan,nan,nan,nan
WMO80457,PUERTO AYACUCHO VENEZUELA,5.60000,-67.50000,74.0,nan,236.9,258.0,234.6,231.4,280.0,209.0,238.1,189.4,236.1,229.6,306.0,nan,nan,nan
WMO81401,SAINT-LAURENT FRENCH GUIANA,5.48333,-54.01667,5.0,nan,nan,126.1,nan,nan,nan,nan,nan,nan,nan,nan,nan,97.1,82.6,145.3
WMO82184,PORTO DE MOZ BRAZIL,-1.73333,-52.23333,16.0,nan,111.9,143.3,136.0,104.0,nan,nan,nan,nan,nan,nan,nan,nan,nan,nan
WMO82397,FORTALEZA BRAZIL,-3.76667,-38.60000,26.0,nan,186.0,157.4,236.0,171.6,229.6,169.1,203.6,235.3,200.7,nan,nan,189.0,159.6,149.0
WMO82586,QUIXERAMOBIM BRAZIL,-5.20000,-39.30000,212.0,nan,187.7,164.0,223.9,184.6,201.1,183.6,198.3,235.6,180.7,nan,nan,nan,nan,169.9
WMO82900,RECIFE BRAZIL,-8.05000,-34.91667,7.0,nan,222.0,211.4,251.9,165.1,178.0,205.1,191.0,208.4,125.6,236.6,188.1,218.9,192.7,183.4
WMO83236,BARREIRAS BRAZIL,-12.15000,-45.00000,439.0,nan,161.9,155.6,189.0,193.1,nan,162.4,222.4,232.7,188.0,185.1,265.1,nan,179.1,204.0
WMO83437,MONTES CLAROS BRAZIL,-16.71667,-43.86667,646.0,nan,232.3,152.9,212.3,227.3,255.4,235.0,239.0,247.0,267.6,202.6,249.4,180.4,142.0,222.1
WMO83618,TRES LAGOAS BRAZIL,-20.78333,-51.70000,313.0,nan,174.0,184.0,170.7,171.9,nan,nan,nan,nan,nan,nan,nan,nan,nan,nan
WMO83726,SAO CARLOS BRAZIL,-22.01667,-47.88333,856.0,nan,140.9,154.1,141.7,140.0,175.9,nan,197.4,141.9,237.0,157.0,137.0,nan,nan,nan
WMO83997,ST.VITORIA DO PALMAR BRAZIL,-33.51667,-53.35000,24.0,nan,224.3,225.7,205.9,242.3,185.0,239.4,197.7,217.7,153.7,243.6,248.7,nan,250.0,226.6
WMO84140,PICHILINGUE ECUADOR,-1.10000,-79.45000,nan,nan,nan,nan,nan,69.0,67.4,74.1,94.7,61.9,47.6,90.4,71.3,106.0,72.1,65.9
WMO85033,GUAYARAMERIN BOLIVIA,-10.81667,-65.35000,nan,nan,nan,132.0,135.0,nan,119.0,nan,nan,nan,nan,nan,nan,nan,nan,nan
WMO85154,TRINIDAD BOLIVIA,-14.81667,-64.91667,nan,nan,nan,185.0,189.0,nan,149.4,105.7,179.0,109.0,93.1,nan,nan,137.7,106.3,136.0
WMO85406,ARICA CHILE,-18.35000,-70.33333,nan,nan,256.4,259.0,287.0,264.9,234.1,231.6,241.9,269.3,292.9,208.7,250.0,260.6,258.6,236.6
WMO85577,QUINTA NORMAL CHILE,-33.43333,-70.66667,nan,nan,282.6,260.9,274.4,297.1,291.6,289.3,313.0,295.1,308.4,293.0,305.7,290.6,298.9,300.7
WMO85864,COYHAIQUE CHILE,-45.58333,-73.10000,nan,nan,203.1,227.4,239.3,155.6,202.3,210.0,171.1,195.1,237.6,249.9,218.1,198.1,229.7,248.9
WMO86086,PUERTO CASADO PARAGUAY,-22.28333,-57.93333,78.0,nan,nan,nan,nan,nan,nan,158.1,221.7,226.9,236.6,nan,nan,nan,197.4,228.3
WMO86221,PARAGUARI PARAGUAY,-25.63333,-57.13333,116.0,nan,nan,nan,nan,nan,nan,171.1,223.6,228.9,233.1,203.1,193.7,231.6,232.0,234.4
WMO86285,CAPITAN MEZA PARAGUAY,-26.83333,-55.33333,263.0,nan,nan,nan,nan,nan,nan,164.7,247.6,237.3,217.7,203.7,192.9,nan,207.3,220.9
WMO86560,COLONIA URUGUAY,-34.45000,-57.76667,20.0,nan,214.0,nan,nan,nan,nan,nan,nan,nan,nan,nan,nan,195.9,264.4,252.0
WMO87078,LAS LOMITAS ARGENTINA,-24.70000,-60.58333,130.0,nan,240.0,231.7,211.0,179.9,220.4,168.3,184.3,229.3,220.9,nan,nan,209.3,175.4,210.9
WMO87166,CORRIENTES AERO. ARGENTINA,-27.45000,-58.76667,62.0,nan,300.0,nan,nan,nan,nan,nan,nan,nan,nan,nan,nan,nan,nan,nan
WMO87289,PASO DE LOS LIBRES AERO ARGENTINA,-29.68333,-57.15000,70.0,nan,250.0,227.0,237.4,208.6,192.4,211.4,232.1,232.4,211.7,224.9,224.1,204.6,245.1,223.1
WMO87374,PARANA AERO ARGENTINA,-31.78333,-60.48333,78.0,nan,241.0,233.3,259.1,269.3,219.0,247.4,248.6,268.4,194.6,205.1,245.9,236.4,260.6,270.9
WMO87484,PERGAMINO ARGENTINA,-33.93333,-60.55000,nan,nan,nan,nan,nan,nan,nan,nan,nan,nan,nan,nan,nan,nan,nan,nan
WMO87550,NUEVE DE JULIO ARGENTINA,-35.45000,-60.88333,76.0,nan,nan,nan,nan,nan,nan,nan,nan,nan,nan,nan,nan,nan,nan,nan
WMO87640,BOLIVAR AERO ARGENTINA,-36.20000,-61.06667,94.0,nan,288.0,282.0,234.4,280.3,217.6,266.9,231.1,296.6,222.6,nan,nan,254.6,300.7,285.1
WMO87692,MAR DEL PLATA AERO ARGENTINA,-37.93333,-57.58333,21.0,nan,213.6,147.9,181.0,225.1,206.4,230.9,200.7,225.4,173.9,189.0,204.4,137.7,208.9,225.4
WMO87800,EL BOLSON AERO ARGENTINA,-41.96667,-71.51667,337.0,nan,233.7,nan,nan,nan,nan,nan,nan,nan,nan,nan,nan,nan,nan,nan
WMO87903,LAGO ARGENTINO ARGENTINA,-50.33333,-72.30000,nan,nan,nan,nan,nan,nan,nan,nan,nan,nan,nan,nan,nan,nan,nan,nan
WMO88903,GRYTVIKEN  SOUTH GEORGIA ISLANDS(UNITED KINGDOM OF GREAT BRITAIN),-54.28333,-36.48333,3.0,nan,nan,138.0,140.4,158.3,113.3,153.6,147.6,135.3,148.6,nan,nan,163.0,nan,nan
WMO89042,SIGNY ISLAND / SOUTH ORKNEY ISL. ANTARCTICA,-60.70000,-45.60000,nan,nan,nan,nan,nan,nan,nan,nan,nan,nan,nan,nan,nan,nan,nan,nan
WMO89063,VERNADSKY STATIONS OPERATED BY UKRAINE,-65.25000,-64.26667,11.0,nan,nan,nan,nan,nan,nan,nan,nan,nan,nan,nan,nan,52.0,91.6,124.7
WMO89606,VOSTOK STATIONS OPERATED BY THE RUSSIAN FEDERATION,-78.45000,106.85000,3489.0,nan,602.1,627.1,616.0,523.0,596.6,522.3,610.3,702.0,594.7,610.7,647.4,606.7,607.3,nan
WMO91275,JOHNSTON ISLAND (WSO AIRPORT) ISLANDS IN THE PACIFIC OCEAN NORTH OF THE EQUATOR,16.70000,-169.50000,nan,nan,nan,nan,nan,nan,nan,nan,nan,nan,nan,nan,nan,nan,nan,nan
WMO91557,BAUERFIELD (EFATE) VANUATU,-17.70000,168.30000,21.0,nan,nan,nan,nan,nan,nan,nan,nan,nan,nan,nan,nan,nan,nan,nan
WMO91683,NAUSORI FIJI,-18.05000,178.56667,7.0,nan,nan,nan,nan,nan,nan,nan,nan,nan,nan,nan,nan,nan,nan,nan
WMO91938,TAHITI-FAAA FRENCH POLYNESIA (SOCIETY ISLANDS),-17.55000,-149.60000,2.0,nan,193.1,208.1,197.9,216.0,109.3,209.6,212.1,169.1,149.9,nan,nan,nan,140.3,184.6
WMO91958,RAPA FRENCH POLYNESIA (AUSTRAL ISLANDS),-27.61667,-144.33333,2.0,nan,109.9,131.3,143.0,159.4,122.3,202.0,107.1,119.4,126.7,73.7,57.6,125.1,114.7,95.1
WMO92077,GURNEY W.O. PAPUA NEW GUINEA,-10.31667,150.33333,23.0,nan,139.0,nan,nan,nan,nan,nan,nan,nan,nan,nan,nan,nan,nan,nan
WMO93417,PARAPARAUMU NEW ZEALAND,-40.90000,174.98333,nan,nan,228.4,238.1,239.7,189.3,189.0,nan,nan,nan,nan,nan,nan,nan,nan,nan
WMO93986,WAITANGI / CHATHAM ISL. NEW ZEALAND,-44.00000,-176.60000,nan,nan,nan,nan,nan,nan,nan,nan,nan,nan,nan,nan,nan,nan,nan,nan
WMO94238,TENNANT CREEK AIRPORT AUSTRALIA,-19.63333,134.18333,377.0,nan,281.4,301.4,273.3,261.9,239.4,232.0,302.0,274.9,216.1,313.0,307.0,nan,nan,nan
WMO94476,OODNADATTA AIRPORT AUSTRALIA,-27.55000,135.43333,117.0,nan,nan,nan,nan,nan,nan,nan,nan,nan,nan,nan,nan,nan,nan,nan
WMO94738,SCONE SCS AUSTRALIA,-32.05000,150.91667,216.0,nan,nan,nan,nan,nan,nan,nan,nan,nan,nan,nan,nan,nan,nan,nan
WMO94926,CANBERRA AIRPORT AUSTRALIA,-35.30000,149.20000,577.0,nan,300.9,260.0,245.3,254.4,335.0,163.0,nan,nan,nan,nan,nan,nan,nan,nan
WMO95971,GROVE/TAS AUSTRALIA,-42.98333,147.06667,nan,nan,nan,nan,196.9,182.0,nan,nan,nan,nan,nan,nan,nan,nan,nan,nan
WMO96091,TANJUNG PINANG/KIJANG INDONESIA,0.91667,104.53333,18.0,nan,nan,nan,nan,nan,nan,nan,143.4,103.6,222.3,204.9,124.0,150.1,169.4,245.1
WMO96249,TANJUNG PANDAN/BULUH TUMBANG INDONESIA,-2.75000,107.75000,44.0,nan,nan,138.7,80.6,126.3,108.1,134.7,100.9,104.1,144.3,144.9,96.3,93.6,155.4,120.7
WMO96481,TAWAU MALAYSIA (SABAH AND SARAWAK),4.26667,117.88333,20.0,nan,nan,nan,nan,nan,nan,159.0,176.0,158.7,136.0,nan,nan,nan,nan,nan
WMO96615,KETAPANG/KALIMANTAN INDONESIA,-1.85000,109.96667,nan,nan,nan,nan,nan,164.0,163.4,158.0,167.1,169.9,209.3,nan,nan,152.0,193.7,148.1
WMO96745,JAKARTA/OBSERVATORY INDONESIA,-6.18333,106.83333,8.0,nan,nan,87.0,43.9,71.4,63.7,72.0,116.9,92.1,53.7,87.9,74.3,95.4,106.9,128.4
WMO96845,SURAKARTA/JAVA INDONESIA,-7.51667,110.75000,nan,nan,nan,nan,nan,nan,nan,nan,nan,nan,nan,nan,nan,nan,nan,nan
WMO97014,MENADO/ SAM RATULANGI INDONESIA,1.53333,124.91667,80.0,nan,98.0,103.4,102.0,105.6,157.1,121.4,162.0,122.1,153.1,131.7,192.4,nan,139.0,137.0
WMO97180,UJUNG PANDANG/HASANUDDIN INDONESIA,-5.06667,119.55000,14.0,nan,87.0,106.0,90.3,102.7,161.6,103.3,152.0,147.9,145.6,nan,nan,nan,113.9,157.0
WMO97320,MALI/ALOR ISLAND INDONESIA,-8.13333,124.60000,nan,nan,nan,nan,nan,nan,nan,nan,191.1,162.7,150.4,nan,nan,182.9,189.9,198.4
WMO97460,LABUHA/WEST IRIAN INDONESIA,0.63333,127.50000,nan,nan,nan,nan,154.4,122.0,187.3,105.7,180.6,150.4,143.4,nan,nan,nan,139.7,166.7
WMO97690,JAYAPURA/SENTANI INDONESIA,-2.56667,140.48333,99.0,nan,nan,nan,nan,34.0,47.7,44.0,178.1,139.9,172.1,nan,nan,121.1,127.4,140.7
WMO97810,TUAL/MOLUKKEN INDONESIA,-5.68333,132.75000,nan,nan,nan,117.1,103.7,121.6,144.9,91.4,123.9,99.4,135.1,nan,nan,nan,91.9,83.3
WMO98425,MANILA PHILIPPINES,14.58333,120.98333,nan,nan,nan,nan,nan,nan,nan,nan,nan,nan,nan,nan,nan,nan,nan,nan
WMO98836,ZAMBOANGA PHILIPPINES,6.91667,122.05000,6.0,nan,206.7,213.6,160.0,189.1,187.0,168.0,165.4,204.0,223.6,241.3,276.0,205.7,nan,nan
