id,name,latitude,longitude,elev,2005,2006,2007,2008,2009,2010,2011,2012,2013,2014,2015,2016,2017,2018,2019
id,name,latitude,longitude,elev,2005,2006,2007,2008,2009,2010,2011,2012,2013,2014,2015,2016,2017,2018,2019
WMO02197,HAPARANDA SWEDEN,65.81667,24.10000,15.0,nan,nan,nan,nan,nan,299.6,372.0,227.0,274.6,nan,nan,nan,nan,nan,nan
WMO02805,UTSJOKI KEVO FINLAND,69.75000,27.03333,101.0,nan,150.3,192.4,172.9,173.3,176.0,203.0,138.3,207.7,209.0,162.0,143.4,197.9,179.3,nan
WMO02963,JOKIOINEN OBSERVATORY FINLAND,60.81667,23.50000,103.0,nan,323.9,293.6,250.0,237.6,314.0,282.4,210.7,258.7,219.0,202.0,243.6,257.1,276.3,295.6
WMO03160,EDINBURGH (TURNHOUSE AIRPORT) UNITED KINGDOM OF GREAT BRITAIN AND NORTHERN IRELAND,56.00000,-3.40000,nan,nan,nan,nan,nan,nan,nan,nan,nan,nan,nan,nan,nan,nan,nan,nan
WMO03534,BIRMINGHAM_AIRPORT UNITED KINGDOM OF GREAT BRITAIN AND NORTHERN IRELAND,52.45000,-1.73333,nan,nan,nan,nan,nan,nan,nan,nan,nan,nan,nan,nan,nan,nan,nan,nan
WMO03827,PLYMOUTH-MOUNT BATTON UNITED KINGDOM OF GREAT BRITAIN AND NORTHERN IRELAND,50.40000,-4.10000,nan,nan,nan,nan,nan,nan,nan,nan,nan,nan,nan,nan,nan,nan,nan,nan
WMO03964,GALWAY IRELAND,53.30000,-9.00000,nan,nan,nan,nan,nan,nan,nan,nan,nan,nan,nan,nan,nan,nan,nan,nan
WMO04030,REYKJAVIK ICELAND,64.13333,-21.90000,61.0,nan,152.7,203.9,280.1,191.1,174.9,244.0,321.0,134.0,115.3,nan,nan,nan,75.7,272.9
WMO06590,LUXEMBOURG/LUXEMBOURG LUXEMBOURG,49.61667,6.21667,376.0,nan,321.0,218.1,254.9,264.9,289.0,205.6,198.3,254.9,292.7,nan,nan,nan,263.7,300.7
WMO07015,LILLE-LESQUIN FRANCE,50.56667,3.08333,47.0,nan,278.1,130.6,185.7,215.6,237.1,176.9,153.4,198.6,196.4,248.3,149.6,227.0,236.3,nan
WMO07149,ORLY FRANCE,48.71667,2.38333,90.0,nan,nan,nan,nan,238.1,240.1,192.1,156.9,231.7,244.9,294.6,163.1,262.7,247.0,nan
WMO07299,BALE-MULHOUSE FRANCE,47.60000,7.50000,273.0,nan,293.6,203.4,210.4,225.0,227.4,194.4,219.3,258.7,255.3,253.6,193.3,274.1,294.3,nan
WMO07577,MONTELIMAR FRANCE,44.56667,4.71667,74.0,nan,334.7,288.3,282.3,327.6,303.7,270.7,314.3,320.0,305.0,350.4,295.7,328.0,327.3,nan
WMO07747,PERPIGNAN FRANCE,42.73333,2.86667,44.0,nan,303.3,257.0,274.7,282.3,280.4,224.4,285.1,276.6,261.4,nan,nan,nan,296.4,303.6
WMO08023,SANTANDER SPAIN,43.48333,-3.78333,59.0,nan,206.6,207.4,215.0,233.7,205.1,207.4,193.7,214.1,261.9,216.9,217.7,178.1,199.9,229.6
WMO08075,BURGOS/VILLAFRIA SPAIN,42.35000,-3.61667,892.0,nan,290.0,305.6,287.1,293.9,278.4,293.4,313.6,281.3,306.1,nan,nan,nan,273.3,297.4
WMO08161,ZARAGOZA SPAIN,41.63333,-0.90000,nan,nan,nan,nan,nan,nan,nan,nan,nan,nan,nan,nan,nan,nan,nan,nan
WMO08219,COLMENAR VIEJO/FAMET SPAIN,40.68333,-3.75000,998.0,nan,318.0,331.9,321.1,320.9,293.9,345.4,349.0,342.6,348.9,336.0,359.1,325.9,310.6,nan
WMO08238,TORTOSA SPAIN,40.81667,0.48333,50.0,nan,320.4,317.6,311.1,308.0,310.9,307.3,313.4,328.4,273.3,323.6,327.1,300.3,300.4,329.9
WMO08314,MENORCA/MAHON SPAIN,39.85000,4.20000,86.0,nan,290.7,287.0,275.7,329.3,304.4,283.1,322.1,341.4,299.4,338.9,339.6,358.3,345.7,351.4
WMO08397,MORON DE LA FRONTERA SPAIN,37.15000,-5.60000,88.0,nan,338.6,358.7,383.6,318.3,346.4,362.4,360.7,362.7,353.0,351.3,371.1,nan,336.9,368.3
WMO08452,CADIZ OBS. SPAIN,36.50000,-6.25000,9.0,nan,344.0,nan,371.3,325.1,nan,nan,337.9,352.7,nan,nan,nan,nan,nan,nan
WMO08515,SANTA MARIA (ACORES) PORTUGAL,36.96667,-25.16667,100.0,nan,280.0,300.0,300.0,nan,225.4,241.7,231.0,nan,nan,nan,nan,nan,273.0,251.7
WMO08558,EVORA/C. COORD PORTUGAL,38.53333,-7.90000,246.0,nan,258.1,338.9,340.4,318.3,302.9,330.0,312.6,296.9,321.0,nan,nan,287.0,262.9,161.7
WMO10035,SCHLESWIG GERMANY,54.51667,9.53333,nan,nan,282.1,195.9,266.6,240.1,266.4,222.4,166.6,234.0,235.4,215.3,200.6,nan,258.6,227.9
WMO10131,CUXHAVEN GERMANY,53.86667,8.70000,12.0,nan,276.7,186.7,272.9,244.0,268.1,200.0,167.3,202.0,231.7,nan,nan,nan,225.0,237.0
WMO10168,GOLDBERG GERMANY,53.60000,12.10000,59.0,nan,nan,nan,nan,208.4,291.7,233.9,165.3,268.1,227.7,218.9,237.4,224.9,259.9,nan
WMO10235,SOLTAU GERMANY,52.95000,9.78333,77.0,nan,nan,nan,nan,203.9,276.0,190.1,147.0,225.9,199.4,199.0,179.0,191.3,221.3,248.6
WMO10282,FELDBERG/MECKLENBURG GERMANY,53.31667,13.41667,116.0,nan,nan,nan,nan,237.0,304.4,236.7,163.3,255.0,220.9,207.6,230.7,220.4,262.4,302.3
WMO10325,BAD SALZUFLEN GERMANY,52.10000,8.75000,136.0,nan,264.7,nan,nan,191.7,273.4,202.3,143.4,192.4,191.4,203.0,183.7,192.6,232.1,273.9
WMO10381,BERLIN-DAHLEM GERMANY,52.46667,13.30000,nan,nan,302.4,203.0,283.9,206.3,302.4,239.1,185.7,254.6,247.7,228.6,251.7,nan,271.6,320.3
WMO10427,KAHLER ASTEN GERMANY,51.16667,8.48333,858.0,nan,249.9,138.7,217.6,151.9,237.9,147.1,109.9,174.9,178.6,193.0,145.1,162.4,201.9,267.3
WMO10453,BROCKEN GERMANY,51.80000,10.61667,1152.0,nan,242.6,140.0,210.4,136.7,237.1,160.1,120.7,202.7,186.4,nan,nan,178.1,235.1,nan
WMO10490,DOBERLUG-KIRCHHAIN GERMANY,51.63333,13.56667,97.0,nan,nan,nan,nan,207.0,280.7,221.7,179.9,233.9,225.6,216.9,225.4,239.1,240.9,nan
WMO10520,ANDERNACH GERMANY,50.41667,7.41667,76.0,nan,nan,nan,nan,nan,nan,nan,152.7,223.4,215.7,nan,nan,nan,243.9,293.4
WMO10552,SCHMUECKE GERMANY,50.65000,10.76667,939.0,nan,nan,nan,nan,133.0,237.6,160.9,137.7,193.7,199.3,200.3,144.0,189.1,215.1,272.7
WMO10579,MARIENBERG GERMANY,50.65000,13.13333,640.0,nan,nan,nan,nan,180.0,244.4,204.9,180.6,211.3,209.3,201.9,197.9,242.1,244.3,286.3
WMO10646,NEUHUETTEN-SPESSART GERMANY,50.00000,9.41667,340.0,nan,nan,nan,nan,197.0,267.3,167.1,170.6,227.7,237.6,nan,nan,nan,243.6,288.7
WMO10706,THOLEY GERMANY,49.46667,7.03333,387.0,nan,nan,nan,nan,198.0,265.1,176.6,173.9,218.0,256.3,nan,nan,nan,270.0,311.4
WMO10742,OEHRINGEN GERMANY,49.20000,9.51667,274.0,nan,308.7,204.6,221.7,212.4,244.7,177.4,193.4,258.9,270.0,232.7,193.3,264.1,259.1,295.1
WMO10796,ZWIESEL GERMANY,49.01667,13.23333,616.0,nan,nan,nan,nan,200.0,211.7,176.1,187.3,209.4,239.6,nan,nan,255.0,217.1,295.0
WMO10852,AUGSBURG GERMANY,48.41667,10.93333,476.0,nan,296.6,232.3,217.1,210.1,223.6,175.0,206.0,239.6,261.4,238.7,197.3,259.9,246.1,290.3
WMO10929,KONSTANZ GERMANY,47.66667,9.18333,444.0,nan,314.1,222.9,227.1,227.0,231.6,198.3,222.0,240.3,273.0,247.0,196.7,275.0,300.1,nan
WMO11028,ST. POELTEN (HESSERKASERNE) AUSTRIA,48.20000,15.60000,nan,nan,nan,nan,nan,nan,nan,nan,nan,nan,nan,nan,nan,nan,nan,nan
WMO11406,EGER CZECH REPUBLIC,50.08333,12.40000,nan,nan,nan,nan,nan,nan,nan,nan,nan,nan,nan,nan,nan,nan,nan,nan
WMO11787,LYSA HORA CZECH REPUBLIC,49.53333,18.43333,1326.0,nan,231.7,177.1,206.3,138.1,201.3,116.1,163.3,147.4,193.3,nan,nan,nan,139.7,243.1
WMO12330,POZNAN POLAND,52.41667,16.83333,88.0,nan,326.6,229.7,323.4,211.6,305.7,267.1,218.9,263.9,277.0,252.7,286.3,258.0,282.9,nan
WMO12843,BUDAPEST/PESTSZENTLORINC HUNGARY,47.43333,19.18333,139.0,nan,308.9,324.3,273.9,273.9,264.6,261.7,319.0,310.0,309.7,292.1,300.3,343.6,261.6,340.6
WMO13363,PLJEVLJA MONTENEGRO,43.35000,19.35000,788.0,nan,206.9,264.7,223.6,219.9,191.6,237.1,292.4,175.0,202.7,245.9,229.0,269.1,154.3,255.6
WMO13615,TIRANA ALBANIA,41.33333,19.78333,90.0,nan,nan,nan,nan,214.6,174.0,nan,nan,nan,nan,nan,nan,nan,nan,nan
WMO15023,SUCEAVA ROMANIA,47.61667,26.23333,353.0,nan,235.9,279.7,225.3,246.4,213.9,267.6,308.7,256.7,247.0,nan,nan,nan,183.4,279.0
WMO15360,SULINA ROMANIA,45.13333,29.75000,13.0,nan,332.6,376.9,336.7,345.6,305.1,312.9,363.1,321.4,276.6,262.9,314.3,319.3,301.3,329.6
WMO16008,S. VALENTINO ALLA MUTA ITALY,46.75000,10.53333,1461.0,nan,nan,nan,nan,nan,nan,nan,nan,nan,nan,nan,nan,nan,nan,nan
WMO16099,TREVISO/S.ANGELO ITALY,45.65000,12.18333,nan,nan,285.1,269.6,nan,nan,nan,nan,nan,nan,nan,nan,nan,nan,nan,nan
WMO16191,FALCONARA ITALY,43.60000,13.40000,nan,nan,nan,nan,nan,nan,nan,nan,nan,nan,nan,nan,nan,nan,nan,nan
WMO16258,MONTE S. ANGELO ITALY,41.70000,15.93333,848.0,nan,nan,nan,nan,nan,nan,nan,nan,nan,nan,nan,nan,nan,nan,nan
WMO16429,TRAPANI BIRGI ITALY,37.90000,12.48333,9.0,nan,317.0,323.6,339.0,350.1,319.4,321.6,330.7,334.6,304.9,335.6,299.0,327.6,309.4,295.6
WMO16597,LUQA MALTA,35.85000,14.48333,nan,nan,348.0,346.4,345.7,360.3,340.7,335.1,378.7,352.3,346.4,nan,nan,nan,324.0,350.0
WMO16746,SOUDA (AIRPORT) GREECE,35.48333,24.11667,151.0,nan,360.4,372.3,377.1,365.1,354.0,350.4,400.1,377.9,351.1,347.9,361.7,336.7,338.4,nan
WMO17062,ISTANBUL TURKEY,40.90000,29.15000,nan,nan,326.9,299.6,330.1,319.0,244.3,216.7,334.3,299.6,nan,nan,nan,nan,nan,nan
WMO17092,ERZINCAN TURKEY,39.70000,39.51667,1154.0,nan,325.7,293.3,306.9,274.7,294.4,299.6,302.4,326.3,297.4,298.1,280.0,299.9,281.0,294.0
WMO17150,BALIKESIR TURKEY,39.61667,27.91667,102.0,nan,339.1,292.9,301.7,301.7,253.7,311.6,359.0,307.4,278.6,277.3,329.0,302.6,280.1,297.0
WMO17202,ELAZIG TURKEY,38.60000,39.28333,881.0,nan,nan,346.9,374.0,311.4,343.7,364.0,328.4,291.1,372.9,297.0,351.1,388.4,352.0,nan
WMO17255,KAHRAMANMARAS TURKEY,37.60000,36.93333,572.0,nan,317.7,314.7,313.9,290.3,310.0,306.7,307.4,321.3,296.3,306.3,312.9,nan,304.1,nan
WMO17351,ADANA/BOLGE TURKEY,36.98333,35.35000,27.0,nan,317.0,309.6,339.0,326.7,303.0,260.6,255.0,325.9,300.9,nan,nan,332.0,292.6,nan
WMO20674,OSTROV DIKSON RUSSIAN FEDERATION (IN ASIA),73.50000,80.40000,46.0,nan,151.0,180.6,186.3,243.7,117.7,163.1,184.3,180.9,110.7,183.0,300.1,199.1,187.6,nan
WMO21965,OSTROV CHETYREKHSTOLBOVOY RUSSIAN FEDERATION,70.60000,162.50000,nan,nan,nan,nan,nan,nan,nan,nan,nan,nan,nan,nan,nan,nan,nan,nan
WMO22602,REBOLY RUSSIAN FEDERATION (IN EUROPE),63.83333,30.81667,182.0,nan,nan,nan,nan,nan,nan,nan,nan,nan,nan,nan,nan,nan,nan,nan
WMO23205,NAR'JAN-MAR RUSSIAN FEDERATION (IN ASIA),67.61667,53.01667,11.0,nan,243.9,211.9,247.7,252.1,185.4,272.3,237.3,365.4,211.7,nan,nan,271.9,305.1,152.0
WMO23472,TURUHANSK RUSSIAN FEDERATION (IN ASIA),65.78333,87.98333,37.0,nan,335.6,266.6,279.7,298.6,189.3,327.4,354.9,354.4,302.3,322.6,434.4,325.0,368.7,262.6
WMO23884,BOR RUSSIAN FEDERATION (IN ASIA),61.56667,90.01667,57.0,nan,338.0,271.1,267.7,271.7,267.9,292.7,320.4,260.1,262.9,327.3,317.3,nan,333.1,246.3
WMO24143,DZARDZAN RUSSIAN FEDERATION (IN ASIA),68.73333,124.00000,38.0,nan,nan,nan,nan,nan,nan,nan,nan,nan,nan,nan,nan,nan,nan,nan
WMO24713,NAKANNO RUSSIAN FEDERATION (IN ASIA),62.88333,108.43333,245.0,nan,315.3,256.9,281.0,269.9,244.3,307.0,267.7,268.1,321.7,nan,nan,nan,332.3,334.3
WMO25173,MYS SHMIDTA RUSSIAN FEDERATION (IN ASIA),68.90000,-179.63333,3.0,nan,nan,nan,nan,nan,nan,nan,nan,nan,nan,nan,nan,nan,nan,nan
WMO25538,VERHNEE PENZINO RUSSIAN FEDERATION (IN ASIA),64.21667,164.23333,325.0,nan,262.6,315.0,282.6,267.3,219.0,nan,239.9,220.0,235.0,282.1,310.3,nan,nan,nan
WMO26038,TALLINN-HARKU ESTONIA,59.38333,24.60000,34.0,nan,351.9,307.6,304.1,270.6,307.1,327.7,270.9,293.3,252.1,276.4,289.0,305.6,338.1,343.0
WMO26393,VYSNIJ VOLOCEK RUSSIAN FEDERATION,57.58333,34.56667,nan,nan,nan,nan,nan,nan,nan,nan,nan,nan,nan,nan,nan,nan,nan,nan
WMO26629,KAUNAS LITHUANIA,54.88333,23.83333,76.0,nan,347.3,280.1,346.9,220.4,267.9,297.7,244.9,231.9,215.9,259.9,245.9,nan,280.6,327.3
WMO27199,KIROV RUSSIAN FEDERATION (IN EUROPE),58.56667,49.56667,158.0,nan,nan,nan,nan,nan,nan,nan,nan,nan,nan,nan,nan,nan,nan,nan
WMO28138,BISER RUSSIAN FEDERATION (IN ASIA),58.51667,58.85000,463.0,nan,309.1,224.6,296.3,307.9,323.6,284.9,337.3,355.0,255.7,254.4,319.4,224.0,263.4,nan
WMO28573,ISHIM RUSSIAN FEDERATION (IN ASIA),56.10000,69.43333,82.0,nan,304.4,294.0,375.0,331.1,342.4,293.6,308.1,352.6,300.1,nan,nan,321.7,269.6,nan
WMO28766,BLAGOVESHCHENKA KAZAKHSTAN,54.36667,66.96667,151.0,nan,nan,nan,nan,nan,nan,266.4,316.9,371.4,307.1,nan,nan,326.1,294.0,299.7
WMO29594,TAJSHET RUSSIAN FEDERATION (IN ASIA),55.95000,98.00000,306.0,nan,280.0,300.7,328.6,291.9,326.7,339.0,331.4,308.3,336.1,nan,nan,323.4,342.1,319.4
WMO30230,KIRENSK RUSSIAN FEDERATION (IN ASIA),57.76667,108.06667,258.0,nan,300.3,285.3,284.9,260.0,266.7,289.3,262.0,nan,321.6,nan,nan,nan,284.1,303.9
WMO30635,UST'-BARGUZIN RUSSIAN FEDERATION (IN ASIA),53.41667,109.01667,460.0,nan,nan,nan,nan,nan,nan,nan,nan,nan,nan,nan,nan,nan,nan,nan
WMO30949,KYRA RUSSIAN FEDERATION (IN ASIA),49.56667,111.96667,907.0,nan,261.9,309.9,254.7,266.0,277.3,277.7,231.6,257.4,242.6,272.4,296.3,320.3,247.7,nan
WMO31416,IM POLINY OSIPENKO RUSSIAN FEDERATION (IN ASIA),52.41667,136.50000,70.0,nan,209.0,257.3,86.0,196.9,219.9,280.0,281.4,221.4,243.1,265.9,206.4,nan,157.7,227.1
WMO32061,ALEKSANDROVSK-SAHALINSKIJ RUSSIAN FEDERATION (IN ASIA),50.90000,142.16667,31.0,nan,261.6,218.1,286.0,231.4,237.4,245.6,277.0,244.4,230.4,225.3,240.0,nan,189.4,170.4
WMO32389,KLJUCHI RUSSIAN FEDERATION (IN ASIA),56.31667,160.83333,28.0,nan,251.3,176.1,269.3,280.0,242.9,193.4,210.7,220.6,195.0,254.1,264.9,236.1,260.6,171.6
WMO33041,GOMEL BELARUS,52.40000,30.95000,126.0,nan,310.4,300.0,320.6,266.4,295.9,301.9,264.1,333.3,290.7,317.3,303.1,274.3,283.1,337.0
WMO33777,VOZNESENS'K UKRAINE,47.56667,31.33333,34.0,nan,nan,nan,nan,nan,nan,nan,nan,nan,nan,nan,nan,nan,nan,nan
WMO33983,KERCH UKRAINE,45.40000,36.41667,49.0,nan,nan,nan,nan,nan,nan,nan,nan,nan,nan,nan,nan,nan,nan,nan
WMO34300,KHARKIV UKRAINE,49.96667,36.13333,155.0,nan,318.4,310.6,324.3,338.0,303.3,290.3,338.6,309.7,281.6,nan,nan,308.6,322.3,334.0
WMO34927,KRASNODAR-KRUGLIK RUSSIAN FEDERATION (IN EUROPE),45.05000,39.03333,29.0,nan,327.3,318.3,317.7,333.7,258.1,305.3,327.3,302.7,278.4,286.9,293.7,251.0,nan,nan
WMO35376,BERLIK KAZAKHSTAN,49.88333,69.51667,349.0,nan,340.3,400.4,257.0,nan,nan,nan,nan,nan,nan,nan,nan,nan,nan,nan
WMO36003,PAVLODAR KAZAKHSTAN,52.30000,76.93333,122.0,nan,316.9,319.7,349.1,275.9,340.1,336.6,330.6,359.6,338.6,nan,nan,nan,305.6,318.9
WMO36870,ALMATY KAZAKHSTAN,43.23333,76.93333,851.0,nan,267.0,265.6,279.4,286.6,238.6,265.4,262.0,254.1,276.7,262.7,244.9,268.6,257.0,217.4
WMO37472,MAHACHKALA RUSSIAN FEDERATION (IN EUROPE),43.00000,47.50000,-18.0,nan,303.1,276.6,266.9,277.9,310.0,275.0,316.4,287.4,310.6,309.0,289.3,nan,316.6,335.0
WMO37860,MASHTAGA AZERBAIJAN,40.53333,50.00000,28.0,nan,321.0,nan,333.0,244.0,316.3,301.9,301.1,314.0,302.0,286.3,230.0,322.1,nan,nan
WMO38341,ZHAMBYL KAZAKHSTAN,42.85000,71.38333,nan,nan,nan,365.7,374.7,370.9,325.0,328.1,357.0,359.6,389.0,nan,nan,380.9,343.1,338.0
WMO38511,CHAGYL TURKMENISTAN,40.78333,55.33333,115.0,nan,nan,nan,338.7,352.3,357.7,339.3,298.9,347.6,327.3,341.1,336.6,371.4,323.3,326.3
WMO38734,DEHAVZ TAJIKISTAN,39.45000,70.20000,2561.0,nan,nan,nan,nan,nan,nan,nan,nan,nan,nan,nan,nan,nan,nan,nan
WMO38933,KURGAN-TYUBE TAJIKISTAN,37.81667,68.78333,427.0,nan,nan,nan,nan,nan,nan,nan,nan,nan,nan,nan,nan,nan,271.3,275.3
WMO40100,BEYROUTH (AEROPORT) LEBANON,33.81667,35.48333,19.0,nan,324.0,313.7,325.0,nan,274.0,320.0,284.0,302.9,262.0,273.1,256.0,nan,nan,nan
WMO40255,IRBID JORDAN,32.60000,35.90000,nan,nan,nan,nan,nan,nan,nan,nan,nan,nan,nan,nan,nan,nan,nan,nan
WMO40373,AL-QAISUMAH SAUDI ARABIA,28.31667,46.13333,358.0,nan,nan,nan,nan,nan,nan,nan,nan,nan,nan,nan,nan,nan,nan,nan
WMO40435,AL-DAWADAMI SAUDI ARABIA,26.98333,44.11667,923.0,nan,nan,nan,nan,nan,nan,nan,nan,nan,nan,nan,nan,nan,nan,nan
WMO40650,BAGHDAD IRAQ,33.26667,44.23333,nan,nan,nan,nan,nan,nan,nan,nan,nan,nan,nan,nan,nan,nan,nan,nan
WMO40723,BOJNOURD IRAN ISLAMIC REPUBLIC OF,37.46667,57.33333,nan,nan,nan,nan,328.1,326.0,358.4,338.6,319.7,335.9,343.1,348.1,338.3,360.3,354.4,351.6
WMO40766,KERMANSHAH IRAN ISLAMIC REPUBLIC OF,34.35000,47.15000,1319.0,nan,357.0,341.3,324.9,235.3,332.3,302.4,311.9,310.0,306.7,342.9,326.7,nan,343.0,359.6
WMO40821,YAZD IRAN ISLAMIC REPUBLIC OF,31.90000,54.40000,nan,nan,376.1,321.7,342.0,333.0,nan,346.7,356.1,363.6,355.0,348.6,366.4,nan,365.1,354.1
WMO40911,MAZAR-I-SHARIF AFGHANISTAN ISLAMIC STATE OF,36.70000,67.20000,378.0,nan,nan,nan,nan,nan,nan,nan,nan,nan,nan,nan,nan,nan,nan,nan
WMO41061,WADI AL-DAWASSER AIRPORT SAUDI ARABIA,20.50000,45.25000,622.0,nan,329.6,323.7,297.3,315.9,303.6,295.1,272.4,297.9,330.9,296.4,351.4,294.6,nan,323.3
WMO41196,SHARJAH INTERNATIONAL AIRPORT UNITED ARAB EMIRATES,25.33333,55.51667,33.0,nan,262.4,337.0,nan,nan,337.0,337.0,329.0,nan,nan,nan,nan,nan,nan,nan
WMO41256,MUSCAT INT'L AIRPORT OMAN,23.58333,58.28333,8.0,nan,nan,nan,nan,nan,nan,173.0,nan,205.0,110.4,141.0,205.3,252.7,276.1,285.7
WMO41287,JOBA OMAN,20.86667,58.23333,34.0,nan,nan,nan,nan,nan,nan,nan,nan,nan,nan,nan,nan,nan,nan,nan
WMO41515,DROSH PAKISTAN,35.56667,71.78333,1465.0,nan,nan,nan,nan,nan,nan,nan,nan,nan,nan,nan,nan,nan,nan,nan
WMO41685,BARKHAN PAKISTAN,29.88333,69.71667,1098.0,nan,nan,nan,nan,nan,nan,nan,nan,nan,nan,nan,nan,nan,nan,nan
WMO41764,HYDERABAD PAKISTAN,25.38333,68.41667,30.0,nan,nan,nan,nan,nan,nan,nan,nan,nan,nan,nan,nan,nan,nan,nan
WMO41923,DHAKA BANGLADESH,23.76667,90.38333,9.0,nan,nan,nan,nan,nan,nan,nan,96.3,141.3,104.9,120.3,147.6,116.6,121.3,113.7
WMO42314,DIBRUGARH /MOHANBARI INDIA (STATIONS NORTH OF LATITUDE 20~N),27.48333,95.01667,111.0,nan,109.9,101.6,102.1,132.0,78.3,139.6,95.6,159.7,119.6,nan,nan,nan,114.0,133.9
WMO42909,VERAVAL INDIA (STATIONS NORTH OF LATITUDE 20~N),20.90000,70.36667,11.0,nan,nan,nan,nan,nan,nan,nan,nan,nan,nan,nan,nan,nan,nan,nan
WMO43295,BANGALORE INDIA (STATIONS SOUTH OF LATITUDE 20~N),12.96667,77.58333,923.0,nan,108.0,81.3,nan,122.1,85.4,99.0,115.9,52.1,135.3,112.4,82.1,108.1,83.0,134.0
WMO44213,BARUUNTURUUN MONGOLIA,49.65000,94.40000,1232.0,nan,nan,nan,nan,nan,nan,nan,nan,nan,nan,nan,nan,nan,nan,nan
WMO44277,ALTAI MONGOLIA,46.40000,96.25000,2181.0,nan,200.0,nan,nan,nan,nan,nan,nan,nan,nan,nan,213.6,nan,232.6,nan
WMO44373,DALANZADGAD MONGOLIA,43.58333,104.41667,1465.0,nan,281.7,269.4,270.0,312.0,286.4,280.0,280.0,227.0,232.7,nan,nan,nan,nan,nan
WMO47014,CHUNGGANG DEMOCRATIC PEOPLE'S REPUBLIC OF KOREA,41.78333,126.88333,331.0,nan,108.4,93.0,141.6,132.6,59.0,105.0,104.0,nan,nan,118.0,107.1,nan,106.0,196.4
WMO47112,INCHEON REPUBLIC OF KOREA,37.46667,126.61667,69.0,nan,nan,nan,nan,nan,201.3,159.3,226.0,206.6,216.4,nan,nan,nan,240.4,232.1
WMO47407,ASAHIKAWA JAPAN,43.75000,142.36667,140.0,nan,150.6,226.7,185.4,114.4,172.3,154.4,205.7,218.4,200.6,nan,nan,161.1,152.7,169.7
WMO47582,AKITA JAPAN,39.71667,140.08333,21.0,nan,147.4,216.1,165.4,153.3,169.1,160.9,224.6,221.4,198.0,197.6,159.4,185.1,167.3,195.1
WMO47618,MATSUMOTO JAPAN,36.25000,137.96667,nan,nan,154.1,155.0,nan,nan,nan,nan,nan,nan,nan,nan,nan,nan,nan,nan
WMO47678,HACHIJOJIMA JAPAN,33.11667,139.76667,156.0,nan,80.7,134.1,98.7,84.1,88.9,78.7,79.3,100.3,102.6,105.4,123.0,nan,130.7,112.9
WMO47800,IZUHARA JAPAN,34.18333,129.28333,4.0,nan,138.9,101.7,108.4,142.3,143.7,131.3,110.0,103.1,118.6,116.1,121.9,170.1,174.1,173.4
WMO47893,KOCHI JAPAN,33.56667,133.53333,4.0,nan,nan,nan,144.0,140.9,142.9,118.3,117.1,130.3,142.6,111.0,136.0,181.4,173.0,156.4
WMO47991,MINAMITORISHIMA JAPAN,24.28333,153.98333,8.0,nan,314.3,228.6,276.7,276.3,276.9,321.3,315.9,288.1,317.9,315.7,286.9,nan,299.4,314.7
WMO48462,ARANYAPRATHET THAILAND,13.68333,102.50000,49.0,nan,nan,nan,nan,nan,nan,nan,nan,nan,nan,nan,nan,nan,nan,nan
WMO48657,KUANTAN MALAYSIA (PENINSULAR MALAYSIA),3.78333,103.21667,16.0,nan,nan,nan,nan,nan,nan,nan,nan,nan,nan,nan,nan,nan,nan,nan
WMO48830,LANG SON VIET NAM,21.83333,106.76667,263.0,nan,143.9,217.3,122.1,179.0,171.3,180.6,138.1,183.6,140.0,nan,nan,145.3,170.4,nan
WMO48914,CA MAU VIET NAM,9.18333,105.15000,2.0,nan,149.3,149.1,139.3,181.0,122.4,118.0,135.3,127.0,109.7,143.6,145.7,145.1,115.1,114.7
WMO48991,PHNOM-PENH (KHMOUGH) CAMBODIA,11.60000,104.86667,10.0,nan,nan,nan,nan,nan,216.1,190.9,184.4,166.1,176.0,202.6,nan,nan,nan,nan
WMO51709,KASHI CHINA,39.48333,75.75000,1386.0,nan,336.6,339.4,342.1,326.1,299.4,354.1,361.3,353.6,336.0,325.7,315.6,318.4,310.6,nan
WMO52681,MINQIN CHINA,38.63333,103.08333,1369.0,nan,302.6,287.3,327.1,325.0,308.1,322.1,332.6,261.7,218.0,289.0,348.6,303.6,325.1,246.6
WMO53845,YAN AN CHINA,36.58333,109.45000,1181.0,nan,269.9,213.6,239.3,262.6,227.9,246.7,219.1,231.1,238.0,232.4,235.0,240.0,186.3,188.9
WMO54857,QINGDAO CHINA,36.06667,120.33333,77.0,nan,150.3,187.3,141.4,192.0,199.7,136.6,126.4,136.4,149.0,167.6,164.6,211.0,161.4,204.7
WMO56187,WENJIANG CHINA,30.75000,103.86667,555.0,nan,117.0,106.7,139.1,82.3,53.9,121.4,66.9,102.1,81.7,108.1,107.0,133.6,105.4,93.4
WMO57083,ZHENGZHOU CHINA,34.71667,113.65000,111.0,nan,195.4,151.4,150.7,221.0,172.3,153.9,211.6,167.1,180.0,150.3,216.9,nan,220.3,169.7
WMO57993,GANZHOU CHINA,25.86667,115.00000,138.0,nan,183.4,221.9,159.3,183.6,101.6,210.0,183.9,207.1,203.7,199.1,221.9,168.1,212.6,nan
WMO59211,BAISE CHINA,23.90000,106.60000,177.0,nan,136.9,171.0,141.6,170.4,106.0,161.3,116.1,165.1,153.4,nan,nan,nan,137.4,116.1
WMO60010,IZANA SPAIN (CANARY ISLANDS),28.30000,-16.48333,2368.0,nan,406.7,407.6,404.7,nan,409.3,373.6,392.3,411.7,409.1,403.4,405.4,392.9,407.4,415.7
WMO60120,KENITRA MOROCCO,34.30000,-6.58333,nan,nan,317.0,343.7,367.1,336.3,319.0,346.4,338.4,342.7,324.6,333.0,340.3,nan,292.0,352.0
WMO60320,CEUTA SPAIN (CEUTA AND MELILLA),35.90000,-5.33333,88.0,nan,nan,nan,nan,nan,nan,nan,nan,nan,325.7,nan,nan,nan,347.3,340.1
WMO60387,DELLYS ALGERIA,36.91667,3.95000,8.0,nan,290.0,313.1,327.0,345.4,322.0,308.6,283.0,343.3,366.0,nan,344.0,325.6,334.6,nan
WMO60423,SOUK AHRAS ALGERIA,36.28333,7.96667,680.0,nan,267.4,329.0,331.3,359.1,327.9,318.3,343.6,338.1,329.7,nan,nan,351.3,344.1,344.7
WMO60467,M'SILA ALGERIA,35.66667,4.50000,442.0,nan,311.1,338.3,315.1,334.7,316.7,336.4,323.6,357.0,338.6,nan,nan,355.4,359.0,nan
WMO60514,KSAR CHELLALA ALGERIA,35.16667,2.31667,801.0,nan,287.4,328.6,307.4,329.4,344.0,318.6,306.9,348.0,341.0,nan,nan,323.6,346.0,332.6
WMO60536,SAIDA ALGERIA,34.86667,0.15000,752.0,nan,273.6,347.9,342.6,344.3,337.0,331.9,313.9,354.1,338.4,337.6,331.3,341.7,323.7,nan
WMO60566,GHARDAIA ALGERIA,32.40000,3.80000,469.0,nan,326.3,358.0,360.4,330.4,336.6,341.3,311.3,346.9,330.3,356.3,355.1,344.4,329.7,326.0
WMO60630,IN-SALAH ALGERIA,27.23333,2.50000,269.0,nan,315.6,370.3,340.9,326.4,302.7,365.1,334.4,332.7,288.6,346.0,325.0,nan,293.0,336.7
WMO60735,KAIROUAN TUNISIA,35.66667,10.10000,68.0,nan,323.6,330.4,341.7,363.7,326.7,352.0,315.1,359.6,318.6,nan,nan,nan,349.1,351.3
WMO61053,DOSSO NIGER,13.03333,3.30000,213.0,nan,nan,nan,nan,nan,nan,244.0,nan,246.4,257.0,261.4,223.4,261.3,239.1,217.0
WMO61223,TOMBOUCTOU MALI,16.71667,-3.00000,264.0,nan,nan,236.0,238.0,176.9,181.1,266.0,nan,nan,nan,nan,nan,nan,nan,nan
WMO61272,SEGOU MALI,13.40000,-6.15000,289.0,nan,nan,278.0,nan,231.0,199.0,206.0,204.0,232.0,224.0,211.4,230.4,211.1,209.0,223.0
WMO61415,NOUADHIBOU MAURITANIA,20.93333,-17.03333,3.0,nan,309.0,303.6,279.0,254.0,278.4,288.7,nan,276.0,290.3,271.9,nan,nan,nan,nan
WMO61499,AIOUN EL ATROUSS MAURITANIA,16.70000,-9.60000,223.0,nan,nan,nan,nan,nan,nan,nan,nan,nan,nan,nan,nan,nan,nan,nan
WMO61695,ZIGUINCHOR SENEGAL,12.55000,-16.26667,nan,nan,192.6,204.7,186.7,181.6,181.6,187.9,196.4,201.1,nan,nan,nan,nan,202.9,nan
WMO61818,KINDIA GUINEA,10.05000,-12.86667,nan,nan,nan,nan,nan,nan,nan,nan,nan,nan,nan,nan,nan,nan,nan,nan
WMO61878,NJALA SIERRA LEONE,8.10000,-12.10000,56.0,nan,nan,nan,nan,nan,nan,nan,nan,nan,nan,nan,nan,nan,nan,nan
WMO61974,AGALEGA MAURITIUS,-10.38333,56.60000,4.0,nan,248.6,186.9,208.1,253.4,216.4,241.1,196.4,236.1,250.1,152.6,175.0,243.7,209.1,nan
WMO62002,NALUT LIBYA,31.86667,10.98333,621.0,nan,nan,370.1,359.4,364.6,345.9,nan,375.0,363.1,347.6,362.4,340.6,360.7,346.1,nan
WMO62055,AGEDABIA LIBYA,30.71667,20.16667,7.0,nan,nan,360.9,369.1,374.4,360.7,nan,nan,nan,nan,nan,nan,nan,nan,nan
WMO62176,GIGHBUB LIBYA,29.75000,24.53333,-1.0,nan,nan,369.1,375.1,384.9,371.1,nan,nan,374.9,nan,nan,nan,nan,nan,nan
WMO62387,MINYA EGYPT,28.08333,30.73333,40.0,nan,nan,nan,nan,381.4,364.6,379.0,nan,361.9,nan,376.7,291.0,369.0,nan,nan
WMO62464,HURGUADA POLLUTION EGYPT,27.28333,33.73333,6.0,nan,nan,nan,nan,nan,nan,nan,nan,nan,nan,nan,nan,nan,nan,nan
WMO62730,KASSALA SUDAN,15.46667,36.40000,500.0,nan,272.7,267.9,288.1,292.3,213.6,216.4,222.4,239.3,287.6,nan,nan,nan,228.0,nan
WMO62781,EN NAHUD SUDAN,12.70000,28.43333,564.0,nan,237.1,213.6,242.3,251.3,205.3,220.7,186.7,228.7,210.3,228.1,nan,213.4,nan,nan
WMO63021,ASMARA ERITREA,15.28333,38.91667,2325.0,nan,nan,nan,nan,nan,nan,nan,nan,nan,nan,nan,nan,nan,nan,nan
WMO63630,GULU UGANDA,2.75000,32.33333,1105.0,nan,nan,nan,nan,nan,nan,nan,nan,nan,nan,nan,nan,nan,nan,nan
WMO63820,MOMBASA INTERNATIONAL AIRPORT KENYA,-4.00000,39.60000,nan,nan,nan,nan,nan,217.0,nan,nan,232.0,nan,201.0,nan,nan,nan,nan,nan
WMO64247,MBUJI-MAYI DEMOCRATIC REPUBLIC OF THE CONGO,-6.16667,23.61667,677.0,nan,nan,nan,nan,nan,nan,nan,nan,nan,nan,nan,nan,nan,nan,nan
WMO64453,DJAMBALA CONGO,-2.53333,14.76667,790.0,nan,nan,nan,nan,nan,nan,nan,175.0,177.6,144.7,nan,nan,140.3,174.9,136.0
WMO64507,TCHIBANGA GABON,-2.85000,11.01667,79.0,nan,nan,nan,nan,nan,nan,nan,nan,nan,nan,nan,nan,nan,nan,nan
WMO64605,BOSSEMBELE CENTRAL AFRICAN REPUBLIC,5.26667,17.63333,674.0,nan,nan,nan,nan,nan,nan,nan,nan,nan,nan,nan,nan,nan,nan,nan
WMO64700,NDJAMENA CHAD,12.13333,15.03333,295.0,nan,243.9,215.6,258.7,nan,171.0,227.3,187.3,230.4,276.9,260.4,195.1,240.0,231.0,nan
WMO64754,AM-TIMAN CHAD,11.03333,20.28333,436.0,nan,nan,nan,nan,nan,nan,nan,nan,nan,nan,nan,nan,nan,nan,nan
WMO64900,YOKO CAMEROON,5.55000,12.36667,1031.0,nan,nan,nan,nan,nan,nan,nan,nan,nan,nan,nan,nan,nan,nan,nan
WMO65123,MINNA NIGERIA,9.61667,6.53333,256.0,nan,nan,nan,nan,141.6,136.3,154.6,nan,130.7,140.1,156.1,155.3,158.9,145.7,155.0
WMO65338,BOHICON BENIN,7.16667,2.06667,167.0,nan,190.4,120.0,127.7,147.3,190.3,140.3,125.3,134.9,126.0,159.4,134.0,134.3,166.6,158.3
WMO65387,LOME TOGO,6.16667,1.25000,25.0,nan,nan,nan,nan,141.0,145.9,nan,nan,nan,nan,nan,nan,nan,167.9,165.0
WMO65502,OUAHIGOUYA BURKINA FASO,13.58333,-2.43333,nan,nan,256.4,243.0,258.1,246.9,219.1,237.3,229.3,271.9,242.6,nan,nan,nan,226.6,281.0
WMO65545,BONDOUKOU COTE D'IVOIRE,8.05000,-2.78333,370.0,nan,nan,119.0,nan,nan,nan,nan,129.0,nan,nan,149.0,146.7,141.0,nan,nan
WMO65594,SAN PEDRO COTE D'IVOIRE,4.75000,-6.65000,30.0,nan,nan,130.0,nan,nan,nan,nan,145.0,nan,nan,nan,nan,159.0,nan,nan
WMO67009,ANTSIRANANA MADAGASCAR,-12.35000,49.30000,105.0,nan,274.6,274.7,278.4,260.9,272.4,228.9,242.0,nan,271.7,252.9,nan,281.4,269.3,nan
WMO67161,TOLIARA MADAGASCAR,-23.38333,43.73333,8.0,nan,nan,nan,nan,nan,nan,nan,nan,nan,nan,nan,nan,nan,nan,nan
WMO67283,QUELIMANE MOZAMBIQUE,-17.88333,36.88333,16.0,nan,nan,222.7,225.9,236.3,175.0,nan,227.0,202.0,227.0,nan,nan,nan,nan,nan
WMO67346,CHANGALANE MOZAMBIQUE,-26.28333,32.18333,104.0,nan,nan,nan,nan,nan,nan,nan,nan,nan,nan,nan,nan,239.9,nan,nan
WMO67693,CHILEKA MALAWI,-15.68333,34.96667,767.0,nan,nan,nan,nan,nan,nan,nan,nan,nan,nan,nan,nan,nan,nan,nan
WMO68006,ONDANGWA NAMIBIA,-17.93333,15.98333,nan,nan,nan,nan,nan,nan,nan,nan,nan,nan,nan,nan,nan,nan,nan,nan
WMO68174,POLOKWANE SOUTH AFRICA,-23.86667,29.45000,1226.0,nan,263.4,286.9,259.7,260.7,263.0,285.0,285.6,281.9,294.3,272.1,260.7,279.0,262.4,nan
WMO68442,BLOEMFONTEIN AIRPORT SOUTH AFRICA,-29.10000,26.30000,1353.0,nan,263.3,251.6,239.3,220.0,241.7,237.7,186.9,267.7,246.1,nan,nan,260.4,259.0,272.0
WMO68828,GEORGE AIRPORT SOUTH AFRICA,-34.01667,22.38333,191.0,nan,197.6,211.7,176.6,160.9,201.1,185.4,177.0,182.0,202.9,nan,nan,191.3,189.1,nan
WMO70231,MCGRATH AK UNITED STATES OF AMERICA (ALASKA),62.95000,-155.58333,103.0,nan,nan,nan,nan,nan,nan,nan,nan,nan,nan,nan,nan,nan,nan,nan
WMO71066,HIGH LEVEL ALTA CANADA,58.61667,-117.15000,nan,nan,nan,nan,nan,nan,nan,nan,nan,nan,nan,nan,nan,nan,nan,nan
WMO71299,KAPUSKASING CDA ON ONT CANADA,49.40000,-82.43333,nan,nan,nan,nan,nan,nan,nan,nan,nan,nan,nan,nan,nan,nan,nan,nan
WMO71727,BAGOTVILLE A QUE CANADA,48.33333,-71.00000,nan,nan,nan,nan,nan,nan,nan,nan,nan,nan,nan,nan,nan,nan,nan,nan
WMO71831,KAPUSKASING CANADA,49.40000,-82.50000,nan,nan,nan,nan,nan,nan,nan,nan,nan,nan,nan,nan,nan,nan,nan,nan
WMO71874,LETHBRIDGE AIRPORT CANADA,49.60000,-112.80000,nan,nan,nan,nan,nan,nan,nan,nan,nan,nan,nan,nan,nan,nan,nan,nan
WMO71915,CORAL HARBOUR A NU CANADA,64.18333,-83.35000,nan,nan,nan,nan,nan,nan,nan,nan,nan,nan,nan,nan,nan,nan,nan,nan
WMO71957,INUVIK/NWT (SY) CANADA,68.30000,-133.48333,nan,nan,nan,nan,nan,nan,nan,nan,nan,nan,nan,nan,nan,nan,nan,nan
WMO72226,MONTGOMERY/DANNELLY  AL. UNITED STATES OF AMERICA,32.30000,-86.40000,62.0,nan,nan,nan,nan,nan,nan,nan,nan,nan,nan,nan,nan,nan,nan,nan
WMO72259,DALLAS-FORT WORTH/FORT WORTH REG.AIRPORT TX. UNITED STATES OF AMERICA,32.90000,-97.03333,182.0,nan,nan,nan,nan,nan,nan,nan,nan,nan,nan,nan,nan,nan,nan,nan
WMO72308,NORFOLK/INT. VA. UNITED STATES OF AMERICA,36.90000,-76.20000,9.0,nan,nan,nan,nan,nan,nan,nan,nan,nan,nan,nan,nan,nan,nan,nan
WMO72344,FORT SMITH/MUN. AR. UNITED STATES OF AMERICA,35.33333,-94.36667,141.0,nan,nan,nan,nan,nan,nan,nan,nan,nan,nan,nan,nan,nan,nan,nan
WMO72406,BALTIMORE/BALTIMORE-WASHINGTON INT. MD. UNITED STATES OF AMERICA,39.18333,-76.66667,47.0,nan,nan,nan,nan,nan,nan,nan,nan,nan,nan,nan,nan,nan,nan,nan
WMO72439,SPRINGFIELD/CAPITAL  IL. UNITED STATES OF AMERICA,39.85000,-89.66667,187.0,nan,nan,nan,nan,nan,nan,nan,nan,nan,nan,nan,nan,nan,nan,nan
WMO72483,SACRAMENTO/EXECUTIVE CA. UNITED STATES OF AMERICA,38.51667,-121.50000,8.0,nan,nan,nan,nan,nan,nan,nan,nan,nan,nan,nan,nan,nan,nan,nan
WMO72517,ALLENTOWN/A.-BETHLEHEM-EASTON PA. UNITED STATES OF AMERICA,40.65000,-75.43333,117.0,nan,nan,nan,nan,nan,nan,nan,nan,nan,nan,nan,nan,nan,nan,nan
WMO72537,DETROIT/METROPOLITAN MI. UNITED STATES OF AMERICA,42.23333,-83.33333,202.0,nan,nan,nan,nan,nan,nan,nan,nan,nan,nan,nan,nan,nan,nan,nan
WMO72597,MEDFORD/MEDFORD-JACKSON COUNTY OR. UNITED STATES OF AMERICA,42.36667,-122.86667,398.0,nan,nan,nan,nan,nan,nan,nan,nan,nan,nan,nan,nan,nan,nan,nan
WMO72658,MINNEAPOLIS/ST.PAUL INT. MN. UNITED STATES OF AMERICA,44.88333,-93.21667,255.0,nan,nan,nan,nan,nan,nan,nan,nan,nan,nan,nan,nan,nan,nan,nan
WMO72753,FARGO/HECTOR FIELD  ND. UNITED STATES OF AMERICA,46.90000,-96.80000,274.0,nan,nan,nan,nan,nan,nan,nan,nan,nan,nan,nan,nan,nan,nan,nan
WMO76040,EJIDO NUEVO LEON MEXICO,32.40000,-115.18333,nan,nan,305.0,324.3,321.0,357.0,374.3,363.0,364.7,362.3,372.3,312.6,325.3,nan,345.1,nan
WMO76256,EMPALME SON. MEXICO,27.95000,-110.80000,nan,nan,329.9,323.9,307.3,289.0,302.9,302.7,305.9,305.1,308.9,297.7,295.3,302.7,295.7,321.0
WMO76402,CIUDAD CONSTITUCION BCS MEXICO,25.00000,-111.63333,nan,nan,309.3,337.7,331.6,314.0,266.1,331.1,320.6,316.6,333.3,nan,nan,nan,305.7,329.3
WMO76539,SAN LUIS POTOSI  S.L.P. MEXICO,22.20000,-101.01667,nan,nan,279.4,224.9,249.0,274.3,159.0,nan,262.3,245.7,225.4,214.3,252.0,nan,247.0,256.9
WMO76612,GUADALAJARA JAL. MEXICO,20.70000,-103.38333,nan,nan,nan,206.0,nan,nan,nan,nan,nan,225.0,210.0,208.9,253.6,188.0,222.1,nan
WMO76658,COLIMA MEXICO,19.23333,-103.73333,nan,nan,185.0,205.6,202.6,298.0,218.0,145.0,191.1,188.4,201.1,164.7,202.0,nan,160.0,197.4
WMO76692,HACIENDA YLANG YLANG VERACRUZ VER. MEXICO,19.15000,-96.13333,nan,nan,231.4,258.7,222.0,248.0,238.1,246.0,223.1,250.4,198.1,233.6,224.3,nan,251.4,246.3
WMO76805,ACAPULCO GRO. MEXICO,16.75000,-99.75000,nan,nan,248.0,258.4,237.3,268.7,222.0,209.7,246.0,224.7,208.6,215.3,261.0,229.4,232.0,256.4
WMO78310,CABO SAN ANTONIO  PINAR DEL RIO CUBA,21.86667,-84.95000,8.0,nan,nan,nan,nan,nan,247.9,nan,nan,nan,nan,nan,nan,nan,nan,nan
WMO78482,BARAHONA DOMINICAN REPUBLIC,18.20000,-71.10000,nan,nan,nan,nan,nan,nan,nan,nan,nan,nan,nan,nan,nan,nan,nan,nan
WMO78760,PUNTARENAS COSTA RICA,9.96667,-84.83333,3.0,nan,nan,nan,nan,nan,nan,nan,nan,nan,nan,nan,nan,nan,nan,nan
WMO80001,SAN ANDRES (ISLA)/SESQUICENTENARIO COLOMBIA,12.58333,-81.71667,6.0,nan,180.7,213.6,187.9,213.9,172.0,146.3,206.0,203.0,182.0,168.9,199.6,203.1,180.1,208.4
WMO80094,BUCARAMANGA/PALONEGRO COLOMBIA,7.10000,-73.20000,1189.0,nan,138.0,151.3,142.1,173.1,136.6,131.3,162.3,150.9,161.1,161.7,162.0,nan,156.1,150.6
WMO80219,GIRARDOT/SANTIAGO VILLA COLOMBIA,4.28333,-74.80000,293.0,nan,nan,nan,nan,nan,nan,nan,nan,nan,nan,nan,nan,nan,nan,nan
WMO80398,LETICIA/VASQUEZ COBO COLOMBIA,-4.16667,-69.95000,84.0,nan,201.7,176.9,159.4,152.0,169.7,160.0,170.0,176.6,186.6,nan,nan,nan,127.6,166.4
WMO80420,CUMANA VENEZUELA,10.45000,-64.18333,4.0,nan,238.3,233.0,217.1,236.7,213.3,223.1,180.4,214.4,244.1,nan,nan,162.0,nan,nan
WMO80435,MATURIN VENEZUELA,9.75000,-63.18333,66.0,nan,183.9,188.0,206.7,204.7,173.0,181.3,199.0,169.7,175.4,nan,nan,113.0,nan,nan
WMO80457,PUERTO AYACUCHO VENEZUELA,5.60000,-67.50000,74.0,nan,86.0,138.9,143.3,134.6,121.0,120.4,125.0,137.4,114.0,119.7,132.7,118.0,nan,nan
WMO81401,SAINT-LAURENT FRENCH GUIANA,5.48333,-54.01667,5.0,nan,103.1,nan,nan,nan,nan,nan,nan,nan,nan,nan,nan,139.0,127.4,135.6
WMO82184,PORTO DE MOZ BRAZIL,-1.73333,-52.23333,16.0,nan,204.9,233.4,189.7,169.0,230.0,nan,nan,nan,nan,nan,nan,nan,nan,nan
WMO82397,FORTALEZA BRAZIL,-3.76667,-38.60000,26.0,nan,212.9,268.1,216.0,184.0,248.4,206.7,247.1,217.7,229.1,nan,nan,238.0,236.9,nan
WMO82586,QUIXERAMOBIM BRAZIL,-5.20000,-39.30000,212.0,nan,229.0,242.9,219.3,221.1,260.0,219.9,252.6,239.0,249.4,nan,nan,nan,228.4,194.9
WMO82900,RECIFE BRAZIL,-8.05000,-34.91667,7.0,nan,162.4,148.9,150.7,161.0,179.0,145.4,172.7,173.7,193.4,162.4,220.0,115.3,193.4,177.7
WMO83236,BARREIRAS BRAZIL,-12.15000,-45.00000,439.0,nan,271.0,263.0,299.6,275.9,287.0,292.9,297.1,288.3,281.3,264.6,299.0,nan,298.6,281.1
WMO83437,MONTES CLAROS BRAZIL,-16.71667,-43.86667,646.0,nan,250.3,286.3,265.7,261.0,260.9,263.1,286.4,253.4,239.0,256.4,266.0,220.0,278.6,271.4
WMO83618,TRES LAGOAS BRAZIL,-20.78333,-51.70000,313.0,nan,227.1,224.7,207.6,168.0,nan,nan,nan,nan,nan,nan,nan,nan,nan,nan
WMO83726,SAO CARLOS BRAZIL,-22.01667,-47.88333,856.0,nan,224.4,219.3,203.4,172.9,226.7,191.6,171.0,144.1,197.9,193.9,nan,nan,nan,nan
WMO83997,ST.VITORIA DO PALMAR BRAZIL,-33.51667,-53.35000,24.0,nan,142.9,142.9,137.9,142.7,136.4,145.7,133.9,158.6,132.9,154.4,120.4,nan,111.7,nan
WMO84140,PICHILINGUE ECUADOR,-1.10000,-79.45000,nan,nan,nan,nan,57.0,55.4,48.3,46.1,80.1,36.1,80.3,98.0,89.0,49.9,nan,52.0
WMO85033,GUAYARAMERIN BOLIVIA,-10.81667,-65.35000,nan,nan,nan,nan,278.0,193.3,nan,nan,nan,nan,nan,nan,nan,nan,nan,nan
WMO85154,TRINIDAD BOLIVIA,-14.81667,-64.91667,nan,nan,nan,197.0,265.0,190.6,269.0,248.0,241.1,147.0,174.0,nan,nan,220.3,201.4,220.6
WMO85406,ARICA CHILE,-18.35000,-70.33333,nan,nan,143.3,76.3,130.4,157.9,120.4,85.9,144.7,134.9,115.6,131.4,142.1,106.7,69.9,120.1
WMO85577,QUINTA NORMAL CHILE,-33.43333,-70.66667,nan,nan,82.7,108.3,127.4,125.1,141.6,149.4,122.0,137.3,113.1,150.6,120.0,108.6,141.7,100.0
WMO85864,COYHAIQUE CHILE,-45.58333,-73.10000,nan,nan,47.3,46.0,71.7,83.7,52.7,77.7,79.7,73.0,63.1,52.6,53.9,37.6,31.4,nan
WMO86086,PUERTO CASADO PARAGUAY,-22.28333,-57.93333,78.0,nan,nan,nan,nan,nan,164.0,156.1,157.7,159.4,157.4,nan,nan,nan,138.0,180.3
WMO86221,PARAGUARI PARAGUAY,-25.63333,-57.13333,116.0,nan,nan,nan,nan,nan,nan,127.1,136.9,122.7,110.3,111.9,174.1,181.1,146.3,164.6
WMO86285,CAPITAN MEZA PARAGUAY,-26.83333,-55.33333,263.0,nan,nan,nan,nan,nan,nan,134.3,163.6,151.4,135.9,159.7,173.7,nan,124.0,166.6
WMO86560,COLONIA URUGUAY,-34.45000,-57.76667,20.0,nan,145.0,nan,nan,nan,nan,nan,nan,nan,nan,nan,147.1,119.0,163.4,106.3
WMO87078,LAS LOMITAS ARGENTINA,-24.70000,-60.58333,130.0,nan,163.4,121.0,145.7,164.0,127.4,140.1,149.4,138.6,95.1,nan,nan,165.7,126.3,nan
WMO87166,CORRIENTES AERO. ARGENTINA,-27.45000,-58.76667,62.0,nan,168.0,214.0,nan,nan,nan,nan,nan,nan,nan,nan,nan,nan,nan,nan
WMO87289,PASO DE LOS LIBRES AERO ARGENTINA,-29.68333,-57.15000,70.0,nan,155.4,102.7,122.3,183.1,123.7,135.1,131.3,147.4,123.4,119.7,146.7,155.1,121.1,nan
WMO87374,PARANA AERO ARGENTINA,-31.78333,-60.48333,78.0,nan,156.0,162.9,155.6,191.3,168.0,145.7,181.1,176.6,176.7,176.4,154.3,158.3,158.3,139.6
WMO87484,PERGAMINO ARGENTINA,-33.93333,-60.55000,nan,nan,nan,nan,nan,nan,nan,nan,nan,nan,nan,nan,nan,nan,nan,nan
WMO87550,NUEVE DE JULIO ARGENTINA,-35.45000,-60.88333,76.0,nan,nan,nan,nan,nan,nan,nan,nan,nan,nan,nan,nan,nan,nan,nan
WMO87640,BOLIVAR AERO ARGENTINA,-36.20000,-61.06667,94.0,nan,118.4,172.6,136.9,193.0,159.9,148.0,182.9,185.6,164.0,nan,nan,149.4,156.9,136.1
WMO87692,MAR DEL PLATA AERO ARGENTINA,-37.93333,-57.58333,21.0,nan,81.7,127.4,70.1,100.4,105.3,71.9,88.6,119.6,111.9,85.9,73.7,74.3,64.6,61.7
WMO87800,EL BOLSON AERO ARGENTINA,-41.96667,-71.51667,337.0,nan,56.0,nan,nan,nan,nan,nan,nan,nan,nan,nan,128.0,nan,nan,nan
WMO87903,LAGO ARGENTINO ARGENTINA,-50.33333,-72.30000,nan,nan,nan,nan,nan,nan,nan,nan,nan,nan,nan,nan,nan,nan,nan,nan
WMO88903,GRYTVIKEN  SOUTH GEORGIA ISLANDS(UNITED KINGDOM OF GREAT BRITAIN),-54.28333,-36.48333,3.0,nan,nan,3.1,13.0,1.4,4.1,3.7,3.7,3.7,3.4,nan,nan,nan,nan,0.0
WMO89042,SIGNY ISLAND / SOUTH ORKNEY ISL. ANTARCTICA,-60.70000,-45.60000,nan,nan,nan,nan,nan,nan,nan,nan,nan,nan,nan,nan,nan,nan,nan,nan
WMO89063,VERNADSKY STATIONS OPERATED BY UKRAINE,-65.25000,-64.26667,11.0,nan,nan,nan,nan,nan,nan,nan,nan,nan,nan,nan,6.6,8.6,17.1,13.1
WMO89606,VOSTOK STATIONS OPERATED BY THE RUSSIAN FEDERATION,-78.45000,106.85000,3489.0,nan,0.0,0.0,0.0,0.0,0.0,0.0,0.0,0.0,0.0,0.0,nan,0.0,0.0,nan
WMO91275,JOHNSTON ISLAND (WSO AIRPORT) ISLANDS IN THE PACIFIC OCEAN NORTH OF THE EQUATOR,16.70000,-169.50000,nan,nan,nan,nan,nan,nan,nan,nan,nan,nan,nan,nan,nan,nan,nan,nan
WMO91557,BAUERFIELD (EFATE) VANUATU,-17.70000,168.30000,21.0,nan,nan,nan,nan,nan,nan,nan,nan,nan,nan,nan,nan,nan,nan,nan
WMO91683,NAUSORI FIJI,-18.05000,178.56667,7.0,nan,nan,nan,nan,nan,nan,nan,nan,nan,nan,nan,nan,nan,nan,nan
WMO91938,TAHITI-FAAA FRENCH POLYNESIA (SOCIETY ISLANDS),-17.55000,-149.60000,2.0,nan,227.0,246.0,192.0,240.0,216.4,244.6,252.4,244.3,206.0,nan,nan,nan,233.7,198.7
WMO91958,RAPA FRENCH POLYNESIA (AUSTRAL ISLANDS),-27.61667,-144.33333,2.0,nan,85.1,92.0,108.7,87.0,65.6,90.6,90.9,102.0,92.0,72.3,124.0,90.3,102.9,102.9
WMO92077,GURNEY W.O. PAPUA NEW GUINEA,-10.31667,150.33333,23.0,nan,nan,nan,nan,nan,nan,nan,nan,nan,nan,nan,nan,nan,nan,nan
WMO93417,PARAPARAUMU NEW ZEALAND,-40.90000,174.98333,nan,nan,146.6,120.6,101.1,97.9,nan,nan,nan,nan,nan,nan,nan,nan,nan,nan
WMO93986,WAITANGI / CHATHAM ISL. NEW ZEALAND,-44.00000,-176.60000,nan,nan,nan,nan,nan,nan,nan,nan,nan,nan,nan,nan,nan,nan,nan,nan
WMO94238,TENNANT CREEK AIRPORT AUSTRALIA,-19.63333,134.18333,377.0,nan,307.1,254.7,326.0,313.0,257.0,293.0,nan,nan,307.7,nan,nan,nan,nan,nan
WMO94476,OODNADATTA AIRPORT AUSTRALIA,-27.55000,135.43333,117.0,nan,nan,nan,nan,nan,nan,nan,nan,nan,nan,nan,nan,nan,nan,nan
WMO94738,SCONE SCS AUSTRALIA,-32.05000,150.91667,216.0,nan,nan,116.0,nan,nan,nan,nan,nan,nan,nan,nan,nan,nan,nan,nan
WMO94926,CANBERRA AIRPORT AUSTRALIA,-35.30000,149.20000,577.0,nan,170.6,172.0,183.0,204.0,nan,nan,138.0,nan,nan,nan,nan,nan,nan,nan
WMO95971,GROVE/TAS AUSTRALIA,-42.98333,147.06667,nan,nan,nan,92.1,87.0,nan,nan,nan,nan,nan,nan,nan,nan,nan,nan,nan
WMO96091,TANJUNG PINANG/KIJANG INDONESIA,0.91667,104.53333,18.0,nan,nan,nan,nan,nan,nan,nan,118.1,147.9,168.1,209.1,163.0,157.4,116.0,154.0
WMO96249,TANJUNG PANDAN/BULUH TUMBANG INDONESIA,-2.75000,107.75000,44.0,nan,154.0,139.3,148.4,178.7,92.7,120.0,166.3,144.7,153.3,193.3,145.1,144.6,175.9,152.7
WMO96481,TAWAU MALAYSIA (SABAH AND SARAWAK),4.26667,117.88333,20.0,nan,nan,nan,nan,nan,nan,238.0,206.0,182.7,nan,nan,nan,nan,nan,nan
WMO96615,KETAPANG/KALIMANTAN INDONESIA,-1.85000,109.96667,nan,nan,nan,nan,179.9,204.0,158.6,208.7,209.0,205.4,227.4,nan,nan,209.1,227.9,219.3
WMO96745,JAKARTA/OBSERVATORY INDONESIA,-6.18333,106.83333,8.0,nan,187.7,174.6,156.3,171.0,87.7,137.1,128.6,83.0,65.4,148.4,118.3,132.9,141.0,nan
WMO96845,SURAKARTA/JAVA INDONESIA,-7.51667,110.75000,nan,nan,nan,nan,nan,nan,nan,nan,nan,nan,nan,nan,nan,nan,nan,nan
WMO97014,MENADO/ SAM RATULANGI INDONESIA,1.53333,124.91667,80.0,nan,148.7,139.9,139.3,153.1,164.0,126.7,163.0,163.9,182.1,194.6,157.6,nan,175.3,163.9
WMO97180,UJUNG PANDANG/HASANUDDIN INDONESIA,-5.06667,119.55000,14.0,nan,220.7,157.6,200.6,247.6,171.6,237.6,211.0,180.4,209.9,nan,nan,nan,171.4,nan
WMO97320,MALI/ALOR ISLAND INDONESIA,-8.13333,124.60000,nan,nan,nan,nan,nan,nan,nan,270.0,253.0,221.4,201.4,nan,nan,195.6,256.7,nan
WMO97460,LABUHA/WEST IRIAN INDONESIA,0.63333,127.50000,nan,nan,228.0,129.0,89.1,149.4,161.7,98.6,120.7,132.7,151.3,nan,nan,nan,135.6,148.7
WMO97690,JAYAPURA/SENTANI INDONESIA,-2.56667,140.48333,99.0,nan,nan,nan,53.1,104.3,185.3,204.7,60.3,143.0,135.1,nan,nan,143.0,133.1,124.9
WMO97810,TUAL/MOLUKKEN INDONESIA,-5.68333,132.75000,nan,nan,nan,nan,143.0,143.0,148.1,98.4,163.4,131.3,164.6,nan,nan,nan,138.9,123.3
WMO98425,MANILA PHILIPPINES,14.58333,120.98333,nan,nan,nan,nan,nan,nan,nan,nan,nan,nan,nan,nan,nan,nan,nan,nan
WMO98836,ZAMBOANGA PHILIPPINES,6.91667,122.05000,6.0,nan,146.4,157.3,172.0,137.1,162.0,157.4,207.0,149.0,181.1,171.3,179.1,nan,nan,nan
