id,name,latitude,longitude,elev,2005,2006,2007,2008,2009,2010,2011,2012,2013,2014,2015,2016,2017,2018,2019
id,name,latitude,longitude,elev,2005,2006,2007,2008,2009,2010,2011,2012,2013,2014,2015,2016,2017,2018,2019
WMO02197,HAPARANDA SWEDEN,65.81667,24.10000,15.0,nan,nan,nan,nan,nan,166.3,86.9,120.0,106.7,nan,nan,nan,nan,nan,nan
WMO02805,UTSJOKI KEVO FINLAND,69.75000,27.03333,101.0,nan,46.3,77.7,112.1,86.0,47.0,36.7,54.9,97.0,81.6,67.4,68.0,84.7,102.3,nan
WMO02963,JOKIOINEN OBSERVATORY FINLAND,60.81667,23.50000,103.0,nan,123.9,96.1,92.3,106.0,102.9,96.7,80.7,126.0,140.0,135.7,130.6,82.3,112.4,100.3
WMO03160,EDINBURGH (TURNHOUSE AIRPORT) UNITED KINGDOM OF GREAT BRITAIN AND NORTHERN IRELAND,56.00000,-3.40000,nan,nan,nan,nan,nan,nan,nan,nan,nan,nan,nan,nan,nan,nan,nan,nan
WMO03534,BIRMINGHAM_AIRPORT UNITED KINGDOM OF GREAT BRITAIN AND NORTHERN IRELAND,52.45000,-1.73333,nan,nan,nan,nan,nan,nan,nan,nan,nan,nan,nan,nan,nan,nan,nan,nan
WMO03827,PLYMOUTH-MOUNT BATTON UNITED KINGDOM OF GREAT BRITAIN AND NORTHERN IRELAND,50.40000,-4.10000,nan,nan,nan,nan,nan,nan,nan,nan,nan,nan,nan,nan,nan,nan,nan,nan
WMO03964,GALWAY IRELAND,53.30000,-9.00000,nan,nan,nan,nan,nan,nan,nan,nan,nan,nan,nan,nan,nan,nan,nan,nan
WMO04030,REYKJAVIK ICELAND,64.13333,-21.90000,61.0,nan,120.7,83.0,110.1,67.1,108.3,148.9,137.0,114.9,88.6,nan,nan,nan,141.4,120.6
WMO06590,LUXEMBOURG/LUXEMBOURG LUXEMBOURG,49.61667,6.21667,376.0,nan,163.7,166.3,133.6,159.3,171.7,181.0,173.6,135.3,165.3,nan,nan,nan,220.9,159.3
WMO07015,LILLE-LESQUIN FRANCE,50.56667,3.08333,47.0,nan,155.1,120.0,147.9,150.0,141.9,159.0,163.1,139.7,141.7,135.7,160.7,126.3,179.0,nan
WMO07149,ORLY FRANCE,48.71667,2.38333,90.0,nan,nan,nan,nan,170.6,182.1,167.4,148.1,136.7,188.0,160.4,158.4,132.4,204.0,nan
WMO07299,BALE-MULHOUSE FRANCE,47.60000,7.50000,273.0,nan,158.1,172.7,128.3,163.0,178.1,214.0,139.3,145.0,170.4,158.3,173.1,157.7,nan,nan
WMO07577,MONTELIMAR FRANCE,44.56667,4.71667,74.0,nan,212.1,250.7,198.9,241.3,226.9,233.4,191.1,209.9,222.4,208.9,232.6,230.3,253.7,nan
WMO07747,PERPIGNAN FRANCE,42.73333,2.86667,44.0,nan,180.7,243.9,213.3,241.0,219.9,246.3,183.3,222.4,224.3,nan,nan,nan,215.7,219.4
WMO08023,SANTANDER SPAIN,43.48333,-3.78333,59.0,nan,168.7,193.4,187.6,205.9,179.4,206.6,185.9,175.3,215.9,172.6,185.4,180.0,212.6,196.6
WMO08075,BURGOS/VILLAFRIA SPAIN,42.35000,-3.61667,892.0,nan,176.9,216.0,214.9,217.4,209.9,259.7,202.4,235.6,228.7,nan,nan,nan,267.6,217.7
WMO08161,ZARAGOZA SPAIN,41.63333,-0.90000,nan,nan,nan,nan,nan,nan,nan,nan,nan,nan,nan,nan,nan,nan,nan,nan
WMO08219,COLMENAR VIEJO/FAMET SPAIN,40.68333,-3.75000,998.0,nan,204.3,240.3,221.6,232.7,235.4,276.0,235.1,244.0,228.9,216.7,250.1,281.0,236.1,nan
WMO08238,TORTOSA SPAIN,40.81667,0.48333,50.0,nan,213.9,238.9,197.9,223.4,242.1,267.3,207.1,246.9,212.0,210.0,227.1,244.0,241.0,nan
WMO08314,MENORCA/MAHON SPAIN,39.85000,4.20000,86.0,nan,176.9,174.6,158.4,198.1,190.1,235.0,193.1,196.4,213.0,182.0,232.3,228.4,218.4,251.0
WMO08397,MORON DE LA FRONTERA SPAIN,37.15000,-5.60000,88.0,nan,233.1,241.0,206.9,243.9,254.1,272.7,234.7,242.7,242.4,230.3,266.3,nan,252.9,253.9
WMO08452,CADIZ OBS. SPAIN,36.50000,-6.25000,9.0,nan,186.0,nan,212.0,nan,nan,nan,241.1,nan,nan,nan,nan,nan,nan,nan
WMO08515,SANTA MARIA (ACORES) PORTUGAL,36.96667,-25.16667,100.0,nan,253.0,214.7,230.7,nan,208.0,208.0,139.0,nan,204.0,nan,nan,nan,193.7,175.9
WMO08558,EVORA/C. COORD PORTUGAL,38.53333,-7.90000,246.0,nan,238.3,246.7,236.0,256.7,220.6,241.4,224.4,248.0,164.9,nan,nan,251.0,210.9,155.1
WMO10035,SCHLESWIG GERMANY,54.51667,9.53333,nan,nan,160.7,127.4,102.0,145.9,137.1,141.4,109.4,119.1,147.4,143.0,173.6,nan,155.1,119.1
WMO10131,CUXHAVEN GERMANY,53.86667,8.70000,12.0,nan,167.0,125.7,139.4,154.3,127.9,142.1,107.6,117.1,141.1,nan,nan,nan,164.4,129.0
WMO10168,GOLDBERG GERMANY,53.60000,12.10000,59.0,nan,nan,nan,nan,162.1,125.7,159.7,142.6,124.4,154.4,153.4,182.6,127.6,190.1,nan
WMO10235,SOLTAU GERMANY,52.95000,9.78333,77.0,nan,nan,nan,nan,145.4,109.7,156.4,119.9,104.7,132.6,124.7,148.4,102.3,176.3,126.7
WMO10282,FELDBERG/MECKLENBURG GERMANY,53.31667,13.41667,116.0,nan,nan,nan,nan,152.4,136.1,171.3,150.4,116.0,149.1,143.0,178.7,115.6,186.0,141.0
WMO10325,BAD SALZUFLEN GERMANY,52.10000,8.75000,136.0,nan,225.0,nan,nan,130.9,106.6,159.4,130.7,109.6,128.3,129.1,165.3,96.4,182.0,nan
WMO10381,BERLIN-DAHLEM GERMANY,52.46667,13.30000,nan,nan,201.6,136.7,130.4,177.3,141.6,192.7,189.4,121.7,151.4,167.9,196.4,nan,209.1,170.4
WMO10427,KAHLER ASTEN GERMANY,51.16667,8.48333,858.0,nan,171.9,101.7,99.0,113.4,95.9,138.9,129.1,88.3,89.3,88.7,159.9,65.3,164.7,110.3
WMO10453,BROCKEN GERMANY,51.80000,10.61667,1152.0,nan,179.4,85.9,95.1,122.4,102.6,158.9,135.9,86.1,98.7,nan,nan,70.9,173.1,nan
WMO10490,DOBERLUG-KIRCHHAIN GERMANY,51.63333,13.56667,97.0,nan,nan,nan,nan,155.1,146.6,193.3,184.1,120.6,127.1,148.3,167.7,116.3,183.1,nan
WMO10520,ANDERNACH GERMANY,50.41667,7.41667,76.0,nan,nan,nan,nan,nan,nan,155.0,146.1,119.1,103.3,nan,nan,nan,186.4,147.1
WMO10552,SCHMUECKE GERMANY,50.65000,10.76667,939.0,nan,nan,nan,nan,108.0,121.4,171.3,160.1,101.6,94.7,93.6,141.9,71.1,185.0,nan
WMO10579,MARIENBERG GERMANY,50.65000,13.13333,640.0,nan,nan,nan,nan,149.1,130.6,190.6,166.7,116.3,122.0,134.1,158.4,98.4,190.4,154.6
WMO10646,NEUHUETTEN-SPESSART GERMANY,50.00000,9.41667,340.0,nan,nan,nan,nan,141.7,129.7,182.4,173.6,121.4,90.6,nan,nan,nan,199.1,148.9
WMO10706,THOLEY GERMANY,49.46667,7.03333,387.0,nan,nan,nan,nan,155.7,154.4,182.7,170.6,105.9,142.7,nan,nan,nan,224.3,155.4
WMO10742,OEHRINGEN GERMANY,49.20000,9.51667,274.0,nan,183.0,145.3,107.6,150.6,153.9,196.1,185.4,125.6,132.7,131.1,183.6,124.4,213.6,191.0
WMO10796,ZWIESEL GERMANY,49.01667,13.23333,616.0,nan,nan,nan,nan,163.6,146.0,181.6,159.6,109.0,126.9,nan,nan,107.1,197.1,nan
WMO10852,AUGSBURG GERMANY,48.41667,10.93333,476.0,nan,183.9,135.6,106.3,150.7,140.1,182.7,154.7,124.9,93.7,119.3,186.9,130.9,207.7,163.0
WMO10929,KONSTANZ GERMANY,47.66667,9.18333,444.0,nan,160.7,145.1,132.7,168.0,154.0,164.1,141.7,126.0,131.0,141.1,178.6,151.7,225.0,nan
WMO11028,ST. POELTEN (HESSERKASERNE) AUSTRIA,48.20000,15.60000,nan,nan,nan,nan,nan,nan,nan,nan,nan,nan,nan,nan,nan,nan,nan,nan
WMO11406,EGER CZECH REPUBLIC,50.08333,12.40000,nan,nan,nan,nan,nan,nan,nan,nan,nan,nan,nan,nan,nan,nan,nan,nan
WMO11787,LYSA HORA CZECH REPUBLIC,49.53333,18.43333,1326.0,nan,195.4,113.1,126.9,126.9,129.1,187.1,140.3,107.9,126.1,nan,nan,nan,177.7,154.4
WMO12330,POZNAN POLAND,52.41667,16.83333,88.0,nan,199.0,138.7,114.4,168.1,157.7,177.1,160.0,135.6,182.0,171.9,184.6,111.6,193.1,nan
WMO12843,BUDAPEST/PESTSZENTLORINC HUNGARY,47.43333,19.18333,139.0,nan,243.1,185.7,157.6,203.4,139.3,251.0,200.1,204.7,138.0,182.6,253.0,177.9,224.1,233.4
WMO13363,PLJEVLJA MONTENEGRO,43.35000,19.35000,788.0,nan,155.3,123.6,136.9,144.7,nan,194.6,187.0,177.0,110.7,159.3,143.6,179.9,200.9,192.4
WMO13615,TIRANA ALBANIA,41.33333,19.78333,90.0,nan,nan,nan,nan,nan,nan,nan,nan,nan,nan,nan,nan,nan,nan,nan
WMO15023,SUCEAVA ROMANIA,47.61667,26.23333,353.0,nan,217.1,164.0,150.4,185.6,145.1,222.6,209.7,170.7,223.0,nan,nan,nan,197.9,216.3
WMO15360,SULINA ROMANIA,45.13333,29.75000,13.0,nan,206.6,221.9,216.3,228.4,182.4,241.0,233.7,176.1,203.7,176.4,209.6,216.1,188.9,217.9
WMO16008,S. VALENTINO ALLA MUTA ITALY,46.75000,10.53333,1461.0,nan,nan,nan,nan,nan,nan,nan,nan,nan,nan,nan,nan,nan,nan,nan
WMO16099,TREVISO/S.ANGELO ITALY,45.65000,12.18333,nan,nan,206.4,203.3,nan,nan,nan,nan,nan,nan,nan,nan,nan,nan,nan,nan
WMO16191,FALCONARA ITALY,43.60000,13.40000,nan,nan,nan,nan,nan,nan,nan,nan,nan,nan,nan,nan,nan,nan,nan,nan
WMO16258,MONTE S. ANGELO ITALY,41.70000,15.93333,848.0,nan,nan,nan,nan,nan,nan,nan,nan,nan,nan,nan,nan,nan,nan,nan
WMO16429,TRAPANI BIRGI ITALY,37.90000,12.48333,9.0,nan,239.1,230.4,227.9,230.1,191.1,225.1,213.1,214.0,217.7,218.4,189.4,244.7,194.7,244.0
WMO16597,LUQA MALTA,35.85000,14.48333,nan,nan,250.1,230.9,242.0,238.3,234.7,254.7,268.6,249.9,242.9,nan,nan,nan,206.0,239.9
WMO16746,SOUDA (AIRPORT) GREECE,35.48333,24.11667,151.0,nan,248.6,266.6,245.0,231.0,244.6,254.3,284.1,295.4,262.6,247.1,268.3,270.6,242.9,nan
WMO17062,ISTANBUL TURKEY,40.90000,29.15000,nan,nan,184.0,205.3,180.1,187.6,177.0,247.7,228.3,217.6,nan,nan,nan,nan,nan,nan
WMO17092,ERZINCAN TURKEY,39.70000,39.51667,1154.0,nan,222.4,252.9,223.1,213.0,226.3,224.0,230.6,233.1,209.1,241.0,226.7,269.3,212.3,235.0
WMO17150,BALIKESIR TURKEY,39.61667,27.91667,102.0,nan,203.6,228.1,201.6,216.7,197.7,246.9,249.1,219.6,192.0,204.3,237.1,248.3,209.4,nan
WMO17202,ELAZIG TURKEY,38.60000,39.28333,881.0,nan,276.1,292.0,263.7,271.1,265.3,256.0,268.1,287.6,181.0,258.7,297.0,300.1,274.0,nan
WMO17255,KAHRAMANMARAS TURKEY,37.60000,36.93333,572.0,nan,225.4,243.4,208.6,233.7,229.1,226.6,240.3,238.6,216.3,223.0,250.0,277.4,231.9,nan
WMO17351,ADANA/BOLGE TURKEY,36.98333,35.35000,27.0,nan,247.3,259.3,227.4,242.4,252.1,279.1,261.6,256.3,255.1,nan,nan,278.6,263.7,nan
WMO20674,OSTROV DIKSON RUSSIAN FEDERATION (IN ASIA),73.50000,80.40000,46.0,nan,29.6,68.6,76.0,32.9,55.7,60.9,43.4,76.7,29.9,70.1,75.6,35.9,53.0,nan
WMO21965,OSTROV CHETYREKHSTOLBOVOY RUSSIAN FEDERATION,70.60000,162.50000,nan,nan,nan,nan,nan,nan,nan,nan,nan,nan,nan,nan,nan,nan,nan,nan
WMO22602,REBOLY RUSSIAN FEDERATION (IN EUROPE),63.83333,30.81667,182.0,nan,nan,nan,nan,nan,nan,nan,nan,nan,nan,nan,nan,nan,nan,nan
WMO23205,NAR'JAN-MAR RUSSIAN FEDERATION (IN ASIA),67.61667,53.01667,11.0,nan,68.4,91.6,49.7,104.1,58.9,99.1,92.6,136.9,60.9,nan,nan,46.7,67.1,nan
WMO23472,TURUHANSK RUSSIAN FEDERATION (IN ASIA),65.78333,87.98333,37.0,nan,75.0,109.0,108.9,81.7,50.9,120.9,107.3,83.1,78.6,94.1,154.3,60.6,94.1,nan
WMO23884,BOR RUSSIAN FEDERATION (IN ASIA),61.56667,90.01667,57.0,nan,133.0,95.9,71.1,89.6,61.6,134.9,88.9,75.7,85.1,82.3,122.1,nan,102.1,71.4
WMO24143,DZARDZAN RUSSIAN FEDERATION (IN ASIA),68.73333,124.00000,38.0,nan,nan,nan,nan,nan,nan,nan,nan,nan,nan,nan,nan,nan,nan,nan
WMO24713,NAKANNO RUSSIAN FEDERATION (IN ASIA),62.88333,108.43333,245.0,nan,144.6,115.4,117.9,118.6,93.7,97.3,114.3,108.7,89.1,nan,nan,nan,102.9,89.1
WMO25173,MYS SHMIDTA RUSSIAN FEDERATION (IN ASIA),68.90000,-179.63333,3.0,nan,nan,nan,nan,nan,nan,nan,nan,nan,nan,nan,nan,nan,nan,nan
WMO25538,VERHNEE PENZINO RUSSIAN FEDERATION (IN ASIA),64.21667,164.23333,325.0,nan,143.7,nan,nan,157.1,61.7,nan,nan,128.6,117.6,160.0,113.9,nan,nan,nan
WMO26038,TALLINN-HARKU ESTONIA,59.38333,24.60000,34.0,nan,151.7,114.9,112.1,123.4,105.7,135.4,97.4,156.3,171.7,144.0,156.1,119.9,155.1,nan
WMO26393,VYSNIJ VOLOCEK RUSSIAN FEDERATION,57.58333,34.56667,nan,nan,nan,nan,nan,nan,nan,nan,nan,nan,nan,nan,nan,nan,nan,nan
WMO26629,KAUNAS LITHUANIA,54.88333,23.83333,76.0,nan,220.1,169.4,125.7,186.4,165.1,171.3,152.7,110.6,174.9,136.3,131.0,nan,194.3,163.4
WMO27199,KIROV RUSSIAN FEDERATION (IN EUROPE),58.56667,49.56667,158.0,nan,nan,nan,nan,nan,nan,nan,nan,nan,nan,nan,nan,nan,nan,nan
WMO28138,BISER RUSSIAN FEDERATION (IN ASIA),58.51667,58.85000,463.0,nan,85.1,132.0,95.1,174.3,132.9,42.1,95.6,70.9,136.7,86.7,76.3,94.1,134.4,nan
WMO28573,ISHIM RUSSIAN FEDERATION (IN ASIA),56.10000,69.43333,82.0,nan,138.9,152.6,116.4,181.6,144.1,175.9,152.6,136.9,120.1,nan,nan,145.3,177.9,nan
WMO28766,BLAGOVESHCHENKA KAZAKHSTAN,54.36667,66.96667,151.0,nan,nan,nan,nan,nan,nan,195.1,189.0,157.1,145.4,nan,nan,173.3,218.4,nan
WMO29594,TAJSHET RUSSIAN FEDERATION (IN ASIA),55.95000,98.00000,306.0,nan,192.3,155.4,128.4,146.7,145.6,199.7,176.4,137.0,165.0,nan,nan,103.7,143.6,167.6
WMO30230,KIRENSK RUSSIAN FEDERATION (IN ASIA),57.76667,108.06667,258.0,nan,120.7,137.4,122.4,107.7,135.1,115.0,nan,nan,131.4,nan,nan,nan,157.9,125.9
WMO30635,UST'-BARGUZIN RUSSIAN FEDERATION (IN ASIA),53.41667,109.01667,460.0,nan,nan,nan,nan,nan,nan,nan,nan,nan,nan,nan,nan,nan,nan,nan
WMO30949,KYRA RUSSIAN FEDERATION (IN ASIA),49.56667,111.96667,907.0,nan,252.1,255.9,210.4,236.0,232.6,235.9,238.4,217.9,246.4,211.7,194.0,255.9,219.3,nan
WMO31416,IM POLINY OSIPENKO RUSSIAN FEDERATION (IN ASIA),52.41667,136.50000,70.0,nan,195.0,202.4,154.6,159.7,239.6,162.3,146.6,201.1,184.6,135.6,142.7,nan,176.6,203.0
WMO32061,ALEKSANDROVSK-SAHALINSKIJ RUSSIAN FEDERATION (IN ASIA),50.90000,142.16667,31.0,nan,189.9,185.7,139.3,157.3,200.1,181.4,143.0,212.6,197.0,150.7,162.6,nan,199.3,197.7
WMO32389,KLJUCHI RUSSIAN FEDERATION (IN ASIA),56.31667,160.83333,28.0,nan,159.1,195.0,98.6,153.0,146.9,170.9,141.3,216.0,194.1,139.3,156.1,150.7,143.1,186.6
WMO33041,GOMEL BELARUS,52.40000,30.95000,126.0,nan,190.7,164.1,126.0,182.3,168.1,196.9,165.3,107.3,230.7,174.6,160.6,173.4,214.7,nan
WMO33777,VOZNESENS'K UKRAINE,47.56667,31.33333,34.0,nan,nan,nan,nan,nan,nan,nan,nan,nan,nan,nan,nan,nan,nan,nan
WMO33983,KERCH UKRAINE,45.40000,36.41667,49.0,nan,nan,nan,nan,nan,nan,nan,nan,nan,nan,nan,nan,nan,nan,nan
WMO34300,KHARKIV UKRAINE,49.96667,36.13333,155.0,nan,187.0,165.7,167.9,168.3,177.9,225.0,227.6,95.4,234.3,nan,nan,206.6,209.1,219.0
WMO34927,KRASNODAR-KRUGLIK RUSSIAN FEDERATION (IN EUROPE),45.05000,39.03333,29.0,nan,249.0,239.1,199.1,198.6,200.1,233.3,253.1,162.0,219.0,225.6,207.4,nan,nan,nan
WMO35376,BERLIK KAZAKHSTAN,49.88333,69.51667,349.0,nan,225.4,159.0,nan,nan,nan,nan,nan,nan,nan,nan,nan,nan,nan,nan
WMO36003,PAVLODAR KAZAKHSTAN,52.30000,76.93333,122.0,nan,209.6,214.9,175.9,163.0,227.0,245.7,199.6,201.6,153.7,nan,nan,nan,181.0,193.6
WMO36870,ALMATY KAZAKHSTAN,43.23333,76.93333,851.0,nan,231.0,250.0,214.3,199.3,195.6,241.1,224.7,258.0,203.0,199.0,206.3,227.9,209.0,216.0
WMO37472,MAHACHKALA RUSSIAN FEDERATION (IN EUROPE),43.00000,47.50000,-18.0,nan,200.4,192.1,168.4,190.7,190.3,201.0,221.7,177.4,175.0,222.3,206.6,nan,252.1,240.3
WMO37860,MASHTAGA AZERBAIJAN,40.53333,50.00000,28.0,nan,nan,272.0,144.0,211.0,211.3,205.9,214.0,nan,102.0,208.0,169.6,147.0,227.1,nan
WMO38341,ZHAMBYL KAZAKHSTAN,42.85000,71.38333,nan,nan,233.7,309.9,257.7,269.7,262.0,273.4,298.3,299.1,240.7,nan,nan,271.7,273.6,nan
WMO38511,CHAGYL TURKMENISTAN,40.78333,55.33333,115.0,nan,nan,nan,254.9,276.7,286.1,275.0,211.6,263.1,248.7,274.1,251.0,272.1,258.3,279.6
WMO38734,DEHAVZ TAJIKISTAN,39.45000,70.20000,2561.0,nan,nan,nan,nan,nan,nan,nan,nan,nan,nan,nan,nan,nan,nan,nan
WMO38933,KURGAN-TYUBE TAJIKISTAN,37.81667,68.78333,427.0,nan,nan,nan,nan,nan,nan,nan,nan,286.0,269.0,nan,nan,nan,227.1,244.9
WMO40100,BEYROUTH (AEROPORT) LEBANON,33.81667,35.48333,19.0,nan,253.9,nan,186.0,106.0,nan,183.0,153.0,150.0,148.0,nan,264.0,nan,nan,nan
WMO40255,IRBID JORDAN,32.60000,35.90000,nan,nan,nan,nan,nan,nan,nan,nan,nan,nan,nan,nan,nan,nan,nan,nan
WMO40373,AL-QAISUMAH SAUDI ARABIA,28.31667,46.13333,358.0,nan,nan,nan,nan,nan,nan,nan,nan,nan,nan,nan,nan,nan,nan,nan
WMO40435,AL-DAWADAMI SAUDI ARABIA,26.98333,44.11667,923.0,nan,nan,nan,nan,nan,nan,nan,nan,nan,nan,nan,nan,nan,nan,nan
WMO40650,BAGHDAD IRAQ,33.26667,44.23333,nan,nan,nan,nan,nan,nan,nan,nan,nan,nan,nan,nan,nan,nan,nan,nan
WMO40723,BOJNOURD IRAN ISLAMIC REPUBLIC OF,37.46667,57.33333,nan,nan,nan,nan,267.1,278.6,290.0,252.4,296.6,287.0,279.6,292.1,267.0,287.9,295.9,284.3
WMO40766,KERMANSHAH IRAN ISLAMIC REPUBLIC OF,34.35000,47.15000,1319.0,nan,259.3,284.6,237.6,252.4,284.1,285.7,281.0,281.0,272.7,254.0,292.9,nan,268.1,287.1
WMO40821,YAZD IRAN ISLAMIC REPUBLIC OF,31.90000,54.40000,nan,nan,282.0,296.0,287.0,306.1,320.6,315.4,289.0,320.4,312.3,304.1,312.9,nan,301.1,307.0
WMO40911,MAZAR-I-SHARIF AFGHANISTAN ISLAMIC STATE OF,36.70000,67.20000,378.0,nan,nan,nan,nan,nan,nan,nan,nan,nan,nan,nan,nan,nan,nan,nan
WMO41061,WADI AL-DAWASSER AIRPORT SAUDI ARABIA,20.50000,45.25000,622.0,nan,317.4,316.9,304.0,322.0,319.0,311.1,314.6,317.0,306.9,317.4,311.1,321.7,266.0,319.6
WMO41196,SHARJAH INTERNATIONAL AIRPORT UNITED ARAB EMIRATES,25.33333,55.51667,33.0,nan,315.4,304.7,298.0,290.0,297.0,291.0,nan,nan,287.0,nan,nan,nan,nan,nan
WMO41256,MUSCAT INT'L AIRPORT OMAN,23.58333,58.28333,8.0,nan,nan,nan,nan,nan,nan,nan,nan,nan,126.0,146.6,330.0,314.6,304.6,334.0
WMO41287,JOBA OMAN,20.86667,58.23333,34.0,nan,nan,nan,nan,nan,nan,nan,nan,nan,nan,nan,nan,nan,nan,nan
WMO41515,DROSH PAKISTAN,35.56667,71.78333,1465.0,nan,nan,nan,nan,nan,nan,nan,nan,nan,nan,nan,nan,nan,nan,nan
WMO41685,BARKHAN PAKISTAN,29.88333,69.71667,1098.0,nan,nan,nan,nan,nan,nan,nan,nan,nan,nan,nan,nan,nan,nan,nan
WMO41764,HYDERABAD PAKISTAN,25.38333,68.41667,30.0,nan,nan,nan,nan,nan,nan,nan,nan,nan,nan,nan,nan,nan,nan,nan
WMO41923,DHAKA BANGLADESH,23.76667,90.38333,9.0,nan,nan,nan,nan,nan,nan,135.0,139.1,117.9,155.0,141.6,132.6,124.6,161.7,124.6
WMO42314,DIBRUGARH /MOHANBARI INDIA (STATIONS NORTH OF LATITUDE 20~N),27.48333,95.01667,111.0,nan,165.1,158.4,182.3,195.7,135.0,202.4,129.4,174.0,174.0,nan,nan,nan,129.9,127.3
WMO42909,VERAVAL INDIA (STATIONS NORTH OF LATITUDE 20~N),20.90000,70.36667,11.0,nan,nan,nan,nan,nan,nan,nan,nan,nan,nan,nan,nan,nan,nan,nan
WMO43295,BANGALORE INDIA (STATIONS SOUTH OF LATITUDE 20~N),12.96667,77.58333,923.0,nan,126.6,108.0,123.6,125.7,95.9,127.7,131.7,106.9,142.4,142.4,118.3,124.4,174.3,98.7
WMO44213,BARUUNTURUUN MONGOLIA,49.65000,94.40000,1232.0,nan,nan,nan,nan,nan,nan,nan,nan,nan,nan,nan,nan,nan,nan,nan
WMO44277,ALTAI MONGOLIA,46.40000,96.25000,2181.0,nan,nan,nan,nan,nan,nan,nan,nan,nan,nan,140.0,149.7,nan,157.7,nan
WMO44373,DALANZADGAD MONGOLIA,43.58333,104.41667,1465.0,nan,277.3,258.6,268.3,256.3,269.0,259.6,249.0,280.6,214.6,nan,nan,nan,nan,nan
WMO47014,CHUNGGANG DEMOCRATIC PEOPLE'S REPUBLIC OF KOREA,41.78333,126.88333,331.0,nan,129.9,88.0,134.7,140.4,85.3,154.0,nan,nan,155.0,116.1,103.1,nan,128.0,147.0
WMO47112,INCHEON REPUBLIC OF KOREA,37.46667,126.61667,69.0,nan,nan,nan,nan,231.0,181.6,196.7,188.0,213.6,224.9,nan,nan,nan,229.9,190.1
WMO47407,ASAHIKAWA JAPAN,43.75000,142.36667,140.0,nan,168.1,111.9,170.4,146.6,147.4,117.6,143.7,117.1,147.1,nan,nan,154.0,154.9,179.0
WMO47582,AKITA JAPAN,39.71667,140.08333,21.0,nan,177.3,150.3,195.1,166.6,156.6,133.7,182.7,155.1,212.7,155.6,148.6,161.9,159.1,176.3
WMO47618,MATSUMOTO JAPAN,36.25000,137.96667,nan,nan,154.6,163.6,nan,nan,nan,nan,nan,nan,nan,nan,nan,nan,nan,nan
WMO47678,HACHIJOJIMA JAPAN,33.11667,139.76667,156.0,nan,127.6,117.0,145.4,118.3,150.0,129.3,141.0,159.4,120.7,146.3,135.6,nan,112.9,125.3
WMO47800,IZUHARA JAPAN,34.18333,129.28333,4.0,nan,136.9,118.0,129.6,132.7,142.1,144.9,168.9,160.0,150.4,160.3,73.4,129.7,113.0,122.7
WMO47893,KOCHI JAPAN,33.56667,133.53333,4.0,nan,nan,171.0,151.7,195.6,195.0,162.4,179.4,187.1,157.3,182.4,104.1,140.1,143.3,176.6
WMO47991,MINAMITORISHIMA JAPAN,24.28333,153.98333,8.0,nan,250.0,237.9,267.7,229.0,268.6,215.6,274.6,231.7,227.7,267.4,248.7,nan,279.7,255.3
WMO48462,ARANYAPRATHET THAILAND,13.68333,102.50000,49.0,nan,nan,nan,nan,nan,nan,nan,nan,nan,nan,nan,nan,nan,nan,nan
WMO48657,KUANTAN MALAYSIA (PENINSULAR MALAYSIA),3.78333,103.21667,16.0,nan,nan,nan,nan,nan,nan,nan,nan,nan,nan,nan,nan,nan,nan,nan
WMO48830,LANG SON VIET NAM,21.83333,106.76667,263.0,nan,185.3,134.0,151.9,182.9,240.9,151.0,161.6,145.9,183.9,nan,nan,168.0,167.7,nan
WMO48914,CA MAU VIET NAM,9.18333,105.15000,2.0,nan,143.6,112.1,117.4,110.0,123.1,120.7,113.0,127.3,152.0,149.4,96.0,127.3,144.3,125.7
WMO48991,PHNOM-PENH (KHMOUGH) CAMBODIA,11.60000,104.86667,10.0,nan,nan,nan,nan,nan,196.3,144.9,180.0,134.1,184.6,205.6,nan,nan,nan,nan
WMO51709,KASHI CHINA,39.48333,75.75000,1386.0,nan,268.6,276.6,293.0,278.9,220.1,252.1,263.4,294.0,263.0,283.1,295.6,270.3,234.9,nan
WMO52681,MINQIN CHINA,38.63333,103.08333,1369.0,nan,259.7,210.7,223.4,233.9,210.0,220.7,280.6,247.3,nan,244.7,279.6,263.3,260.0,236.4
WMO53845,YAN AN CHINA,36.58333,109.45000,1181.0,nan,159.0,166.3,181.4,136.1,165.7,115.4,171.1,189.9,146.6,207.6,145.6,142.3,166.4,194.0
WMO54857,QINGDAO CHINA,36.06667,120.33333,77.0,nan,183.4,144.1,189.7,202.4,170.7,175.4,209.7,219.3,156.9,207.3,177.4,196.0,208.1,224.0
WMO56187,WENJIANG CHINA,30.75000,103.86667,555.0,nan,48.6,67.6,49.3,57.7,59.4,41.0,53.6,49.4,58.7,nan,63.0,55.7,67.9,39.1
WMO57083,ZHENGZHOU CHINA,34.71667,113.65000,111.0,nan,115.4,134.6,130.4,123.4,96.0,86.7,174.3,140.6,117.9,147.1,148.0,nan,167.6,156.1
WMO57993,GANZHOU CHINA,25.86667,115.00000,138.0,nan,171.1,133.1,182.7,188.6,137.1,147.1,190.1,167.1,227.1,153.1,122.6,213.7,195.9,nan
WMO59211,BAISE CHINA,23.90000,106.60000,177.0,nan,160.7,123.3,162.7,167.9,151.0,156.6,138.1,147.1,182.1,nan,nan,nan,147.1,155.6
WMO60010,IZANA SPAIN (CANARY ISLANDS),28.30000,-16.48333,2368.0,nan,302.4,338.6,271.7,nan,282.3,269.6,291.7,313.0,305.0,282.0,337.1,300.3,308.7,304.4
WMO60120,KENITRA MOROCCO,34.30000,-6.58333,nan,nan,271.0,256.3,247.7,245.7,256.4,264.4,258.0,245.0,261.3,258.0,259.3,nan,249.4,276.3
WMO60320,CEUTA SPAIN (CEUTA AND MELILLA),35.90000,-5.33333,88.0,nan,nan,nan,nan,nan,nan,nan,nan,230.0,233.0,nan,nan,nan,186.9,225.6
WMO60387,DELLYS ALGERIA,36.91667,3.95000,8.0,nan,260.0,220.7,193.0,244.1,250.3,263.1,236.0,239.3,255.0,nan,256.0,280.3,220.9,nan
WMO60423,SOUK AHRAS ALGERIA,36.28333,7.96667,680.0,nan,278.9,237.7,203.9,230.9,243.7,246.0,238.3,232.4,228.3,nan,nan,269.6,229.6,250.0
WMO60467,M'SILA ALGERIA,35.66667,4.50000,442.0,nan,286.6,245.1,207.1,240.1,263.3,275.0,254.4,246.4,238.1,nan,nan,288.7,227.9,nan
WMO60514,KSAR CHELLALA ALGERIA,35.16667,2.31667,801.0,nan,277.1,225.0,186.1,250.7,249.1,259.9,244.6,247.7,227.6,nan,nan,294.0,223.4,249.3
WMO60536,SAIDA ALGERIA,34.86667,0.15000,752.0,nan,268.4,223.7,206.9,254.1,256.7,272.7,247.7,258.0,237.7,267.7,266.4,297.4,220.6,nan
WMO60566,GHARDAIA ALGERIA,32.40000,3.80000,469.0,nan,281.3,257.9,237.0,279.6,267.0,272.7,273.7,287.9,257.3,252.6,270.4,303.6,261.4,263.0
WMO60630,IN-SALAH ALGERIA,27.23333,2.50000,269.0,nan,271.7,279.1,256.7,248.9,282.1,275.1,268.0,307.4,276.9,240.3,294.0,nan,249.1,291.4
WMO60735,KAIROUAN TUNISIA,35.66667,10.10000,68.0,nan,270.4,247.6,230.3,245.6,249.0,262.9,250.6,242.1,256.6,nan,nan,nan,216.6,231.1
WMO61053,DOSSO NIGER,13.03333,3.30000,213.0,nan,nan,nan,nan,nan,226.0,249.0,nan,247.7,nan,280.0,245.6,255.9,242.0,nan
WMO61223,TOMBOUCTOU MALI,16.71667,-3.00000,264.0,nan,nan,295.7,256.9,258.7,254.0,285.9,nan,nan,nan,nan,nan,nan,nan,nan
WMO61272,SEGOU MALI,13.40000,-6.15000,289.0,nan,nan,250.0,nan,nan,nan,245.3,nan,255.3,248.3,225.3,220.9,213.9,185.7,219.9
WMO61415,NOUADHIBOU MAURITANIA,20.93333,-17.03333,3.0,nan,264.0,275.1,286.0,230.0,231.9,259.9,254.0,242.7,284.0,242.6,240.7,nan,nan,nan
WMO61499,AIOUN EL ATROUSS MAURITANIA,16.70000,-9.60000,223.0,nan,nan,nan,nan,nan,nan,nan,nan,nan,nan,nan,nan,nan,nan,nan
WMO61695,ZIGUINCHOR SENEGAL,12.55000,-16.26667,nan,nan,175.0,165.3,169.9,158.3,89.7,182.0,147.6,183.7,181.0,nan,nan,nan,99.0,228.0
WMO61818,KINDIA GUINEA,10.05000,-12.86667,nan,nan,nan,nan,nan,nan,nan,nan,nan,nan,nan,nan,nan,nan,nan,nan
WMO61878,NJALA SIERRA LEONE,8.10000,-12.10000,56.0,nan,nan,nan,nan,nan,nan,nan,nan,nan,nan,nan,nan,nan,nan,nan
WMO61974,AGALEGA MAURITIUS,-10.38333,56.60000,4.0,nan,199.7,232.4,246.3,237.3,266.1,259.3,210.0,272.3,239.1,205.1,225.6,231.4,233.6,231.4
WMO62002,NALUT LIBYA,31.86667,10.98333,621.0,nan,280.0,294.3,272.1,272.0,273.1,nan,293.7,273.1,310.7,260.4,275.4,291.6,296.0,nan
WMO62055,AGEDABIA LIBYA,30.71667,20.16667,7.0,nan,291.0,314.0,297.6,298.7,280.1,nan,nan,nan,nan,nan,nan,nan,nan,nan
WMO62176,GIGHBUB LIBYA,29.75000,24.53333,-1.0,nan,nan,329.1,316.1,322.7,316.0,nan,333.0,311.6,nan,nan,nan,nan,nan,nan
WMO62387,MINYA EGYPT,28.08333,30.73333,40.0,nan,nan,nan,nan,316.1,319.1,322.4,327.0,319.4,nan,293.4,nan,nan,nan,nan
WMO62464,HURGUADA POLLUTION EGYPT,27.28333,33.73333,6.0,nan,nan,nan,nan,nan,nan,nan,nan,nan,nan,nan,295.0,nan,nan,nan
WMO62730,KASSALA SUDAN,15.46667,36.40000,500.0,nan,287.9,282.7,271.6,301.0,267.9,258.0,306.7,302.0,302.7,nan,nan,nan,239.9,nan
WMO62781,EN NAHUD SUDAN,12.70000,28.43333,564.0,nan,233.0,270.6,233.7,263.9,224.9,198.0,246.6,240.9,221.3,226.0,220.9,232.3,nan,nan
WMO63021,ASMARA ERITREA,15.28333,38.91667,2325.0,nan,nan,nan,nan,nan,nan,nan,nan,nan,nan,nan,nan,nan,nan,nan
WMO63630,GULU UGANDA,2.75000,32.33333,1105.0,nan,nan,nan,nan,nan,nan,nan,nan,nan,nan,nan,nan,nan,nan,nan
WMO63820,MOMBASA INTERNATIONAL AIRPORT KENYA,-4.00000,39.60000,nan,nan,nan,260.0,241.6,273.3,nan,233.0,nan,nan,nan,nan,nan,280.0,nan,nan
WMO64247,MBUJI-MAYI DEMOCRATIC REPUBLIC OF THE CONGO,-6.16667,23.61667,677.0,nan,nan,nan,nan,nan,nan,nan,nan,nan,nan,nan,nan,nan,nan,nan
WMO64453,DJAMBALA CONGO,-2.53333,14.76667,790.0,nan,nan,nan,nan,nan,nan,135.1,237.9,156.3,126.0,nan,nan,nan,159.0,138.0
WMO64507,TCHIBANGA GABON,-2.85000,11.01667,79.0,nan,nan,nan,nan,nan,nan,nan,nan,nan,nan,nan,nan,nan,nan,nan
WMO64605,BOSSEMBELE CENTRAL AFRICAN REPUBLIC,5.26667,17.63333,674.0,nan,nan,141.0,nan,nan,nan,nan,nan,nan,nan,nan,nan,nan,nan,nan
WMO64700,NDJAMENA CHAD,12.13333,15.03333,295.0,nan,221.7,219.0,297.0,nan,233.6,235.4,250.4,253.4,243.0,nan,259.0,254.1,231.1,nan
WMO64754,AM-TIMAN CHAD,11.03333,20.28333,436.0,nan,nan,nan,nan,nan,nan,nan,nan,nan,nan,nan,nan,nan,nan,nan
WMO64900,YOKO CAMEROON,5.55000,12.36667,1031.0,nan,nan,nan,nan,nan,nan,nan,nan,nan,nan,nan,nan,nan,nan,nan
WMO65123,MINNA NIGERIA,9.61667,6.53333,256.0,nan,nan,nan,nan,184.6,165.6,nan,168.3,218.0,nan,192.9,187.9,163.0,nan,161.0
WMO65338,BOHICON BENIN,7.16667,2.06667,167.0,nan,142.9,171.6,139.7,139.6,159.9,171.0,147.6,157.1,146.3,145.0,147.7,137.3,164.4,123.7
WMO65387,LOME TOGO,6.16667,1.25000,25.0,nan,nan,nan,135.0,nan,171.7,231.0,nan,nan,nan,nan,nan,nan,186.7,nan
WMO65502,OUAHIGOUYA BURKINA FASO,13.58333,-2.43333,nan,nan,252.6,265.0,256.9,260.3,240.3,268.0,253.6,260.3,257.1,nan,nan,nan,252.3,268.9
WMO65545,BONDOUKOU COTE D'IVOIRE,8.05000,-2.78333,370.0,nan,110.0,nan,nan,nan,nan,nan,nan,nan,135.7,150.9,134.6,162.6,nan,nan
WMO65594,SAN PEDRO COTE D'IVOIRE,4.75000,-6.65000,30.0,nan,nan,nan,nan,nan,186.0,nan,nan,nan,141.3,nan,nan,160.0,nan,nan
WMO67009,ANTSIRANANA MADAGASCAR,-12.35000,49.30000,105.0,nan,303.3,294.9,300.7,nan,297.7,277.0,nan,294.6,293.0,272.4,281.4,nan,263.9,nan
WMO67161,TOLIARA MADAGASCAR,-23.38333,43.73333,8.0,nan,nan,nan,nan,nan,nan,nan,nan,nan,nan,nan,nan,nan,nan,nan
WMO67283,QUELIMANE MOZAMBIQUE,-17.88333,36.88333,16.0,nan,248.0,nan,260.4,232.7,296.0,268.0,286.7,257.4,nan,nan,nan,nan,nan,nan
WMO67346,CHANGALANE MOZAMBIQUE,-26.28333,32.18333,104.0,nan,nan,nan,nan,nan,nan,nan,nan,214.0,nan,nan,nan,193.3,nan,235.3
WMO67693,CHILEKA MALAWI,-15.68333,34.96667,767.0,nan,nan,nan,nan,nan,nan,nan,nan,nan,nan,292.0,nan,nan,nan,nan
WMO68006,ONDANGWA NAMIBIA,-17.93333,15.98333,nan,nan,nan,nan,nan,nan,nan,nan,nan,nan,nan,nan,nan,nan,nan,nan
WMO68174,POLOKWANE SOUTH AFRICA,-23.86667,29.45000,1226.0,nan,291.7,249.6,299.7,265.3,298.9,293.1,257.4,277.7,302.4,272.6,271.0,272.7,307.7,nan
WMO68442,BLOEMFONTEIN AIRPORT SOUTH AFRICA,-29.10000,26.30000,1353.0,nan,297.0,276.0,313.6,275.7,253.1,296.7,292.4,286.7,276.4,nan,nan,288.9,273.6,297.0
WMO68828,GEORGE AIRPORT SOUTH AFRICA,-34.01667,22.38333,191.0,nan,190.1,221.0,222.9,234.6,196.7,228.0,215.4,232.3,218.0,nan,nan,209.3,226.0,nan
WMO70231,MCGRATH AK UNITED STATES OF AMERICA (ALASKA),62.95000,-155.58333,103.0,nan,nan,nan,nan,nan,nan,nan,nan,nan,nan,nan,nan,nan,nan,nan
WMO71066,HIGH LEVEL ALTA CANADA,58.61667,-117.15000,nan,nan,nan,nan,nan,nan,nan,nan,nan,nan,nan,nan,nan,nan,nan,nan
WMO71299,KAPUSKASING CDA ON ONT CANADA,49.40000,-82.43333,nan,nan,nan,nan,nan,nan,nan,nan,nan,nan,nan,nan,nan,nan,nan,nan
WMO71727,BAGOTVILLE A QUE CANADA,48.33333,-71.00000,nan,nan,nan,nan,nan,nan,nan,nan,nan,nan,nan,nan,nan,nan,nan,nan
WMO71831,KAPUSKASING CANADA,49.40000,-82.50000,nan,nan,nan,nan,nan,nan,nan,nan,nan,nan,nan,nan,nan,nan,nan,nan
WMO71874,LETHBRIDGE AIRPORT CANADA,49.60000,-112.80000,nan,nan,nan,nan,nan,nan,nan,nan,nan,nan,nan,nan,nan,nan,nan,nan
WMO71915,CORAL HARBOUR A NU CANADA,64.18333,-83.35000,nan,nan,nan,nan,nan,nan,nan,nan,nan,nan,nan,nan,nan,nan,nan,nan
WMO71957,INUVIK/NWT (SY) CANADA,68.30000,-133.48333,nan,nan,nan,nan,nan,nan,nan,nan,nan,nan,nan,nan,nan,nan,nan,nan
WMO72226,MONTGOMERY/DANNELLY  AL. UNITED STATES OF AMERICA,32.30000,-86.40000,62.0,nan,nan,nan,nan,nan,nan,nan,nan,nan,nan,nan,nan,nan,nan,nan
WMO72259,DALLAS-FORT WORTH/FORT WORTH REG.AIRPORT TX. UNITED STATES OF AMERICA,32.90000,-97.03333,182.0,nan,nan,nan,nan,nan,nan,nan,nan,nan,nan,nan,nan,nan,nan,nan
WMO72308,NORFOLK/INT. VA. UNITED STATES OF AMERICA,36.90000,-76.20000,9.0,nan,nan,nan,nan,nan,nan,nan,nan,nan,nan,nan,nan,nan,nan,nan
WMO72344,FORT SMITH/MUN. AR. UNITED STATES OF AMERICA,35.33333,-94.36667,141.0,nan,nan,nan,nan,nan,nan,nan,nan,nan,nan,nan,nan,nan,nan,nan
WMO72406,BALTIMORE/BALTIMORE-WASHINGTON INT. MD. UNITED STATES OF AMERICA,39.18333,-76.66667,47.0,nan,nan,nan,nan,nan,nan,nan,nan,nan,nan,nan,nan,nan,nan,nan
WMO72439,SPRINGFIELD/CAPITAL  IL. UNITED STATES OF AMERICA,39.85000,-89.66667,187.0,nan,nan,nan,nan,nan,nan,nan,nan,nan,nan,nan,nan,nan,nan,nan
WMO72483,SACRAMENTO/EXECUTIVE CA. UNITED STATES OF AMERICA,38.51667,-121.50000,8.0,nan,nan,nan,nan,nan,nan,nan,nan,nan,nan,nan,nan,nan,nan,nan
WMO72517,ALLENTOWN/A.-BETHLEHEM-EASTON PA. UNITED STATES OF AMERICA,40.65000,-75.43333,117.0,nan,nan,nan,nan,nan,nan,nan,nan,nan,nan,nan,nan,nan,nan,nan
WMO72537,DETROIT/METROPOLITAN MI. UNITED STATES OF AMERICA,42.23333,-83.33333,202.0,nan,nan,nan,nan,nan,nan,nan,nan,nan,nan,nan,nan,nan,nan,nan
WMO72597,MEDFORD/MEDFORD-JACKSON COUNTY OR. UNITED STATES OF AMERICA,42.36667,-122.86667,398.0,nan,nan,nan,nan,nan,nan,nan,nan,nan,nan,nan,nan,nan,nan,nan
WMO72658,MINNEAPOLIS/ST.PAUL INT. MN. UNITED STATES OF AMERICA,44.88333,-93.21667,255.0,nan,nan,nan,nan,nan,nan,nan,nan,nan,nan,nan,nan,nan,nan,nan
WMO72753,FARGO/HECTOR FIELD  ND. UNITED STATES OF AMERICA,46.90000,-96.80000,274.0,nan,nan,nan,nan,nan,nan,nan,nan,nan,nan,nan,nan,nan,nan,nan
WMO76040,EJIDO NUEVO LEON MEXICO,32.40000,-115.18333,nan,nan,306.4,295.7,305.0,301.0,307.7,304.9,293.4,322.0,301.9,268.7,280.4,nan,nan,nan
WMO76256,EMPALME SON. MEXICO,27.95000,-110.80000,nan,nan,292.1,310.6,nan,256.4,265.4,300.3,258.7,297.7,264.9,256.3,286.6,277.3,275.6,265.3
WMO76402,CIUDAD CONSTITUCION BCS MEXICO,25.00000,-111.63333,nan,nan,248.9,276.6,261.3,245.6,278.3,295.7,236.9,265.3,237.1,nan,nan,nan,263.4,259.7
WMO76539,SAN LUIS POTOSI  S.L.P. MEXICO,22.20000,-101.01667,nan,nan,185.0,219.7,145.4,168.3,202.7,213.6,213.1,156.0,176.1,181.0,193.1,nan,168.6,217.6
WMO76612,GUADALAJARA JAL. MEXICO,20.70000,-103.38333,nan,nan,nan,317.0,nan,nan,nan,nan,264.0,nan,197.9,216.0,231.7,164.4,186.6,nan
WMO76658,COLIMA MEXICO,19.23333,-103.73333,nan,nan,190.1,222.0,178.0,182.7,186.4,177.3,151.0,152.1,155.9,181.6,189.9,nan,206.6,157.0
WMO76692,HACIENDA YLANG YLANG VERACRUZ VER. MEXICO,19.15000,-96.13333,nan,nan,219.4,219.3,172.4,196.9,179.7,213.1,211.0,155.3,175.0,204.4,213.0,nan,216.1,228.6
WMO76805,ACAPULCO GRO. MEXICO,16.75000,-99.75000,nan,nan,232.4,217.0,202.6,225.6,211.0,219.6,234.6,232.0,195.4,219.4,276.6,183.0,nan,nan
WMO78310,CABO SAN ANTONIO  PINAR DEL RIO CUBA,21.86667,-84.95000,8.0,nan,nan,nan,nan,nan,230.3,nan,nan,nan,nan,nan,nan,nan,nan,nan
WMO78482,BARAHONA DOMINICAN REPUBLIC,18.20000,-71.10000,nan,nan,nan,nan,nan,nan,nan,nan,nan,nan,nan,nan,nan,nan,nan,nan
WMO78760,PUNTARENAS COSTA RICA,9.96667,-84.83333,3.0,nan,nan,nan,nan,nan,nan,nan,nan,nan,nan,nan,nan,nan,nan,nan
WMO80001,SAN ANDRES (ISLA)/SESQUICENTENARIO COLOMBIA,12.58333,-81.71667,6.0,nan,221.0,162.1,177.7,188.3,165.0,182.3,nan,176.1,171.6,185.6,194.1,193.7,192.9,204.7
WMO80094,BUCARAMANGA/PALONEGRO COLOMBIA,7.10000,-73.20000,1189.0,nan,163.1,144.9,157.3,196.9,119.7,124.6,230.0,141.1,154.9,167.3,132.3,nan,150.0,133.3
WMO80219,GIRARDOT/SANTIAGO VILLA COLOMBIA,4.28333,-74.80000,293.0,nan,nan,nan,nan,nan,nan,nan,nan,nan,nan,nan,nan,nan,nan,nan
WMO80398,LETICIA/VASQUEZ COBO COLOMBIA,-4.16667,-69.95000,84.0,nan,207.9,182.6,193.3,204.9,199.6,177.0,nan,186.1,185.4,nan,nan,nan,169.1,176.9
WMO80420,CUMANA VENEZUELA,10.45000,-64.18333,4.0,nan,252.9,245.9,245.7,258.0,219.3,235.0,246.3,245.9,236.1,nan,nan,221.0,nan,nan
WMO80435,MATURIN VENEZUELA,9.75000,-63.18333,66.0,nan,247.7,213.3,224.3,252.7,182.1,205.9,231.6,231.3,207.4,nan,nan,213.0,nan,nan
WMO80457,PUERTO AYACUCHO VENEZUELA,5.60000,-67.50000,74.0,nan,138.9,170.9,187.9,197.0,176.0,161.9,184.7,183.3,158.0,176.4,200.0,134.0,nan,nan
WMO81401,SAINT-LAURENT FRENCH GUIANA,5.48333,-54.01667,5.0,nan,161.9,nan,nan,nan,nan,nan,nan,nan,nan,nan,206.3,162.7,204.3,192.0
WMO82184,PORTO DE MOZ BRAZIL,-1.73333,-52.23333,16.0,nan,256.0,245.0,259.4,275.0,nan,nan,nan,nan,nan,nan,nan,nan,nan,nan
WMO82397,FORTALEZA BRAZIL,-3.76667,-38.60000,26.0,nan,295.3,300.3,296.0,284.9,290.0,287.4,293.1,291.0,277.4,nan,nan,284.6,286.4,nan
WMO82586,QUIXERAMOBIM BRAZIL,-5.20000,-39.30000,212.0,nan,290.7,301.0,295.0,278.6,281.7,283.4,305.1,298.1,273.4,nan,nan,nan,276.0,256.9
WMO82900,RECIFE BRAZIL,-8.05000,-34.91667,7.0,nan,255.9,214.1,205.6,227.7,202.6,168.4,169.9,149.7,151.6,242.4,240.3,179.0,212.6,214.4
WMO83236,BARREIRAS BRAZIL,-12.15000,-45.00000,439.0,nan,223.9,295.3,270.1,278.0,273.1,252.0,266.0,260.3,279.0,280.3,248.9,nan,258.4,262.1
WMO83437,MONTES CLAROS BRAZIL,-16.71667,-43.86667,646.0,nan,199.7,291.4,257.7,228.1,263.7,256.3,264.3,226.6,275.6,289.0,254.0,213.0,247.4,262.7
WMO83618,TRES LAGOAS BRAZIL,-20.78333,-51.70000,313.0,nan,206.6,208.1,210.3,186.4,nan,nan,nan,nan,nan,nan,nan,nan,nan,nan
WMO83726,SAO CARLOS BRAZIL,-22.01667,-47.88333,856.0,nan,187.9,225.0,200.4,162.0,195.9,239.0,223.4,179.4,209.1,180.0,nan,nan,nan,nan
WMO83997,ST.VITORIA DO PALMAR BRAZIL,-33.51667,-53.35000,24.0,nan,192.0,150.6,173.3,163.3,185.4,196.6,167.0,168.1,171.4,169.6,157.6,nan,164.9,nan
WMO84140,PICHILINGUE ECUADOR,-1.10000,-79.45000,nan,nan,nan,nan,31.4,85.0,54.4,75.4,69.7,81.7,64.7,75.1,57.3,67.1,75.0,80.7
WMO85033,GUAYARAMERIN BOLIVIA,-10.81667,-65.35000,nan,nan,nan,106.3,203.0,219.0,184.0,nan,nan,nan,nan,nan,nan,nan,nan,nan
WMO85154,TRINIDAD BOLIVIA,-14.81667,-64.91667,nan,nan,179.0,151.9,206.0,216.7,193.0,233.6,246.7,151.0,202.0,nan,nan,185.9,231.9,nan
WMO85406,ARICA CHILE,-18.35000,-70.33333,nan,nan,177.6,95.6,165.3,135.1,133.0,177.7,129.6,153.9,108.9,147.9,199.4,147.0,173.4,168.6
WMO85577,QUINTA NORMAL CHILE,-33.43333,-70.66667,nan,nan,179.3,220.7,197.7,168.1,220.6,245.0,189.6,185.7,167.6,162.6,225.3,171.0,168.9,nan
WMO85864,COYHAIQUE CHILE,-45.58333,-73.10000,nan,nan,153.9,159.9,204.1,185.6,150.7,167.6,204.1,180.6,161.0,186.7,179.3,162.6,139.0,nan
WMO86086,PUERTO CASADO PARAGUAY,-22.28333,-57.93333,78.0,nan,nan,nan,nan,nan,144.1,238.4,230.3,202.1,265.7,nan,nan,nan,209.6,205.3
WMO86221,PARAGUARI PARAGUAY,-25.63333,-57.13333,116.0,nan,nan,nan,nan,nan,179.0,217.3,208.1,179.3,186.1,174.9,234.7,182.6,173.4,202.0
WMO86285,CAPITAN MEZA PARAGUAY,-26.83333,-55.33333,263.0,nan,nan,nan,nan,nan,187.1,224.0,189.3,190.9,169.0,167.7,224.1,nan,163.0,196.4
WMO86560,COLONIA URUGUAY,-34.45000,-57.76667,20.0,nan,228.0,nan,nan,nan,nan,nan,nan,nan,nan,nan,175.1,167.7,184.9,238.0
WMO87078,LAS LOMITAS ARGENTINA,-24.70000,-60.58333,130.0,nan,261.0,204.0,229.1,204.4,180.7,206.4,185.4,217.6,186.9,nan,nan,146.9,159.4,nan
WMO87166,CORRIENTES AERO. ARGENTINA,-27.45000,-58.76667,62.0,nan,nan,nan,nan,nan,nan,nan,nan,nan,nan,nan,nan,nan,nan,nan
WMO87289,PASO DE LOS LIBRES AERO ARGENTINA,-29.68333,-57.15000,70.0,nan,200.0,101.0,183.3,175.6,185.6,196.1,136.9,179.1,154.1,156.7,186.1,122.6,161.9,nan
WMO87374,PARANA AERO ARGENTINA,-31.78333,-60.48333,78.0,nan,241.1,177.9,249.7,244.1,224.6,238.0,213.9,220.6,219.9,192.0,238.9,180.6,204.7,222.4
WMO87484,PERGAMINO ARGENTINA,-33.93333,-60.55000,nan,nan,nan,nan,nan,nan,nan,nan,nan,nan,nan,nan,nan,nan,nan,nan
WMO87550,NUEVE DE JULIO ARGENTINA,-35.45000,-60.88333,76.0,nan,nan,nan,nan,nan,nan,nan,nan,nan,nan,nan,nan,nan,nan,nan
WMO87640,BOLIVAR AERO ARGENTINA,-36.20000,-61.06667,94.0,nan,220.0,175.0,224.9,247.0,283.0,252.1,192.0,184.3,212.1,nan,nan,215.3,203.3,231.6
WMO87692,MAR DEL PLATA AERO ARGENTINA,-37.93333,-57.58333,21.0,nan,132.4,91.9,105.7,217.0,141.4,133.7,131.4,96.4,81.4,123.6,96.9,119.7,103.0,nan
WMO87800,EL BOLSON AERO ARGENTINA,-41.96667,-71.51667,337.0,nan,nan,nan,nan,nan,nan,nan,nan,nan,nan,nan,nan,nan,nan,nan
WMO87903,LAGO ARGENTINO ARGENTINA,-50.33333,-72.30000,nan,nan,nan,nan,nan,nan,nan,nan,nan,nan,nan,nan,nan,nan,nan,nan
WMO88903,GRYTVIKEN  SOUTH GEORGIA ISLANDS(UNITED KINGDOM OF GREAT BRITAIN),-54.28333,-36.48333,3.0,nan,nan,133.3,159.3,148.3,161.4,132.0,130.0,126.0,108.4,nan,nan,nan,nan,nan
WMO89042,SIGNY ISLAND / SOUTH ORKNEY ISL. ANTARCTICA,-60.70000,-45.60000,nan,nan,nan,nan,nan,nan,nan,nan,nan,nan,nan,nan,nan,nan,nan,nan
WMO89063,VERNADSKY STATIONS OPERATED BY UKRAINE,-65.25000,-64.26667,11.0,nan,nan,nan,nan,nan,nan,42.0,nan,nan,nan,nan,13.3,51.0,93.0,97.0
WMO89606,VOSTOK STATIONS OPERATED BY THE RUSSIAN FEDERATION,-78.45000,106.85000,3489.0,nan,155.4,224.9,267.7,247.0,262.9,270.3,258.7,212.9,254.1,210.0,262.6,245.1,166.7,nan
WMO91275,JOHNSTON ISLAND (WSO AIRPORT) ISLANDS IN THE PACIFIC OCEAN NORTH OF THE EQUATOR,16.70000,-169.50000,nan,nan,nan,nan,nan,nan,nan,nan,nan,nan,nan,nan,nan,nan,nan,nan
WMO91557,BAUERFIELD (EFATE) VANUATU,-17.70000,168.30000,21.0,nan,nan,nan,nan,nan,nan,nan,nan,nan,nan,nan,nan,nan,nan,nan
WMO91683,NAUSORI FIJI,-18.05000,178.56667,7.0,nan,nan,nan,nan,nan,nan,nan,nan,nan,nan,nan,nan,nan,nan,nan
WMO91938,TAHITI-FAAA FRENCH POLYNESIA (SOCIETY ISLANDS),-17.55000,-149.60000,2.0,nan,238.3,229.1,221.0,203.6,214.7,238.0,243.3,224.0,223.3,nan,nan,nan,237.7,233.4
WMO91958,RAPA FRENCH POLYNESIA (AUSTRAL ISLANDS),-27.61667,-144.33333,2.0,nan,101.4,112.0,120.1,118.9,140.0,116.9,122.4,91.3,108.9,155.9,121.9,167.0,144.9,146.0
WMO92077,GURNEY W.O. PAPUA NEW GUINEA,-10.31667,150.33333,23.0,nan,nan,nan,nan,nan,nan,nan,nan,nan,nan,nan,nan,nan,nan,nan
WMO93417,PARAPARAUMU NEW ZEALAND,-40.90000,174.98333,nan,nan,134.3,186.0,151.7,164.4,nan,nan,nan,nan,nan,nan,nan,nan,nan,nan
WMO93986,WAITANGI / CHATHAM ISL. NEW ZEALAND,-44.00000,-176.60000,nan,nan,nan,nan,nan,nan,nan,nan,nan,nan,nan,nan,nan,nan,nan,nan
WMO94238,TENNANT CREEK AIRPORT AUSTRALIA,-19.63333,134.18333,377.0,nan,307.9,301.7,300.6,297.6,257.6,nan,295.0,301.9,349.0,nan,nan,nan,nan,nan
WMO94476,OODNADATTA AIRPORT AUSTRALIA,-27.55000,135.43333,117.0,nan,nan,nan,nan,nan,nan,nan,nan,nan,nan,nan,nan,nan,nan,nan
WMO94738,SCONE SCS AUSTRALIA,-32.05000,150.91667,216.0,nan,nan,nan,nan,nan,nan,nan,nan,nan,nan,nan,nan,nan,nan,nan
WMO94926,CANBERRA AIRPORT AUSTRALIA,-35.30000,149.20000,577.0,nan,293.7,277.9,270.6,240.9,nan,nan,nan,nan,nan,nan,nan,nan,nan,nan
WMO95971,GROVE/TAS AUSTRALIA,-42.98333,147.06667,nan,nan,nan,187.0,193.7,139.0,nan,nan,nan,nan,nan,nan,nan,nan,nan,nan
WMO96091,TANJUNG PINANG/KIJANG INDONESIA,0.91667,104.53333,18.0,nan,nan,nan,nan,nan,nan,116.0,159.0,146.1,195.6,107.3,130.0,129.7,181.0,189.1
WMO96249,TANJUNG PANDAN/BULUH TUMBANG INDONESIA,-2.75000,107.75000,44.0,nan,229.0,168.7,121.0,183.6,88.0,133.3,185.1,172.1,186.9,177.6,138.6,164.3,171.6,nan
WMO96481,TAWAU MALAYSIA (SABAH AND SARAWAK),4.26667,117.88333,20.0,nan,nan,nan,nan,nan,nan,217.1,179.9,200.7,nan,nan,nan,nan,nan,nan
WMO96615,KETAPANG/KALIMANTAN INDONESIA,-1.85000,109.96667,nan,nan,nan,202.0,175.6,224.1,149.9,145.0,166.0,213.0,218.1,nan,nan,192.1,210.0,nan
WMO96745,JAKARTA/OBSERVATORY INDONESIA,-6.18333,106.83333,8.0,nan,219.0,210.7,197.7,221.9,nan,236.0,196.1,185.6,210.3,210.0,159.0,187.4,188.3,nan
WMO96845,SURAKARTA/JAVA INDONESIA,-7.51667,110.75000,nan,nan,nan,nan,nan,nan,nan,nan,nan,nan,nan,nan,nan,nan,nan,nan
WMO97014,MENADO/ SAM RATULANGI INDONESIA,1.53333,124.91667,80.0,nan,132.3,166.1,144.4,204.1,188.0,162.3,194.0,169.6,233.6,275.1,152.4,nan,198.6,224.6
WMO97180,UJUNG PANDANG/HASANUDDIN INDONESIA,-5.06667,119.55000,14.0,nan,287.6,255.0,194.7,320.7,167.4,260.0,268.6,285.9,312.7,nan,nan,nan,257.7,274.0
WMO97320,MALI/ALOR ISLAND INDONESIA,-8.13333,124.60000,nan,nan,nan,nan,nan,nan,nan,290.3,296.4,294.6,239.9,nan,nan,233.1,305.6,nan
WMO97460,LABUHA/WEST IRIAN INDONESIA,0.63333,127.50000,nan,nan,274.0,155.6,129.6,244.0,202.1,139.4,209.3,148.0,192.4,nan,nan,nan,200.1,212.3
WMO97690,JAYAPURA/SENTANI INDONESIA,-2.56667,140.48333,99.0,nan,nan,nan,71.0,63.4,161.3,63.0,182.7,157.4,133.7,nan,nan,163.4,135.6,191.7
WMO97810,TUAL/MOLUKKEN INDONESIA,-5.68333,132.75000,nan,nan,237.0,178.9,168.9,193.6,141.4,157.6,183.7,200.1,233.6,nan,nan,nan,133.9,128.6
WMO98425,MANILA PHILIPPINES,14.58333,120.98333,nan,nan,nan,nan,nan,nan,nan,nan,nan,nan,nan,nan,nan,nan,nan,nan
WMO98836,ZAMBOANGA PHILIPPINES,6.91667,122.05000,6.0,nan,149.9,189.0,178.0,187.1,203.9,202.3,172.7,191.7,187.4,176.9,178.4,nan,nan,nan
