id,name,latitude,longitude,elev,2005,2006,2007,2008,2009,2010,2011,2012,2013,2014,2015,2016,2017,2018,2019
id,name,latitude,longitude,elev,2005,2006,2007,2008,2009,2010,2011,2012,2013,2014,2015,2016,2017,2018,2019
WMO02197,HAPARANDA SWEDEN,65.81667,24.10000,15.0,nan,nan,nan,nan,nan,nan,233.3,183.7,245.9,197.0,nan,nan,nan,nan,nan
WMO02805,UTSJOKI KEVO FINLAND,69.75000,27.03333,101.0,nan,187.4,132.6,136.4,155.9,126.0,166.0,113.6,152.4,118.9,118.6,143.3,152.1,135.0,141.6
WMO02963,JOKIOINEN OBSERVATORY FINLAND,60.81667,23.50000,103.0,nan,154.7,168.7,114.4,134.7,134.9,178.3,150.9,235.3,188.1,132.7,116.9,150.0,169.4,159.3
WMO03160,EDINBURGH (TURNHOUSE AIRPORT) UNITED KINGDOM OF GREAT BRITAIN AND NORTHERN IRELAND,56.00000,-3.40000,nan,nan,nan,nan,nan,nan,nan,nan,nan,nan,nan,nan,nan,nan,nan,nan
WMO03534,BIRMINGHAM_AIRPORT UNITED KINGDOM OF GREAT BRITAIN AND NORTHERN IRELAND,52.45000,-1.73333,nan,nan,nan,nan,nan,nan,nan,nan,nan,nan,nan,nan,nan,nan,nan,nan
WMO03827,PLYMOUTH-MOUNT BATTON UNITED KINGDOM OF GREAT BRITAIN AND NORTHERN IRELAND,50.40000,-4.10000,nan,nan,nan,nan,nan,nan,nan,nan,nan,nan,nan,nan,nan,nan,nan,nan
WMO03964,GALWAY IRELAND,53.30000,-9.00000,nan,nan,nan,nan,nan,nan,nan,nan,nan,nan,nan,nan,nan,nan,nan,nan
WMO04030,REYKJAVIK ICELAND,64.13333,-21.90000,61.0,nan,164.3,112.7,144.9,145.4,134.3,79.0,89.0,181.9,93.9,nan,nan,nan,148.0,110.3
WMO06590,LUXEMBOURG/LUXEMBOURG LUXEMBOURG,49.61667,6.21667,376.0,nan,148.7,201.4,97.6,154.0,184.9,205.3,174.0,125.7,205.4,nan,nan,nan,116.6,156.0
WMO07015,LILLE-LESQUIN FRANCE,50.56667,3.08333,47.0,nan,134.1,182.6,104.4,168.6,154.6,201.1,149.1,112.0,196.6,176.1,133.3,166.0,103.9,nan
WMO07149,ORLY FRANCE,48.71667,2.38333,90.0,nan,nan,nan,nan,168.7,201.0,212.1,163.6,119.6,195.3,175.4,132.6,156.6,111.6,nan
WMO07299,BALE-MULHOUSE FRANCE,47.60000,7.50000,273.0,nan,143.4,208.1,108.7,135.6,162.1,210.1,206.4,87.3,214.9,195.4,122.4,202.3,141.3,nan
WMO07577,MONTELIMAR FRANCE,44.56667,4.71667,74.0,nan,179.7,217.6,181.6,220.1,211.9,230.3,245.7,160.7,228.6,196.1,182.7,232.7,151.4,232.0
WMO07747,PERPIGNAN FRANCE,42.73333,2.86667,44.0,nan,201.4,215.4,211.9,240.6,228.9,203.7,238.7,147.4,231.0,nan,nan,nan,178.0,247.9
WMO08023,SANTANDER SPAIN,43.48333,-3.78333,59.0,nan,168.7,138.9,142.4,208.6,164.7,185.1,181.3,168.6,163.6,151.7,143.4,179.9,154.4,219.4
WMO08075,BURGOS/VILLAFRIA SPAIN,42.35000,-3.61667,892.0,nan,157.9,162.6,182.4,227.3,154.1,163.7,202.3,128.9,203.4,nan,nan,nan,127.4,229.7
WMO08161,ZARAGOZA SPAIN,41.63333,-0.90000,nan,nan,nan,nan,nan,nan,nan,nan,nan,nan,nan,nan,nan,nan,nan,nan
WMO08219,COLMENAR VIEJO/FAMET SPAIN,40.68333,-3.75000,998.0,nan,196.3,209.4,238.0,249.6,187.9,174.9,231.6,163.6,229.0,220.0,228.0,242.1,173.0,264.6
WMO08238,TORTOSA SPAIN,40.81667,0.48333,50.0,nan,220.4,222.9,247.6,238.3,197.3,195.1,271.1,204.1,236.7,222.9,222.0,276.1,205.4,nan
WMO08314,MENORCA/MAHON SPAIN,39.85000,4.20000,86.0,nan,194.9,154.1,182.9,201.9,196.0,181.1,222.4,191.0,219.1,176.4,185.7,293.7,204.7,nan
WMO08397,MORON DE LA FRONTERA SPAIN,37.15000,-5.60000,88.0,nan,216.1,235.4,258.7,228.6,192.6,212.4,243.6,182.7,238.3,240.0,245.9,nan,183.7,251.9
WMO08452,CADIZ OBS. SPAIN,36.50000,-6.25000,9.0,nan,232.1,nan,250.0,294.0,nan,nan,nan,211.9,nan,nan,nan,nan,nan,nan
WMO08515,SANTA MARIA (ACORES) PORTUGAL,36.96667,-25.16667,100.0,nan,224.7,198.0,212.0,nan,153.3,187.6,nan,138.0,206.0,nan,nan,nan,186.6,182.0
WMO08558,EVORA/C. COORD PORTUGAL,38.53333,-7.90000,246.0,nan,216.7,231.4,241.3,266.9,171.4,187.1,214.3,148.9,198.7,nan,nan,220.7,160.7,242.4
WMO10035,SCHLESWIG GERMANY,54.51667,9.53333,nan,nan,105.3,202.1,133.0,136.3,144.6,175.1,129.7,151.0,156.4,148.1,111.6,nan,105.7,126.1
WMO10131,CUXHAVEN GERMANY,53.86667,8.70000,12.0,nan,103.3,208.1,133.0,154.6,169.7,184.3,124.4,155.3,170.0,nan,nan,nan,129.3,128.4
WMO10168,GOLDBERG GERMANY,53.60000,12.10000,59.0,nan,nan,nan,nan,nan,149.9,198.6,141.3,173.1,178.4,153.1,124.7,130.0,155.9,nan
WMO10235,SOLTAU GERMANY,52.95000,9.78333,77.0,nan,nan,nan,nan,147.4,152.4,182.1,123.6,136.9,153.1,152.4,108.9,139.0,130.1,122.4
WMO10282,FELDBERG/MECKLENBURG GERMANY,53.31667,13.41667,116.0,nan,nan,nan,nan,nan,148.4,215.7,168.1,159.3,157.6,136.4,119.7,131.9,159.0,130.1
WMO10325,BAD SALZUFLEN GERMANY,52.10000,8.75000,136.0,nan,108.4,nan,nan,128.1,152.4,201.6,140.1,127.6,169.0,146.4,108.3,146.1,154.9,133.1
WMO10381,BERLIN-DAHLEM GERMANY,52.46667,13.30000,nan,nan,108.4,205.0,122.4,150.0,148.1,204.1,174.6,146.3,187.1,165.3,132.1,nan,171.0,148.0
WMO10427,KAHLER ASTEN GERMANY,51.16667,8.48333,858.0,nan,105.6,182.4,62.9,112.7,136.9,199.0,149.9,118.4,158.4,138.3,92.3,135.3,120.0,119.3
WMO10453,BROCKEN GERMANY,51.80000,10.61667,1152.0,nan,99.3,178.4,74.9,117.0,136.0,199.9,163.3,114.4,145.4,nan,nan,130.0,131.6,121.7
WMO10490,DOBERLUG-KIRCHHAIN GERMANY,51.63333,13.56667,97.0,nan,nan,nan,nan,nan,146.7,205.7,158.3,122.1,169.1,158.4,108.1,134.0,154.1,nan
WMO10520,ANDERNACH GERMANY,50.41667,7.41667,76.0,nan,nan,nan,nan,nan,nan,nan,147.0,125.7,180.0,nan,nan,nan,130.7,151.1
WMO10552,SCHMUECKE GERMANY,50.65000,10.76667,939.0,nan,nan,nan,nan,nan,139.6,211.6,172.4,104.7,166.9,154.6,81.4,131.0,118.6,129.3
WMO10579,MARIENBERG GERMANY,50.65000,13.13333,640.0,nan,nan,nan,nan,nan,150.4,199.1,163.7,118.6,169.3,162.6,100.0,124.3,154.7,157.7
WMO10646,NEUHUETTEN-SPESSART GERMANY,50.00000,9.41667,340.0,nan,nan,nan,nan,nan,147.4,215.1,165.0,111.7,186.3,nan,nan,nan,129.9,141.3
WMO10706,THOLEY GERMANY,49.46667,7.03333,387.0,nan,nan,nan,nan,nan,167.7,222.3,180.4,122.1,205.3,nan,nan,nan,123.0,154.4
WMO10742,OEHRINGEN GERMANY,49.20000,9.51667,274.0,nan,113.0,206.6,100.3,123.3,161.7,214.3,169.9,116.9,196.4,185.0,120.0,158.7,142.0,157.1
WMO10796,ZWIESEL GERMANY,49.01667,13.23333,616.0,nan,nan,nan,nan,nan,161.9,201.7,192.4,126.4,183.4,nan,nan,142.6,158.6,167.9
WMO10852,AUGSBURG GERMANY,48.41667,10.93333,476.0,nan,119.4,214.9,121.0,108.4,178.6,207.0,163.9,114.0,197.3,178.3,126.3,159.0,148.9,168.6
WMO10929,KONSTANZ GERMANY,47.66667,9.18333,444.0,nan,133.3,221.7,128.3,128.7,169.3,217.6,207.0,108.7,198.0,188.7,128.7,199.4,149.6,nan
WMO11028,ST. POELTEN (HESSERKASERNE) AUSTRIA,48.20000,15.60000,nan,nan,nan,nan,nan,nan,nan,nan,nan,nan,nan,nan,nan,nan,nan,nan
WMO11406,EGER CZECH REPUBLIC,50.08333,12.40000,nan,nan,nan,nan,nan,nan,nan,nan,nan,nan,nan,nan,nan,nan,nan,nan
WMO11787,LYSA HORA CZECH REPUBLIC,49.53333,18.43333,1326.0,nan,106.6,151.3,97.3,98.1,131.1,168.9,172.6,92.0,166.3,nan,nan,nan,124.7,152.7
WMO12330,POZNAN POLAND,52.41667,16.83333,88.0,nan,127.6,194.6,127.4,157.4,149.0,186.7,181.1,135.6,168.7,170.4,104.6,144.7,164.4,nan
WMO12843,BUDAPEST/PESTSZENTLORINC HUNGARY,47.43333,19.18333,139.0,nan,140.6,195.1,154.6,166.7,170.9,199.1,260.3,142.3,209.3,224.9,181.7,211.9,140.9,214.1
WMO13363,PLJEVLJA MONTENEGRO,43.35000,19.35000,788.0,nan,121.4,157.9,139.0,170.0,130.0,158.0,187.6,235.0,147.0,nan,120.9,161.9,207.0,192.3
WMO13615,TIRANA ALBANIA,41.33333,19.78333,90.0,nan,nan,nan,nan,104.9,142.6,nan,nan,nan,nan,nan,nan,nan,nan,nan
WMO15023,SUCEAVA ROMANIA,47.61667,26.23333,353.0,nan,132.0,191.7,146.9,154.3,163.6,178.3,180.3,154.1,163.3,nan,nan,nan,141.0,172.4
WMO15360,SULINA ROMANIA,45.13333,29.75000,13.0,nan,155.0,203.0,160.3,187.3,178.0,164.0,197.7,146.7,165.4,139.9,112.6,171.9,150.6,204.3
WMO16008,S. VALENTINO ALLA MUTA ITALY,46.75000,10.53333,1461.0,nan,nan,nan,nan,nan,nan,nan,nan,nan,nan,nan,nan,nan,nan,nan
WMO16099,TREVISO/S.ANGELO ITALY,45.65000,12.18333,nan,nan,138.0,199.9,nan,nan,nan,nan,nan,nan,nan,nan,nan,nan,nan,nan
WMO16191,FALCONARA ITALY,43.60000,13.40000,nan,nan,nan,nan,nan,nan,nan,nan,nan,nan,nan,nan,nan,nan,nan,nan
WMO16258,MONTE S. ANGELO ITALY,41.70000,15.93333,848.0,nan,nan,nan,nan,nan,nan,nan,nan,nan,nan,nan,nan,nan,nan,nan
WMO16429,TRAPANI BIRGI ITALY,37.90000,12.48333,9.0,nan,192.6,195.7,222.4,217.6,183.4,196.3,218.9,175.7,190.9,199.0,186.4,237.6,172.7,221.1
WMO16597,LUQA MALTA,35.85000,14.48333,nan,nan,259.3,204.0,236.6,235.1,214.3,229.6,250.6,236.9,231.4,nan,nan,nan,234.1,235.3
WMO16746,SOUDA (AIRPORT) GREECE,35.48333,24.11667,151.0,nan,224.9,217.0,252.1,230.9,243.4,192.7,240.9,240.6,242.9,205.3,253.7,217.9,240.4,211.6
WMO17062,ISTANBUL TURKEY,40.90000,29.15000,nan,nan,152.0,159.1,175.6,142.6,181.4,152.9,218.4,182.0,nan,nan,nan,nan,nan,nan
WMO17092,ERZINCAN TURKEY,39.70000,39.51667,1154.0,nan,150.1,152.0,135.1,137.1,162.3,170.6,155.1,150.3,173.0,141.0,191.1,159.9,166.6,132.0
WMO17150,BALIKESIR TURKEY,39.61667,27.91667,102.0,nan,197.0,179.7,150.0,151.4,174.4,147.6,207.7,169.4,175.6,146.9,190.0,174.1,191.0,213.6
WMO17202,ELAZIG TURKEY,38.60000,39.28333,881.0,nan,nan,196.3,189.7,156.7,184.1,185.4,207.4,199.0,208.9,174.7,236.4,182.7,229.3,164.6
WMO17255,KAHRAMANMARAS TURKEY,37.60000,36.93333,572.0,nan,154.1,173.0,182.4,139.0,154.4,172.1,188.9,171.4,180.9,163.4,207.1,180.0,198.9,172.4
WMO17351,ADANA/BOLGE TURKEY,36.98333,35.35000,27.0,nan,149.0,207.9,174.0,192.4,175.1,215.0,169.3,213.7,209.1,nan,nan,214.1,225.7,201.0
WMO20674,OSTROV DIKSON RUSSIAN FEDERATION (IN ASIA),73.50000,80.40000,46.0,nan,212.7,91.7,164.3,165.7,139.7,102.0,162.7,208.9,92.1,151.3,120.4,85.1,145.3,86.1
WMO21965,OSTROV CHETYREKHSTOLBOVOY RUSSIAN FEDERATION,70.60000,162.50000,nan,nan,nan,nan,nan,nan,nan,nan,nan,nan,nan,nan,nan,nan,nan,nan
WMO22602,REBOLY RUSSIAN FEDERATION (IN EUROPE),63.83333,30.81667,182.0,nan,nan,nan,nan,nan,nan,nan,nan,nan,nan,nan,nan,nan,nan,nan
WMO23205,NAR'JAN-MAR RUSSIAN FEDERATION (IN ASIA),67.61667,53.01667,11.0,nan,163.4,90.0,163.7,153.1,113.7,118.6,218.0,215.7,94.4,nan,nan,92.4,182.6,126.6
WMO23472,TURUHANSK RUSSIAN FEDERATION (IN ASIA),65.78333,87.98333,37.0,nan,202.3,176.0,189.1,192.9,222.9,126.1,228.9,231.6,142.0,135.0,176.9,116.6,180.1,113.6
WMO23884,BOR RUSSIAN FEDERATION (IN ASIA),61.56667,90.01667,57.0,nan,176.9,135.1,123.4,193.0,181.4,129.9,184.7,177.6,118.1,121.0,168.7,nan,143.0,110.7
WMO24143,DZARDZAN RUSSIAN FEDERATION (IN ASIA),68.73333,124.00000,38.0,nan,nan,nan,nan,nan,nan,nan,nan,nan,nan,nan,nan,nan,nan,nan
WMO24713,NAKANNO RUSSIAN FEDERATION (IN ASIA),62.88333,108.43333,245.0,nan,225.3,254.0,167.9,243.3,253.1,175.4,218.4,231.9,168.1,nan,nan,nan,199.0,194.9
WMO25173,MYS SHMIDTA RUSSIAN FEDERATION (IN ASIA),68.90000,-179.63333,3.0,nan,nan,nan,nan,nan,nan,nan,nan,nan,nan,nan,nan,nan,nan,nan
WMO25538,VERHNEE PENZINO RUSSIAN FEDERATION (IN ASIA),64.21667,164.23333,325.0,nan,203.9,318.0,274.4,239.0,345.0,nan,201.0,179.7,199.1,212.7,229.7,nan,nan,nan
WMO26038,TALLINN-HARKU ESTONIA,59.38333,24.60000,34.0,nan,161.4,196.6,128.9,152.7,144.6,206.7,163.3,239.0,228.7,157.9,165.9,150.6,189.1,192.4
WMO26393,VYSNIJ VOLOCEK RUSSIAN FEDERATION,57.58333,34.56667,nan,nan,nan,nan,nan,nan,nan,nan,nan,nan,nan,nan,nan,nan,nan,nan
WMO26629,KAUNAS LITHUANIA,54.88333,23.83333,76.0,nan,177.1,205.4,147.4,145.0,165.3,196.4,167.3,206.4,162.9,131.9,100.1,nan,193.4,184.7
WMO27199,KIROV RUSSIAN FEDERATION (IN EUROPE),58.56667,49.56667,158.0,nan,nan,nan,nan,nan,nan,nan,nan,nan,nan,nan,nan,nan,nan,nan
WMO28138,BISER RUSSIAN FEDERATION (IN ASIA),58.51667,58.85000,463.0,nan,101.1,157.7,169.7,134.3,153.3,139.1,142.3,149.6,129.0,237.3,153.0,155.9,179.9,143.9
WMO28573,ISHIM RUSSIAN FEDERATION (IN ASIA),56.10000,69.43333,82.0,nan,195.4,174.0,216.1,171.0,209.9,230.9,191.4,177.6,150.9,nan,nan,254.4,225.4,221.7
WMO28766,BLAGOVESHCHENKA KAZAKHSTAN,54.36667,66.96667,151.0,nan,nan,nan,nan,nan,nan,219.4,203.0,160.4,184.4,nan,nan,246.3,202.6,199.1
WMO29594,TAJSHET RUSSIAN FEDERATION (IN ASIA),55.95000,98.00000,306.0,nan,206.4,184.0,218.9,225.7,220.3,241.1,230.7,217.1,213.0,nan,nan,229.6,223.1,197.6
WMO30230,KIRENSK RUSSIAN FEDERATION (IN ASIA),57.76667,108.06667,258.0,nan,193.0,220.6,189.4,220.6,243.3,194.4,195.9,nan,199.4,nan,nan,nan,197.1,204.0
WMO30635,UST'-BARGUZIN RUSSIAN FEDERATION (IN ASIA),53.41667,109.01667,460.0,nan,nan,nan,nan,nan,nan,nan,nan,nan,nan,nan,nan,nan,nan,nan
WMO30949,KYRA RUSSIAN FEDERATION (IN ASIA),49.56667,111.96667,907.0,nan,240.7,231.0,242.7,243.0,228.0,272.1,274.0,294.4,266.4,247.9,251.3,288.6,280.1,nan
WMO31416,IM POLINY OSIPENKO RUSSIAN FEDERATION (IN ASIA),52.41667,136.50000,70.0,nan,228.3,235.3,185.1,222.9,246.6,267.0,232.3,188.6,254.4,194.1,210.6,nan,243.6,250.7
WMO32061,ALEKSANDROVSK-SAHALINSKIJ RUSSIAN FEDERATION (IN ASIA),50.90000,142.16667,31.0,nan,150.4,176.1,176.0,185.7,206.6,208.7,201.4,155.9,201.3,174.0,192.4,nan,193.1,218.1
WMO32389,KLJUCHI RUSSIAN FEDERATION (IN ASIA),56.31667,160.83333,28.0,nan,191.1,157.3,183.6,180.1,224.9,169.7,197.1,147.6,185.9,192.7,177.6,118.4,171.9,191.4
WMO33041,GOMEL BELARUS,52.40000,30.95000,126.0,nan,156.1,173.3,118.3,130.0,165.7,178.1,147.9,161.4,205.7,183.0,140.3,173.4,164.4,198.1
WMO33777,VOZNESENS'K UKRAINE,47.56667,31.33333,34.0,nan,nan,nan,nan,nan,nan,nan,nan,nan,nan,nan,nan,nan,nan,nan
WMO33983,KERCH UKRAINE,45.40000,36.41667,49.0,nan,nan,nan,nan,nan,nan,nan,nan,nan,nan,nan,nan,nan,nan,nan
WMO34300,KHARKIV UKRAINE,49.96667,36.13333,155.0,nan,112.1,194.6,118.3,139.0,161.3,189.7,160.1,135.3,202.0,nan,nan,173.6,142.6,171.3
WMO34927,KRASNODAR-KRUGLIK RUSSIAN FEDERATION (IN EUROPE),45.05000,39.03333,29.0,nan,142.9,169.7,135.6,95.0,153.1,134.0,191.7,141.3,180.4,172.0,153.6,176.9,nan,nan
WMO35376,BERLIK KAZAKHSTAN,49.88333,69.51667,349.0,nan,226.4,238.4,nan,nan,nan,nan,nan,nan,nan,nan,nan,nan,nan,nan
WMO36003,PAVLODAR KAZAKHSTAN,52.30000,76.93333,122.0,nan,180.7,226.6,190.7,204.9,216.6,233.9,158.9,177.7,216.0,nan,nan,nan,160.7,203.7
WMO36870,ALMATY KAZAKHSTAN,43.23333,76.93333,851.0,nan,196.4,175.1,198.7,156.3,144.0,210.0,163.3,181.6,181.4,174.4,168.7,130.6,136.1,189.7
WMO37472,MAHACHKALA RUSSIAN FEDERATION (IN EUROPE),43.00000,47.50000,-18.0,nan,105.9,128.6,162.9,178.0,142.1,129.0,184.7,118.4,175.9,124.4,154.9,nan,139.6,157.7
WMO37860,MASHTAGA AZERBAIJAN,40.53333,50.00000,28.0,nan,160.0,118.0,178.0,203.9,91.9,133.0,170.4,144.0,194.0,135.6,105.9,205.0,83.0,134.7
WMO38341,ZHAMBYL KAZAKHSTAN,42.85000,71.38333,nan,nan,279.0,180.7,238.6,161.7,165.0,218.7,189.6,176.9,197.9,nan,nan,134.6,169.0,189.9
WMO38511,CHAGYL TURKMENISTAN,40.78333,55.33333,115.0,nan,nan,nan,200.4,193.7,168.4,212.1,200.3,221.3,205.3,208.0,190.0,208.4,170.4,187.6
WMO38734,DEHAVZ TAJIKISTAN,39.45000,70.20000,2561.0,nan,nan,nan,nan,nan,nan,nan,nan,nan,nan,nan,nan,nan,nan,nan
WMO38933,KURGAN-TYUBE TAJIKISTAN,37.81667,68.78333,427.0,nan,nan,nan,nan,nan,nan,nan,nan,nan,200.0,nan,nan,nan,156.9,174.4
WMO40100,BEYROUTH (AEROPORT) LEBANON,33.81667,35.48333,19.0,nan,192.0,198.1,190.0,190.4,140.0,161.0,183.0,156.0,157.3,141.0,248.6,262.3,nan,nan
WMO40255,IRBID JORDAN,32.60000,35.90000,nan,nan,nan,nan,nan,nan,nan,nan,nan,nan,nan,nan,nan,nan,nan,nan
WMO40373,AL-QAISUMAH SAUDI ARABIA,28.31667,46.13333,358.0,nan,nan,nan,nan,nan,nan,nan,nan,nan,nan,nan,nan,nan,nan,nan
WMO40435,AL-DAWADAMI SAUDI ARABIA,26.98333,44.11667,923.0,nan,nan,nan,nan,nan,nan,nan,nan,nan,nan,nan,nan,nan,nan,nan
WMO40650,BAGHDAD IRAQ,33.26667,44.23333,nan,nan,nan,nan,nan,nan,nan,nan,nan,nan,nan,nan,nan,nan,nan,nan
WMO40723,BOJNOURD IRAN ISLAMIC REPUBLIC OF,37.46667,57.33333,nan,nan,nan,163.4,223.3,202.7,151.4,201.6,214.0,202.1,187.9,197.6,201.3,198.7,167.1,175.1
WMO40766,KERMANSHAH IRAN ISLAMIC REPUBLIC OF,34.35000,47.15000,1319.0,nan,220.4,175.9,214.1,179.7,184.9,219.0,208.0,205.4,211.1,236.4,216.4,nan,203.7,180.7
WMO40821,YAZD IRAN ISLAMIC REPUBLIC OF,31.90000,54.40000,nan,nan,275.3,236.0,288.0,nan,257.0,257.4,259.1,256.4,253.9,244.4,270.1,nan,271.7,266.6
WMO40911,MAZAR-I-SHARIF AFGHANISTAN ISLAMIC STATE OF,36.70000,67.20000,378.0,nan,nan,nan,nan,nan,nan,nan,nan,nan,nan,nan,nan,nan,nan,nan
WMO41061,WADI AL-DAWASSER AIRPORT SAUDI ARABIA,20.50000,45.25000,622.0,nan,278.0,295.9,296.6,279.7,275.0,285.0,244.6,265.3,262.4,214.0,248.0,273.7,292.3,265.1
WMO41196,SHARJAH INTERNATIONAL AIRPORT UNITED ARAB EMIRATES,25.33333,55.51667,33.0,nan,280.0,297.0,318.0,289.9,300.4,297.9,nan,nan,nan,nan,nan,nan,nan,nan
WMO41256,MUSCAT INT'L AIRPORT OMAN,23.58333,58.28333,8.0,nan,nan,nan,nan,nan,nan,194.0,nan,nan,nan,229.4,nan,321.0,330.3,301.0
WMO41287,JOBA OMAN,20.86667,58.23333,34.0,nan,nan,nan,nan,nan,nan,nan,nan,nan,nan,nan,nan,nan,nan,nan
WMO41515,DROSH PAKISTAN,35.56667,71.78333,1465.0,nan,nan,nan,nan,nan,nan,nan,nan,nan,nan,nan,nan,nan,nan,nan
WMO41685,BARKHAN PAKISTAN,29.88333,69.71667,1098.0,nan,nan,nan,nan,nan,nan,nan,nan,nan,nan,nan,nan,nan,nan,nan
WMO41764,HYDERABAD PAKISTAN,25.38333,68.41667,30.0,nan,nan,nan,nan,nan,nan,nan,nan,nan,nan,nan,nan,nan,nan,nan
WMO41923,DHAKA BANGLADESH,23.76667,90.38333,9.0,nan,nan,nan,nan,nan,nan,nan,214.0,233.3,264.1,242.7,221.7,189.6,221.1,220.0
WMO42314,DIBRUGARH /MOHANBARI INDIA (STATIONS NORTH OF LATITUDE 20~N),27.48333,95.01667,111.0,nan,130.0,156.7,129.4,150.1,102.4,156.3,124.6,152.6,179.1,nan,nan,nan,146.3,145.7
WMO42909,VERAVAL INDIA (STATIONS NORTH OF LATITUDE 20~N),20.90000,70.36667,11.0,nan,nan,nan,nan,nan,nan,nan,nan,nan,nan,nan,nan,nan,nan,nan
WMO43295,BANGALORE INDIA (STATIONS SOUTH OF LATITUDE 20~N),12.96667,77.58333,923.0,nan,189.7,222.3,187.9,189.9,214.6,224.7,215.7,205.3,204.3,221.3,218.1,229.1,229.0,216.0
WMO44213,BARUUNTURUUN MONGOLIA,49.65000,94.40000,1232.0,nan,nan,nan,nan,nan,nan,nan,nan,nan,nan,nan,nan,nan,nan,nan
WMO44277,ALTAI MONGOLIA,46.40000,96.25000,2181.0,nan,nan,nan,nan,nan,nan,nan,nan,nan,nan,nan,184.9,nan,166.0,nan
WMO44373,DALANZADGAD MONGOLIA,43.58333,104.41667,1465.0,nan,nan,240.9,234.0,239.0,213.3,278.1,263.6,269.6,293.3,nan,nan,nan,nan,nan
WMO47014,CHUNGGANG DEMOCRATIC PEOPLE'S REPUBLIC OF KOREA,41.78333,126.88333,331.0,nan,107.3,63.1,107.0,169.0,158.0,146.9,142.4,nan,144.0,163.0,143.9,nan,118.3,121.0
WMO47112,INCHEON REPUBLIC OF KOREA,37.46667,126.61667,69.0,nan,nan,nan,nan,nan,154.1,243.4,183.9,243.7,222.4,nan,nan,nan,209.6,224.4
WMO47407,ASAHIKAWA JAPAN,43.75000,142.36667,140.0,nan,108.9,155.9,178.6,135.0,104.7,163.4,157.1,103.3,188.4,nan,nan,172.6,141.1,162.7
WMO47582,AKITA JAPAN,39.71667,140.08333,21.0,nan,112.9,117.7,149.0,143.1,98.1,107.3,125.7,112.1,150.6,151.9,168.9,155.1,124.4,152.9
WMO47618,MATSUMOTO JAPAN,36.25000,137.96667,nan,nan,176.6,210.3,nan,nan,nan,nan,nan,nan,nan,nan,nan,nan,nan,nan
WMO47678,HACHIJOJIMA JAPAN,33.11667,139.76667,156.0,nan,111.9,143.7,133.3,152.7,112.1,157.0,127.0,135.7,137.7,138.3,108.3,nan,165.7,121.7
WMO47800,IZUHARA JAPAN,34.18333,129.28333,4.0,nan,168.0,167.1,169.1,184.0,123.6,216.7,161.9,179.7,175.4,193.3,167.1,176.3,187.1,187.0
WMO47893,KOCHI JAPAN,33.56667,133.53333,4.0,nan,nan,nan,221.4,188.1,140.6,218.7,175.7,219.7,207.0,184.0,199.6,198.3,223.9,209.1
WMO47991,MINAMITORISHIMA JAPAN,24.28333,153.98333,8.0,nan,243.6,190.1,213.4,230.1,274.9,183.3,221.0,230.6,206.1,237.3,217.3,nan,213.7,236.1
WMO48462,ARANYAPRATHET THAILAND,13.68333,102.50000,49.0,nan,nan,nan,nan,nan,nan,nan,nan,nan,nan,nan,nan,nan,nan,nan
WMO48657,KUANTAN MALAYSIA (PENINSULAR MALAYSIA),3.78333,103.21667,16.0,nan,nan,nan,nan,nan,nan,nan,nan,nan,nan,nan,nan,nan,nan,nan
WMO48830,LANG SON VIET NAM,21.83333,106.76667,263.0,nan,nan,49.0,86.7,75.1,75.1,39.9,139.0,109.6,19.3,nan,nan,59.0,125.4,69.6
WMO48914,CA MAU VIET NAM,9.18333,105.15000,2.0,nan,nan,240.0,243.0,229.7,253.7,203.7,228.0,250.9,272.0,266.4,272.3,238.7,243.4,280.4
WMO48991,PHNOM-PENH (KHMOUGH) CAMBODIA,11.60000,104.86667,10.0,nan,nan,nan,nan,nan,275.0,166.1,252.7,221.9,197.0,249.3,nan,nan,nan,nan
WMO51709,KASHI CHINA,39.48333,75.75000,1386.0,nan,217.3,216.9,232.4,234.1,232.3,205.7,205.1,245.4,228.7,233.4,194.3,195.1,168.4,192.3
WMO52681,MINQIN CHINA,38.63333,103.08333,1369.0,nan,280.4,239.0,290.3,269.1,244.9,286.7,285.0,288.6,287.9,292.6,264.0,274.6,271.9,307.1
WMO53845,YAN AN CHINA,36.58333,109.45000,1181.0,nan,279.1,233.3,254.3,256.9,198.7,242.6,227.9,279.6,226.7,230.4,233.0,211.1,206.4,236.7
WMO54857,QINGDAO CHINA,36.06667,120.33333,77.0,nan,225.1,191.1,229.4,218.0,159.9,243.9,185.7,231.4,221.7,215.3,228.1,214.1,168.0,201.3
WMO56187,WENJIANG CHINA,30.75000,103.86667,555.0,nan,116.1,76.1,87.0,86.4,85.1,84.0,88.9,142.6,57.6,80.6,66.6,74.6,118.6,90.9
WMO57083,ZHENGZHOU CHINA,34.71667,113.65000,111.0,nan,225.6,161.7,191.4,173.1,138.3,218.1,159.6,183.3,177.1,162.3,160.4,nan,176.7,204.9
WMO57993,GANZHOU CHINA,25.86667,115.00000,138.0,nan,82.6,78.3,122.3,92.9,93.4,71.3,87.3,136.1,84.3,80.0,86.7,79.4,127.9,nan
WMO59211,BAISE CHINA,23.90000,106.60000,177.0,nan,117.3,108.6,113.9,115.1,131.0,62.9,112.4,155.3,99.6,nan,nan,nan,144.0,96.4
WMO60010,IZANA SPAIN (CANARY ISLANDS),28.30000,-16.48333,2368.0,nan,330.0,297.1,292.0,254.0,259.0,nan,312.9,329.9,328.9,317.3,334.6,328.3,339.3,313.7
WMO60120,KENITRA MOROCCO,34.30000,-6.58333,nan,nan,242.0,270.0,272.0,228.7,227.0,253.7,272.3,225.3,244.3,257.3,273.3,nan,201.1,274.3
WMO60320,CEUTA SPAIN (CEUTA AND MELILLA),35.90000,-5.33333,88.0,nan,nan,nan,nan,nan,nan,nan,nan,nan,240.6,nan,nan,nan,194.6,233.1
WMO60387,DELLYS ALGERIA,36.91667,3.95000,8.0,nan,247.1,200.0,239.1,234.9,201.9,233.7,219.7,196.7,nan,nan,nan,279.3,195.6,nan
WMO60423,SOUK AHRAS ALGERIA,36.28333,7.96667,680.0,nan,248.7,191.1,242.1,225.6,195.4,211.4,236.0,215.1,190.3,nan,nan,252.7,202.3,250.4
WMO60467,M'SILA ALGERIA,35.66667,4.50000,442.0,nan,284.4,233.9,275.0,274.7,242.4,247.7,241.9,238.3,256.9,nan,nan,290.7,216.9,259.9
WMO60514,KSAR CHELLALA ALGERIA,35.16667,2.31667,801.0,nan,279.4,236.4,266.1,241.9,217.6,235.3,217.1,208.7,nan,nan,nan,276.4,205.3,250.4
WMO60536,SAIDA ALGERIA,34.86667,0.15000,752.0,nan,270.7,209.3,274.4,277.7,227.7,211.4,217.6,218.7,257.3,273.7,256.0,287.0,207.3,nan
WMO60566,GHARDAIA ALGERIA,32.40000,3.80000,469.0,nan,313.0,295.0,286.0,292.4,262.3,266.0,273.3,277.9,284.0,308.0,307.0,289.7,257.0,256.9
WMO60630,IN-SALAH ALGERIA,27.23333,2.50000,269.0,nan,315.9,297.4,309.7,284.1,243.1,261.1,252.0,308.9,306.0,309.6,308.9,nan,295.1,290.3
WMO60735,KAIROUAN TUNISIA,35.66667,10.10000,68.0,nan,269.4,228.1,260.4,246.6,232.1,233.9,238.6,244.7,223.7,nan,nan,nan,261.0,nan
WMO61053,DOSSO NIGER,13.03333,3.30000,213.0,nan,nan,nan,nan,nan,242.0,nan,nan,288.0,279.4,nan,258.9,290.3,274.0,274.0
WMO61223,TOMBOUCTOU MALI,16.71667,-3.00000,264.0,nan,nan,nan,251.3,251.1,260.0,289.3,nan,nan,nan,nan,nan,nan,nan,nan
WMO61272,SEGOU MALI,13.40000,-6.15000,289.0,nan,nan,nan,282.7,nan,nan,258.3,202.0,nan,299.0,247.9,281.1,270.3,257.3,226.0
WMO61415,NOUADHIBOU MAURITANIA,20.93333,-17.03333,3.0,nan,299.0,306.3,280.9,292.0,289.6,nan,nan,306.0,297.0,244.0,280.1,nan,nan,nan
WMO61499,AIOUN EL ATROUSS MAURITANIA,16.70000,-9.60000,223.0,nan,nan,nan,nan,nan,nan,nan,nan,nan,nan,nan,nan,nan,nan,nan
WMO61695,ZIGUINCHOR SENEGAL,12.55000,-16.26667,nan,nan,246.7,230.6,257.3,293.1,201.1,283.1,201.7,285.4,302.0,nan,nan,nan,224.0,270.0
WMO61818,KINDIA GUINEA,10.05000,-12.86667,nan,nan,nan,nan,nan,nan,nan,nan,nan,nan,nan,nan,nan,nan,nan,nan
WMO61878,NJALA SIERRA LEONE,8.10000,-12.10000,56.0,nan,nan,nan,nan,nan,nan,nan,nan,nan,nan,nan,nan,nan,nan,nan
WMO61974,AGALEGA MAURITIUS,-10.38333,56.60000,4.0,nan,210.0,226.1,267.3,235.0,259.1,224.6,245.6,234.3,245.7,220.7,217.7,209.6,203.9,216.4
WMO62002,NALUT LIBYA,31.86667,10.98333,621.0,nan,nan,260.6,293.4,264.3,263.3,269.0,250.4,281.4,267.3,290.7,290.6,261.9,287.0,nan
WMO62055,AGEDABIA LIBYA,30.71667,20.16667,7.0,nan,nan,264.0,293.9,283.9,268.6,nan,nan,nan,nan,nan,nan,nan,nan,nan
WMO62176,GIGHBUB LIBYA,29.75000,24.53333,-1.0,nan,nan,nan,303.3,301.9,307.6,nan,281.0,300.4,300.0,nan,nan,nan,nan,nan
WMO62387,MINYA EGYPT,28.08333,30.73333,40.0,nan,nan,nan,nan,302.4,285.1,312.9,nan,311.6,270.0,343.0,nan,286.4,nan,nan
WMO62464,HURGUADA POLLUTION EGYPT,27.28333,33.73333,6.0,nan,nan,nan,nan,nan,nan,nan,nan,nan,nan,nan,nan,nan,nan,nan
WMO62730,KASSALA SUDAN,15.46667,36.40000,500.0,nan,301.9,315.9,309.3,312.7,288.7,297.0,285.3,299.0,307.4,nan,nan,nan,289.3,nan
WMO62781,EN NAHUD SUDAN,12.70000,28.43333,564.0,nan,292.0,301.1,310.4,302.3,248.4,284.7,273.6,289.9,233.6,205.6,226.0,215.0,nan,nan
WMO63021,ASMARA ERITREA,15.28333,38.91667,2325.0,nan,nan,nan,nan,nan,nan,nan,nan,nan,nan,nan,nan,nan,nan,nan
WMO63630,GULU UGANDA,2.75000,32.33333,1105.0,nan,nan,nan,nan,nan,nan,nan,nan,nan,nan,nan,nan,nan,nan,nan
WMO63820,MOMBASA INTERNATIONAL AIRPORT KENYA,-4.00000,39.60000,nan,nan,nan,nan,nan,266.0,nan,nan,nan,nan,nan,nan,nan,nan,nan,nan
WMO64247,MBUJI-MAYI DEMOCRATIC REPUBLIC OF THE CONGO,-6.16667,23.61667,677.0,nan,nan,nan,nan,nan,nan,nan,nan,nan,nan,nan,nan,nan,nan,nan
WMO64453,DJAMBALA CONGO,-2.53333,14.76667,790.0,nan,nan,nan,nan,nan,nan,nan,nan,164.9,170.3,nan,nan,151.6,165.6,191.0
WMO64507,TCHIBANGA GABON,-2.85000,11.01667,79.0,nan,nan,nan,nan,nan,nan,nan,nan,nan,nan,nan,nan,nan,nan,nan
WMO64605,BOSSEMBELE CENTRAL AFRICAN REPUBLIC,5.26667,17.63333,674.0,nan,nan,nan,nan,249.0,nan,nan,nan,nan,nan,nan,nan,nan,nan,nan
WMO64700,NDJAMENA CHAD,12.13333,15.03333,295.0,nan,255.6,269.0,265.7,nan,250.7,297.3,265.0,263.7,251.7,226.0,294.0,262.0,251.1,nan
WMO64754,AM-TIMAN CHAD,11.03333,20.28333,436.0,nan,nan,nan,nan,nan,nan,nan,nan,nan,nan,nan,nan,nan,nan,nan
WMO64900,YOKO CAMEROON,5.55000,12.36667,1031.0,nan,nan,nan,nan,nan,nan,nan,nan,nan,nan,nan,nan,nan,nan,nan
WMO65123,MINNA NIGERIA,9.61667,6.53333,256.0,nan,nan,nan,nan,201.7,203.3,248.0,199.0,237.4,226.1,nan,233.0,258.6,224.0,219.0
WMO65338,BOHICON BENIN,7.16667,2.06667,167.0,nan,209.0,199.0,202.3,191.3,168.6,224.6,193.4,216.7,215.0,190.0,232.4,235.0,226.7,232.6
WMO65387,LOME TOGO,6.16667,1.25000,25.0,nan,nan,nan,nan,211.0,154.0,nan,207.0,236.9,nan,nan,nan,nan,nan,248.0
WMO65502,OUAHIGOUYA BURKINA FASO,13.58333,-2.43333,nan,nan,258.0,248.7,275.7,227.0,219.6,268.4,251.4,293.0,293.3,nan,nan,nan,299.6,253.0
WMO65545,BONDOUKOU COTE D'IVOIRE,8.05000,-2.78333,370.0,nan,228.1,nan,nan,nan,190.0,nan,217.7,230.0,nan,230.3,214.7,254.1,222.0,nan
WMO65594,SAN PEDRO COTE D'IVOIRE,4.75000,-6.65000,30.0,nan,208.6,nan,nan,213.0,200.0,nan,221.0,245.0,223.1,nan,nan,256.7,nan,250.0
WMO67009,ANTSIRANANA MADAGASCAR,-12.35000,49.30000,105.0,nan,238.0,282.0,244.3,203.6,nan,204.1,197.1,nan,222.1,218.4,206.0,177.9,182.0,236.7
WMO67161,TOLIARA MADAGASCAR,-23.38333,43.73333,8.0,nan,nan,nan,nan,nan,nan,nan,nan,nan,nan,nan,nan,nan,nan,nan
WMO67283,QUELIMANE MOZAMBIQUE,-17.88333,36.88333,16.0,nan,245.0,244.0,225.0,204.9,nan,211.0,238.0,235.1,268.4,105.0,nan,nan,nan,nan
WMO67346,CHANGALANE MOZAMBIQUE,-26.28333,32.18333,104.0,nan,nan,nan,nan,nan,nan,nan,nan,nan,nan,nan,220.6,236.0,219.4,nan
WMO67693,CHILEKA MALAWI,-15.68333,34.96667,767.0,nan,nan,nan,nan,nan,nan,nan,nan,nan,nan,257.0,nan,nan,nan,nan
WMO68006,ONDANGWA NAMIBIA,-17.93333,15.98333,nan,nan,nan,nan,nan,nan,nan,nan,nan,nan,nan,nan,nan,nan,nan,nan
WMO68174,POLOKWANE SOUTH AFRICA,-23.86667,29.45000,1226.0,nan,194.7,251.0,220.7,232.4,220.6,248.3,273.3,240.6,199.9,252.1,248.0,255.4,241.1,244.0
WMO68442,BLOEMFONTEIN AIRPORT SOUTH AFRICA,-29.10000,26.30000,1353.0,nan,243.7,284.9,250.6,274.3,273.4,234.0,269.1,263.3,251.4,nan,nan,277.7,205.3,290.0
WMO68828,GEORGE AIRPORT SOUTH AFRICA,-34.01667,22.38333,191.0,nan,209.9,225.7,217.0,226.9,223.6,220.3,198.9,228.9,221.6,nan,nan,221.0,195.0,192.1
WMO70231,MCGRATH AK UNITED STATES OF AMERICA (ALASKA),62.95000,-155.58333,103.0,nan,nan,nan,nan,nan,nan,nan,nan,nan,nan,nan,nan,nan,nan,nan
WMO71066,HIGH LEVEL ALTA CANADA,58.61667,-117.15000,nan,nan,nan,nan,nan,nan,nan,nan,nan,nan,nan,nan,nan,nan,nan,nan
WMO71299,KAPUSKASING CDA ON ONT CANADA,49.40000,-82.43333,nan,nan,nan,nan,nan,nan,nan,nan,nan,nan,nan,nan,nan,nan,nan,nan
WMO71727,BAGOTVILLE A QUE CANADA,48.33333,-71.00000,nan,nan,nan,nan,nan,nan,nan,nan,nan,nan,nan,nan,nan,nan,nan,nan
WMO71831,KAPUSKASING CANADA,49.40000,-82.50000,nan,nan,nan,nan,nan,nan,nan,nan,nan,nan,nan,nan,nan,nan,nan,nan
WMO71874,LETHBRIDGE AIRPORT CANADA,49.60000,-112.80000,nan,nan,nan,nan,nan,nan,nan,nan,nan,nan,nan,nan,nan,nan,nan,nan
WMO71915,CORAL HARBOUR A NU CANADA,64.18333,-83.35000,nan,nan,nan,nan,nan,nan,nan,nan,nan,nan,nan,nan,nan,nan,nan,nan
WMO71957,INUVIK/NWT (SY) CANADA,68.30000,-133.48333,nan,nan,nan,nan,nan,nan,nan,nan,nan,nan,nan,nan,nan,nan,nan,nan
WMO72226,MONTGOMERY/DANNELLY  AL. UNITED STATES OF AMERICA,32.30000,-86.40000,62.0,nan,nan,nan,nan,nan,nan,nan,nan,nan,nan,nan,nan,nan,nan,nan
WMO72259,DALLAS-FORT WORTH/FORT WORTH REG.AIRPORT TX. UNITED STATES OF AMERICA,32.90000,-97.03333,182.0,nan,nan,nan,nan,nan,nan,nan,nan,nan,nan,nan,nan,nan,nan,nan
WMO72308,NORFOLK/INT. VA. UNITED STATES OF AMERICA,36.90000,-76.20000,9.0,nan,nan,nan,nan,nan,nan,nan,nan,nan,nan,nan,nan,nan,nan,nan
WMO72344,FORT SMITH/MUN. AR. UNITED STATES OF AMERICA,35.33333,-94.36667,141.0,nan,nan,nan,nan,nan,nan,nan,nan,nan,nan,nan,nan,nan,nan,nan
WMO72406,BALTIMORE/BALTIMORE-WASHINGTON INT. MD. UNITED STATES OF AMERICA,39.18333,-76.66667,47.0,nan,nan,nan,nan,nan,nan,nan,nan,nan,nan,nan,nan,nan,nan,nan
WMO72439,SPRINGFIELD/CAPITAL  IL. UNITED STATES OF AMERICA,39.85000,-89.66667,187.0,nan,nan,nan,nan,nan,nan,nan,nan,nan,nan,nan,nan,nan,nan,nan
WMO72483,SACRAMENTO/EXECUTIVE CA. UNITED STATES OF AMERICA,38.51667,-121.50000,8.0,nan,nan,nan,nan,nan,nan,nan,nan,nan,nan,nan,nan,nan,nan,nan
WMO72517,ALLENTOWN/A.-BETHLEHEM-EASTON PA. UNITED STATES OF AMERICA,40.65000,-75.43333,117.0,nan,nan,nan,nan,nan,nan,nan,nan,nan,nan,nan,nan,nan,nan,nan
WMO72537,DETROIT/METROPOLITAN MI. UNITED STATES OF AMERICA,42.23333,-83.33333,202.0,nan,nan,nan,nan,nan,nan,nan,nan,nan,nan,nan,nan,nan,nan,nan
WMO72597,MEDFORD/MEDFORD-JACKSON COUNTY OR. UNITED STATES OF AMERICA,42.36667,-122.86667,398.0,nan,nan,nan,nan,nan,nan,nan,nan,nan,nan,nan,nan,nan,nan,nan
WMO72658,MINNEAPOLIS/ST.PAUL INT. MN. UNITED STATES OF AMERICA,44.88333,-93.21667,255.0,nan,nan,nan,nan,nan,nan,nan,nan,nan,nan,nan,nan,nan,nan,nan
WMO72753,FARGO/HECTOR FIELD  ND. UNITED STATES OF AMERICA,46.90000,-96.80000,274.0,nan,nan,nan,nan,nan,nan,nan,nan,nan,nan,nan,nan,nan,nan,nan
WMO76040,EJIDO NUEVO LEON MEXICO,32.40000,-115.18333,nan,nan,277.9,297.6,311.6,310.1,322.0,306.3,nan,310.4,304.1,315.3,313.0,nan,313.0,294.9
WMO76256,EMPALME SON. MEXICO,27.95000,-110.80000,nan,nan,312.3,323.0,322.0,276.0,290.0,336.4,267.9,316.4,296.4,273.6,307.6,303.3,265.7,254.1
WMO76402,CIUDAD CONSTITUCION BCS MEXICO,25.00000,-111.63333,nan,nan,289.1,267.0,322.7,274.9,289.4,303.1,297.4,286.7,292.9,nan,nan,nan,280.6,272.1
WMO76539,SAN LUIS POTOSI  S.L.P. MEXICO,22.20000,-101.01667,nan,nan,269.0,252.0,279.3,276.0,250.0,267.7,260.0,240.3,244.4,210.0,198.0,nan,248.9,248.7
WMO76612,GUADALAJARA JAL. MEXICO,20.70000,-103.38333,nan,nan,nan,nan,nan,nan,nan,nan,nan,286.4,310.1,nan,275.1,278.7,297.1,nan
WMO76658,COLIMA MEXICO,19.23333,-103.73333,nan,nan,320.0,271.0,nan,297.0,295.3,303.0,275.9,267.9,297.1,234.7,250.6,nan,269.7,282.9
WMO76692,HACIENDA YLANG YLANG VERACRUZ VER. MEXICO,19.15000,-96.13333,nan,nan,274.7,224.9,228.4,267.0,190.0,267.6,249.0,203.3,227.9,168.3,181.1,nan,234.1,222.6
WMO76805,ACAPULCO GRO. MEXICO,16.75000,-99.75000,nan,nan,291.9,300.3,316.6,306.0,316.6,306.7,295.9,277.0,313.3,294.6,286.7,323.3,334.7,324.7
WMO78310,CABO SAN ANTONIO  PINAR DEL RIO CUBA,21.86667,-84.95000,8.0,nan,nan,nan,nan,nan,262.1,nan,nan,nan,nan,nan,nan,nan,nan,nan
WMO78482,BARAHONA DOMINICAN REPUBLIC,18.20000,-71.10000,nan,nan,nan,nan,nan,nan,nan,nan,nan,nan,nan,nan,nan,nan,nan,nan
WMO78760,PUNTARENAS COSTA RICA,9.96667,-84.83333,3.0,nan,nan,nan,nan,nan,nan,nan,nan,nan,nan,nan,nan,nan,nan,nan
WMO80001,SAN ANDRES (ISLA)/SESQUICENTENARIO COLOMBIA,12.58333,-81.71667,6.0,nan,285.0,289.7,293.9,289.4,264.7,297.7,275.0,253.6,294.9,277.0,296.9,274.6,298.3,294.9
WMO80094,BUCARAMANGA/PALONEGRO COLOMBIA,7.10000,-73.20000,1189.0,nan,137.7,130.1,142.7,116.3,157.7,108.1,140.1,131.6,171.1,155.4,124.9,nan,122.0,137.3
WMO80219,GIRARDOT/SANTIAGO VILLA COLOMBIA,4.28333,-74.80000,293.0,nan,nan,nan,nan,nan,nan,nan,nan,nan,nan,nan,nan,nan,nan,nan
WMO80398,LETICIA/VASQUEZ COBO COLOMBIA,-4.16667,-69.95000,84.0,nan,131.1,131.4,149.0,139.1,153.4,121.4,125.4,153.1,99.7,nan,nan,nan,118.6,128.6
WMO80420,CUMANA VENEZUELA,10.45000,-64.18333,4.0,nan,265.9,251.7,272.0,249.9,239.0,223.7,203.6,231.0,256.4,nan,nan,nan,nan,nan
WMO80435,MATURIN VENEZUELA,9.75000,-63.18333,66.0,nan,246.0,235.6,256.4,245.0,253.9,223.9,193.1,252.1,245.6,nan,nan,nan,nan,nan
WMO80457,PUERTO AYACUCHO VENEZUELA,5.60000,-67.50000,74.0,nan,184.9,177.0,214.0,204.0,174.0,172.0,163.4,210.7,221.3,220.0,149.0,nan,nan,nan
WMO81401,SAINT-LAURENT FRENCH GUIANA,5.48333,-54.01667,5.0,nan,nan,97.6,nan,nan,nan,nan,nan,nan,nan,nan,nan,104.0,106.6,181.9
WMO82184,PORTO DE MOZ BRAZIL,-1.73333,-52.23333,16.0,nan,110.1,136.0,143.0,136.0,216.0,nan,nan,nan,nan,nan,nan,nan,nan,nan
WMO82397,FORTALEZA BRAZIL,-3.76667,-38.60000,26.0,nan,173.6,169.6,128.4,113.9,210.6,180.7,208.6,228.7,183.9,nan,nan,130.1,198.7,104.6
WMO82586,QUIXERAMOBIM BRAZIL,-5.20000,-39.30000,212.0,nan,223.6,217.6,170.0,178.7,228.1,216.0,249.4,222.0,209.7,nan,nan,nan,nan,186.0
WMO82900,RECIFE BRAZIL,-8.05000,-34.91667,7.0,nan,238.0,222.7,209.1,237.4,230.0,224.1,229.0,206.9,177.9,225.1,199.1,203.9,180.7,199.6
WMO83236,BARREIRAS BRAZIL,-12.15000,-45.00000,439.0,nan,189.4,253.3,179.9,193.4,nan,205.3,269.6,217.4,225.1,221.9,280.0,nan,204.3,228.1
WMO83437,MONTES CLAROS BRAZIL,-16.71667,-43.86667,646.0,nan,162.4,284.3,222.0,221.1,213.6,176.3,253.1,226.0,226.7,223.4,267.0,205.7,165.0,218.6
WMO83618,TRES LAGOAS BRAZIL,-20.78333,-51.70000,313.0,nan,230.6,257.0,207.0,225.1,nan,nan,nan,nan,nan,nan,nan,nan,nan,nan
WMO83726,SAO CARLOS BRAZIL,-22.01667,-47.88333,856.0,nan,204.6,209.3,181.9,180.1,182.9,123.4,199.7,155.9,191.6,136.1,nan,nan,nan,nan
WMO83997,ST.VITORIA DO PALMAR BRAZIL,-33.51667,-53.35000,24.0,nan,215.1,158.9,218.0,209.6,232.4,221.4,212.4,226.7,202.6,230.4,154.4,nan,209.9,nan
WMO84140,PICHILINGUE ECUADOR,-1.10000,-79.45000,nan,nan,nan,nan,nan,110.9,103.1,147.0,136.6,87.9,102.3,122.6,90.1,111.9,134.0,108.9
WMO85033,GUAYARAMERIN BOLIVIA,-10.81667,-65.35000,nan,nan,nan,161.9,122.0,129.0,nan,nan,nan,nan,nan,nan,nan,nan,nan,nan
WMO85154,TRINIDAD BOLIVIA,-14.81667,-64.91667,nan,nan,nan,201.0,166.0,154.0,224.0,163.0,190.7,nan,146.7,nan,nan,150.6,149.3,154.9
WMO85406,ARICA CHILE,-18.35000,-70.33333,nan,nan,255.6,279.7,290.6,291.7,263.6,306.4,261.7,274.6,260.9,251.6,275.3,270.0,265.1,269.7
WMO85577,QUINTA NORMAL CHILE,-33.43333,-70.66667,nan,nan,264.0,221.1,241.7,263.0,240.0,231.9,257.9,241.9,255.6,254.9,195.6,242.3,262.6,252.3
WMO85864,COYHAIQUE CHILE,-45.58333,-73.10000,nan,nan,161.9,164.3,220.6,178.0,188.1,163.3,180.7,158.7,176.0,167.9,203.4,161.1,154.7,185.6
WMO86086,PUERTO CASADO PARAGUAY,-22.28333,-57.93333,78.0,nan,nan,nan,nan,nan,nan,200.4,237.7,225.9,223.0,nan,nan,nan,234.4,223.9
WMO86221,PARAGUARI PARAGUAY,-25.63333,-57.13333,116.0,nan,nan,nan,nan,nan,nan,199.1,205.1,189.7,172.1,201.1,205.4,195.7,195.3,166.7
WMO86285,CAPITAN MEZA PARAGUAY,-26.83333,-55.33333,263.0,nan,nan,nan,nan,nan,nan,214.0,232.0,199.3,199.6,219.7,176.6,nan,189.7,183.4
WMO86560,COLONIA URUGUAY,-34.45000,-57.76667,20.0,nan,nan,nan,nan,nan,nan,200.0,nan,nan,nan,nan,nan,221.4,234.9,224.0
WMO87078,LAS LOMITAS ARGENTINA,-24.70000,-60.58333,130.0,nan,207.3,180.0,253.0,232.3,237.4,163.0,201.6,223.0,195.7,nan,nan,173.9,164.3,131.4
WMO87166,CORRIENTES AERO. ARGENTINA,-27.45000,-58.76667,62.0,nan,240.9,nan,nan,nan,nan,nan,nan,nan,nan,nan,nan,nan,nan,nan
WMO87289,PASO DE LOS LIBRES AERO ARGENTINA,-29.68333,-57.15000,70.0,nan,220.9,155.1,226.9,236.6,229.6,221.3,221.3,223.9,199.9,227.7,145.7,201.4,191.6,182.4
WMO87374,PARANA AERO ARGENTINA,-31.78333,-60.48333,78.0,nan,230.0,152.1,259.3,266.1,267.7,251.1,250.7,250.4,225.9,254.9,186.4,221.9,226.9,205.7
WMO87484,PERGAMINO ARGENTINA,-33.93333,-60.55000,nan,nan,nan,nan,nan,nan,nan,nan,nan,nan,nan,nan,nan,nan,nan,nan
WMO87550,NUEVE DE JULIO ARGENTINA,-35.45000,-60.88333,76.0,nan,nan,nan,nan,nan,nan,nan,nan,nan,nan,nan,nan,nan,nan,nan
WMO87640,BOLIVAR AERO ARGENTINA,-36.20000,-61.06667,94.0,nan,235.4,169.1,222.7,256.0,252.0,263.6,233.3,258.9,211.4,nan,nan,221.0,253.6,236.4
WMO87692,MAR DEL PLATA AERO ARGENTINA,-37.93333,-57.58333,21.0,nan,168.4,142.4,186.0,132.7,155.7,196.7,132.4,129.7,142.6,157.3,103.9,138.1,151.7,137.9
WMO87800,EL BOLSON AERO ARGENTINA,-41.96667,-71.51667,337.0,nan,233.1,nan,nan,nan,nan,nan,nan,nan,nan,nan,nan,nan,nan,nan
WMO87903,LAGO ARGENTINO ARGENTINA,-50.33333,-72.30000,nan,nan,nan,nan,nan,nan,nan,nan,nan,nan,nan,nan,nan,nan,nan,nan
WMO88903,GRYTVIKEN  SOUTH GEORGIA ISLANDS(UNITED KINGDOM OF GREAT BRITAIN),-54.28333,-36.48333,3.0,nan,nan,100.9,111.1,103.4,102.4,123.6,122.3,118.3,104.9,nan,nan,105.0,nan,nan
WMO89042,SIGNY ISLAND / SOUTH ORKNEY ISL. ANTARCTICA,-60.70000,-45.60000,nan,nan,nan,nan,nan,nan,nan,nan,nan,nan,nan,nan,nan,nan,nan,nan
WMO89063,VERNADSKY STATIONS OPERATED BY UKRAINE,-65.25000,-64.26667,11.0,nan,nan,nan,nan,45.3,nan,nan,nan,nan,nan,nan,52.7,40.1,46.0,63.0
WMO89606,VOSTOK STATIONS OPERATED BY THE RUSSIAN FEDERATION,-78.45000,106.85000,3489.0,nan,228.6,240.7,221.1,218.3,208.1,244.6,233.4,275.0,232.1,236.3,310.0,259.9,215.9,nan
WMO91275,JOHNSTON ISLAND (WSO AIRPORT) ISLANDS IN THE PACIFIC OCEAN NORTH OF THE EQUATOR,16.70000,-169.50000,nan,nan,nan,nan,nan,nan,nan,nan,nan,nan,nan,nan,nan,nan,nan,nan
WMO91557,BAUERFIELD (EFATE) VANUATU,-17.70000,168.30000,21.0,nan,nan,nan,nan,nan,nan,nan,nan,nan,nan,nan,nan,nan,nan,nan
WMO91683,NAUSORI FIJI,-18.05000,178.56667,7.0,nan,nan,nan,nan,nan,nan,nan,nan,nan,nan,nan,nan,nan,nan,nan
WMO91938,TAHITI-FAAA FRENCH POLYNESIA (SOCIETY ISLANDS),-17.55000,-149.60000,2.0,nan,240.4,238.4,199.9,207.4,232.4,254.7,198.4,250.3,213.0,nan,nan,nan,234.0,222.7
WMO91958,RAPA FRENCH POLYNESIA (AUSTRAL ISLANDS),-27.61667,-144.33333,2.0,nan,147.9,104.3,171.7,145.1,131.1,141.4,124.1,127.9,117.7,59.9,78.6,135.9,168.9,133.1
WMO92077,GURNEY W.O. PAPUA NEW GUINEA,-10.31667,150.33333,23.0,nan,110.0,nan,nan,nan,nan,nan,nan,nan,nan,nan,nan,nan,nan,nan
WMO93417,PARAPARAUMU NEW ZEALAND,-40.90000,174.98333,nan,nan,190.0,210.9,190.0,204.4,nan,nan,nan,nan,nan,nan,nan,nan,nan,nan
WMO93986,WAITANGI / CHATHAM ISL. NEW ZEALAND,-44.00000,-176.60000,nan,nan,nan,nan,nan,nan,nan,nan,nan,nan,nan,nan,nan,nan,nan,nan
WMO94238,TENNANT CREEK AIRPORT AUSTRALIA,-19.63333,134.18333,377.0,nan,242.4,270.0,307.9,337.7,285.0,167.0,246.0,296.0,317.0,329.0,nan,nan,nan,nan
WMO94476,OODNADATTA AIRPORT AUSTRALIA,-27.55000,135.43333,117.0,nan,nan,nan,nan,nan,nan,nan,nan,nan,nan,nan,nan,nan,nan,nan
WMO94738,SCONE SCS AUSTRALIA,-32.05000,150.91667,216.0,nan,nan,nan,nan,nan,nan,nan,nan,nan,nan,nan,nan,nan,nan,nan
WMO94926,CANBERRA AIRPORT AUSTRALIA,-35.30000,149.20000,577.0,nan,267.6,242.7,266.0,257.6,nan,187.0,183.0,nan,nan,nan,nan,nan,nan,nan
WMO95971,GROVE/TAS AUSTRALIA,-42.98333,147.06667,nan,nan,nan,nan,186.6,149.6,nan,nan,nan,nan,nan,nan,nan,nan,nan,nan
WMO96091,TANJUNG PINANG/KIJANG INDONESIA,0.91667,104.53333,18.0,nan,nan,nan,nan,nan,nan,nan,99.3,155.3,201.9,197.3,162.7,158.9,154.0,206.4
WMO96249,TANJUNG PANDAN/BULUH TUMBANG INDONESIA,-2.75000,107.75000,44.0,nan,nan,128.7,82.9,136.0,126.0,120.3,110.6,155.3,175.9,148.9,127.9,109.7,123.0,144.1
WMO96481,TAWAU MALAYSIA (SABAH AND SARAWAK),4.26667,117.88333,20.0,nan,nan,nan,nan,nan,nan,nan,166.3,230.9,nan,nan,nan,nan,nan,nan
WMO96615,KETAPANG/KALIMANTAN INDONESIA,-1.85000,109.96667,nan,nan,nan,nan,187.0,177.9,198.1,141.1,157.3,211.9,182.0,nan,nan,193.1,nan,205.3
WMO96745,JAKARTA/OBSERVATORY INDONESIA,-6.18333,106.83333,8.0,nan,107.9,103.7,149.0,162.0,141.4,112.6,122.0,143.3,122.6,131.0,138.9,133.7,154.0,128.0
WMO96845,SURAKARTA/JAVA INDONESIA,-7.51667,110.75000,nan,nan,nan,nan,nan,nan,nan,nan,nan,nan,nan,nan,nan,nan,nan,nan
WMO97014,MENADO/ SAM RATULANGI INDONESIA,1.53333,124.91667,80.0,nan,105.7,126.7,110.1,156.0,199.6,125.0,135.0,191.1,228.7,224.1,199.7,nan,148.0,165.3
WMO97180,UJUNG PANDANG/HASANUDDIN INDONESIA,-5.06667,119.55000,14.0,nan,146.9,145.0,173.0,186.6,184.0,132.1,167.6,205.7,195.0,nan,nan,nan,179.0,155.0
WMO97320,MALI/ALOR ISLAND INDONESIA,-8.13333,124.60000,nan,nan,nan,nan,nan,nan,nan,nan,187.4,231.1,276.0,nan,nan,180.3,223.0,202.1
WMO97460,LABUHA/WEST IRIAN INDONESIA,0.63333,127.50000,nan,nan,nan,192.6,nan,152.0,194.4,145.3,137.1,176.4,209.3,nan,nan,nan,156.0,194.1
WMO97690,JAYAPURA/SENTANI INDONESIA,-2.56667,140.48333,99.0,nan,nan,nan,nan,92.0,115.3,73.6,126.6,154.4,162.4,nan,nan,115.4,133.0,127.7
WMO97810,TUAL/MOLUKKEN INDONESIA,-5.68333,132.75000,nan,nan,nan,104.4,162.0,120.0,142.1,100.0,126.6,181.6,163.9,nan,nan,nan,78.0,103.3
WMO98425,MANILA PHILIPPINES,14.58333,120.98333,nan,nan,nan,nan,nan,nan,nan,nan,nan,nan,nan,nan,nan,nan,nan,nan
WMO98836,ZAMBOANGA PHILIPPINES,6.91667,122.05000,6.0,nan,197.0,222.3,194.1,156.6,268.9,186.1,nan,243.0,258.3,277.4,270.1,210.0,nan,nan
