id,name,latitude,longitude,elev,2005,2006,2007,2008,2009,2010,2011,2012,2013,2014,2015,2016,2017,2018,2019
01001099999,JAN MAYEN NOR NAVY NO,70.93333,-8.66667,9.0,nan,21.8,26.6,31.4,37.3,18.8,33.0,26.9,40.6,29.6,36.4,34.5,38.9,20.6,27.4
01015099999,HEKKINGEN FYR NO,69.60000,17.83333,14.0,nan,43.4,36.4,37.6,39.2,25.0,40.0,nan,nan,34.1,27.9,27.5,27.7,26.5,27.8
01030099999,KISTEFJELL NO,69.28333,18.13333,982.0,nan,nan,nan,nan,nan,nan,nan,nan,nan,nan,30.6,34.9,nan,24.2,19.3
01047099999,KAUTOKEINO II NO,69.01667,23.06667,307.0,nan,22.2,15.3,16.1,11.7,11.1,17.9,8.5,14.7,9.2,17.0,12.1,11.4,13.0,9.2
01076099999,TANABRU NO,70.21667,28.16667,32.0,nan,nan,nan,nan,nan,nan,nan,9.9,11.6,6.9,15.4,9.4,9.4,11.2,6.4
01087999999,SNORRE B OIL PLATFORM NO,61.53333,2.20000,90.0,nan,nan,nan,nan,nan,nan,61.1,28.5,73.9,33.8,53.4,70.9,45.7,36.1,33.4
01102599999,HEIDRUN NO,65.33333,7.31667,80.0,nan,69.3,63.5,51.4,37.7,27.9,68.1,52.9,51.1,38.3,48.0,62.0,48.9,41.3,26.6
01122099999,KJAERSTAD NO,65.78400,13.21491,72.2,nan,15.3,9.6,5.6,6.8,6.5,16.0,6.0,8.8,7.0,11.9,13.8,6.8,7.7,3.8
01148099999,STORFORSHEI NO,66.38333,14.51667,110.0,nan,nan,nan,nan,nan,nan,8.3,7.6,6.1,7.1,6.4,6.4,6.9,7.7,6.5
01169099999,SALTDAL NORDNES NO,66.93333,15.31667,37.0,nan,nan,nan,nan,nan,nan,nan,nan,nan,nan,nan,nan,nan,nan,nan
01212099999,ONA II NO,62.86667,6.53333,15.0,nan,52.3,42.0,35.2,22.8,16.7,53.3,30.1,37.2,29.8,44.2,60.5,39.4,35.9,13.3
01228099999,SULA NO,63.85000,8.46667,6.0,nan,48.0,35.0,0.0,25.4,23.2,49.1,34.4,31.5,25.7,40.6,45.6,31.1,nan,12.8
01242099999,AFJORD II NO,63.96667,10.21667,30.0,nan,nan,nan,0.0,0.0,nan,nan,nan,nan,nan,nan,nan,nan,nan,nan
01271099999,VAERNES NO,63.45756,10.93987,17.1,nan,26.0,13.3,14.5,14.0,12.5,22.1,20.8,18.3,17.3,19.6,22.2,19.3,20.0,9.9
01293099999,MERAKER EGGE NO,63.41667,11.73333,171.0,nan,12.7,11.4,5.9,9.4,7.2,13.3,11.3,14.3,6.6,11.3,14.2,10.3,9.0,5.6
01317099999,BERGEN FLORIDA NO,60.38333,5.33333,36.0,nan,10.5,16.6,11.7,8.8,9.5,15.7,12.0,25.4,9.2,16.7,20.1,12.5,11.9,8.7
01337099999,VOSSEVANGEN NO,60.63333,6.43333,55.0,nan,3.7,4.7,2.4,4.9,0.5,6.2,7.1,7.3,4.8,6.7,9.5,4.9,4.6,4.0
01355099999,LAERDAL IV NO,61.10000,7.50000,5.0,nan,nan,nan,nan,nan,nan,nan,nan,nan,nan,nan,nan,nan,nan,nan
01367099999,FAGERNES NO,60.98333,9.21667,365.4,nan,8.5,6.4,8.0,5.9,6.0,7.6,1.9,10.3,10.7,5.3,7.9,4.1,5.2,4.1
01380099999,VENABU NO,61.65000,10.11667,930.0,nan,16.5,8.5,10.1,7.4,7.9,12.2,6.4,16.0,7.9,11.8,15.4,9.9,10.5,5.2
01393099999,DREVSJO NO,61.88333,12.03333,673.5,nan,8.6,6.4,6.7,4.5,0.8,8.7,4.8,12.4,5.7,9.3,13.2,6.0,6.5,0.5
01414099999,ROVER NO,59.43333,5.06667,25.0,nan,nan,nan,nan,nan,nan,33.9,27.4,17.4,26.3,38.1,45.6,28.8,19.0,15.0
01427099999,LISTA FYR NO,58.11667,6.56667,14.0,nan,25.9,18.1,18.8,26.1,10.1,29.8,30.3,46.6,26.1,39.7,44.0,35.0,25.3,15.6
01444099999,VALLE NO,59.20000,7.51667,302.0,nan,nan,nan,nan,nan,nan,9.8,7.6,8.0,5.1,8.7,11.7,9.8,9.2,4.7
01463099999,AS NO,59.65000,10.76667,89.0,nan,nan,nan,nan,nan,nan,nan,nan,nan,nan,nan,nan,nan,nan,nan
01473099999,KONGSBERG BRANNSTASJON NO,59.61667,9.63333,173.0,nan,5.0,4.9,4.6,3.9,3.0,6.0,3.9,7.5,4.7,7.3,9.3,5.6,4.9,3.3
01484399999,OSEBERG NO,59.31667,10.45000,15.0,nan,35.4,57.0,36.6,32.9,22.2,55.1,42.6,70.9,35.6,55.9,67.9,45.1,37.1,34.6
01495099999,STROMTANGEN FYR NO,59.15000,10.83333,10.0,nan,nan,25.3,14.7,22.2,18.8,33.0,23.2,45.0,19.6,38.0,43.2,32.0,16.3,12.3
02038099999,LATNIVAARA SW,67.25000,20.26667,453.0,nan,14.4,nan,6.5,5.2,4.1,9.5,0.2,nan,5.6,9.3,7.1,6.0,6.7,5.3
02103099999,HEMAVAN GIEREVARTO SW,65.78333,15.06667,793.0,nan,49.4,27.9,14.5,34.9,21.8,34.5,25.8,nan,28.0,27.5,26.0,28.6,nan,19.6
02151099999,JOKKMOKK FPL SW,66.48333,20.16667,275.0,nan,11.0,6.0,nan,4.9,10.7,9.4,1.0,7.6,4.8,8.8,8.6,7.3,6.6,2.1
02188099999,RODKALLEN SW,65.31667,22.38333,2.0,nan,30.1,28.6,nan,34.1,15.0,34.4,15.7,26.0,21.3,28.3,26.9,18.3,16.8,15.0
02230099999,GUBBHOGEN SW,64.21667,15.55000,310.0,nan,19.1,9.0,8.4,5.2,5.8,9.2,2.0,nan,7.0,7.6,7.5,9.9,8.0,3.8
02260099999,VASTMARKUM SW,63.13333,18.25000,143.0,nan,11.1,nan,8.8,6.2,5.5,7.6,4.3,nan,9.6,8.1,7.7,9.2,8.7,4.1
02287099999,HOLMON SW,63.80000,20.86667,8.0,nan,28.6,24.2,19.2,25.6,18.3,25.8,11.5,20.2,19.7,23.1,24.3,22.9,17.2,12.8
02329099999,HAMRA SW,61.66667,15.00000,455.0,nan,11.4,11.4,10.3,7.0,9.0,12.9,3.4,nan,9.3,12.1,15.1,9.1,5.3,4.1
02407099999,MALUNG A SW,60.68333,13.70000,306.0,nan,nan,nan,nan,7.7,4.9,11.8,7.1,15.0,4.5,12.6,16.3,6.8,4.6,4.7
02431099999,KLOTEN SW,59.86667,15.25000,289.0,nan,nan,nan,nan,7.1,5.6,11.1,7.5,13.5,7.1,14.1,15.3,8.0,6.5,4.2
02453099999,GAVLE SANDVIKEN AIR FORCE BASE SW,60.71667,17.16667,16.0,nan,8.8,12.6,8.6,7.3,9.9,13.4,7.1,15.5,7.2,14.2,18.0,9.1,9.0,6.1
02482099999,KERSTINBO SW,60.26667,16.98333,57.0,nan,8.1,13.7,7.1,5.7,3.4,12.9,6.2,nan,6.4,13.9,16.7,8.3,6.4,5.2
02498099999,SVENSKA HOGARNA A SW,59.45000,19.50000,12.0,nan,nan,nan,nan,nan,29.8,34.7,32.0,38.0,30.6,38.0,41.2,31.7,25.5,18.6
02526099999,LANDVETTER SW,57.66284,12.27982,154.2,nan,16.8,21.0,13.2,13.7,12.2,20.4,16.7,29.5,16.6,26.7,27.2,23.2,12.3,12.0
02549099999,TOMTABACKEN SW,57.50000,14.46667,356.0,nan,9.6,8.6,8.8,8.4,1.5,13.8,13.1,nan,10.4,16.1,17.2,13.5,9.2,8.1
02562599999,SAAB SW,58.40615,15.68051,52.4,nan,13.9,14.8,13.6,7.8,9.1,17.6,11.9,15.9,12.6,17.7,20.9,14.5,11.1,6.1
02590099999,VISBY SW,57.66280,18.34621,50.0,nan,17.9,23.1,19.6,19.1,19.5,23.7,19.3,28.9,22.1,28.7,32.4,23.6,16.5,11.1
02625099999,SKILLINGE SW,55.48333,14.31667,5.0,nan,14.5,18.0,16.1,19.8,24.7,20.8,28.1,31.0,17.8,27.3,26.4,24.5,17.2,11.4
02661099999,KOSTA ORREFORS SW,56.83333,15.46667,232.0,nan,7.6,7.5,6.2,5.8,5.4,9.3,8.6,nan,8.0,11.4,13.1,9.9,6.4,4.1
02706099999,LOHJA PORLA FI,60.25000,24.05000,37.0,nan,nan,nan,nan,nan,nan,nan,nan,nan,nan,nan,nan,nan,nan,nan
02722099999,INARI SAARISELKA FI,68.41667,27.41667,302.0,nan,nan,nan,nan,nan,nan,nan,nan,nan,nan,nan,nan,nan,nan,nan
02737099999,TOHOLAMPI LAITALA FI,63.81667,24.16667,84.5,nan,nan,nan,nan,11.0,5.4,19.1,12.3,18.8,10.2,17.6,20.5,14.4,10.7,10.2
02751099999,PORI TAHKOLUOTO HARBOUR FI,61.63333,21.38333,4.6,nan,nan,nan,27.8,22.6,10.0,38.4,19.8,38.2,26.9,40.8,40.5,34.1,21.8,19.3
02761099999,RAUMA KYLMAPIHLAJA FI,61.15000,21.30000,29.0,nan,nan,nan,32.3,31.2,24.0,44.4,28.6,nan,32.8,46.9,47.5,39.4,30.1,24.1
02772099999,RANTASALMI RUKKASLUOTO FI,62.06667,28.56667,80.0,nan,nan,nan,20.0,19.4,7.8,23.5,13.7,nan,15.6,25.7,22.6,20.5,13.2,14.6
02791099999,JUUKA NIEMELA FI,63.23333,29.23333,115.0,nan,nan,nan,8.3,9.0,2.9,11.1,2.0,nan,4.7,9.9,11.7,7.7,4.5,6.4
02803099999,SIIKAJOKI REVONLAHTI FI,64.68333,25.08333,49.5,nan,nan,nan,6.6,9.6,4.2,10.0,2.8,nan,3.5,6.4,16.0,10.8,8.7,8.1
02816099999,SODANKYLA VUOTSO FI,68.08333,27.18333,248.8,nan,nan,nan,7.9,7.6,4.3,9.6,6.4,8.6,4.4,6.9,7.9,4.9,5.6,4.3
02828099999,KAARINA YLTOINEN FI,60.38333,22.55000,5.2,nan,nan,nan,4.8,7.2,9.5,6.2,7.7,nan,7.3,6.9,nan,nan,nan,nan
02845099999,ROVANIEMI FI,66.56482,25.83041,196.6,nan,16.4,17.1,13.1,18.2,10.6,18.1,8.8,16.4,9.4,14.3,19.2,12.5,8.0,11.0
02863099999,KEMI I LIGHTHOUSE FI,65.38333,24.10000,19.0,nan,39.6,38.3,33.2,34.6,18.9,40.1,16.4,33.8,21.8,35.8,nan,30.6,29.3,31.0
02880099999,TORNIO TORPPI FI,65.85000,24.16667,9.0,nan,nan,nan,nan,nan,nan,nan,nan,11.5,5.0,8.4,9.1,6.7,6.3,6.5
02907099999,KALAJOKI ULKOKALLA FI,64.33333,23.45000,5.0,nan,36.4,35.2,29.9,31.5,18.8,41.3,18.2,32.6,23.3,34.3,38.8,30.2,25.4,22.9
02926099999,PORI RAILWAY STATION FI,61.48333,21.78333,10.1,nan,nan,nan,nan,nan,nan,nan,10.8,16.4,11.2,15.2,14.7,11.5,9.7,8.7
02944099999,TAMPERE PIRKKALA FI,61.41415,23.60439,118.9,nan,14.9,16.1,11.8,12.7,10.3,16.4,11.1,18.7,11.7,19.3,18.3,12.9,10.4,9.4
02957099999,VAASA KLEMETTILA FI,63.10000,21.63944,9.0,nan,nan,nan,nan,nan,nan,nan,11.2,20.5,12.6,20.2,21.7,15.7,12.8,10.8
02974099999,HELSINKI VANTAA FI,60.31722,24.96333,54.5,nan,19.2,19.0,14.3,16.3,15.1,19.4,14.9,23.3,15.3,22.2,23.9,17.7,16.1,11.7
02987099999,PORVOO KALLBADAGRUND FI,59.98333,25.60000,23.3,nan,42.1,39.1,32.4,40.7,31.3,40.8,33.4,42.0,33.0,46.6,44.9,38.7,31.1,nan
03008099999,FAIR ISLE UK,59.53333,-1.63333,57.0,nan,20.6,42.2,25.1,17.6,18.1,43.3,35.7,48.8,nan,41.7,55.2,30.7,19.8,21.5
03041099999,AONACH MOR UK,56.81667,-4.96667,1130.0,nan,34.4,62.0,nan,16.0,nan,61.2,37.5,nan,111.5,102.5,68.8,nan,30.9,34.1
03075099999,WICK UK,58.45889,-3.09306,38.4,nan,10.1,19.5,17.4,14.7,10.2,26.8,31.7,32.8,16.1,24.4,32.1,16.2,9.4,13.6
03134099999,GLASGOW BISHOPTON UK,55.90000,-4.53333,59.0,nan,7.0,13.9,7.6,7.1,5.1,20.9,15.0,26.6,13.9,20.1,24.1,11.4,6.1,10.1
03140799999,MARNOCK OIL PLATFORM UK,57.28333,1.65000,470.0,nan,nan,nan,nan,nan,nan,nan,53.2,68.4,nan,59.1,67.4,43.0,26.7,29.6
03160099999,EDINBURGH UK,55.95000,-3.37250,41.1,nan,10.4,17.8,13.3,7.5,5.5,27.3,16.1,32.1,16.3,26.2,28.2,17.2,9.5,10.0
03214599999,WARTON UK,53.74510,-2.88306,16.8,nan,nan,nan,nan,nan,nan,20.5,10.7,28.6,29.3,32.4,22.5,9.2,9.1,25.6
03243399999,NEWCASTLE UK,55.03750,-1.69167,81.1,nan,4.6,13.2,10.5,7.1,5.6,22.3,14.2,24.2,18.1,20.4,25.3,19.6,9.1,9.9
03302099999,VALLEY UK,53.24810,-4.53534,11.3,nan,11.4,27.1,18.4,21.9,18.0,37.3,27.6,47.5,33.5,42.7,37.0,28.5,17.9,20.7
03346099999,EMLEY MOOR NUMBER 2 UK,53.60000,-1.66667,267.0,nan,10.8,18.9,nan,17.4,nan,36.2,26.0,68.7,52.3,62.2,35.5,27.5,15.0,20.3
03382099999,LECONFIELD UK,53.86667,-0.43333,7.0,nan,4.9,15.5,12.1,12.5,9.8,20.4,15.2,25.9,19.9,24.2,21.4,17.4,8.6,10.0
03410099999,LAKE VYRNWY NUMBER 2 UK,52.75000,-3.46667,359.0,nan,3.1,16.2,14.6,10.8,9.0,29.4,20.3,32.1,26.7,34.1,29.6,21.6,13.3,15.1
03503099999,TRAWSGOED UK,52.35000,-3.95000,62.0,nan,2.8,8.3,9.3,8.7,7.0,13.4,10.9,17.3,15.7,16.8,11.8,10.3,8.7,10.6
03566199999,ISLAY UK,55.68194,-6.25667,17.1,nan,nan,25.9,17.2,10.9,19.0,32.3,27.9,43.1,24.4,34.7,40.6,17.4,16.5,22.2
03647099999,LITTLE RISSINGTON UK,51.86667,-1.68333,210.0,nan,8.9,17.0,18.7,15.7,21.8,25.9,21.6,31.3,27.7,32.8,22.2,22.8,14.5,16.7
03693099999,SHOEBURYNESS LANDWICK UK,51.55000,0.83333,3.0,nan,10.8,13.3,15.9,17.3,17.1,18.4,18.7,28.4,22.8,27.0,18.0,19.7,11.6,17.6
03761099999,ODIHAM UK,51.23414,-0.94283,123.4,nan,7.6,15.3,16.1,13.6,13.7,22.0,23.8,30.6,25.8,31.7,19.3,21.2,14.3,18.8
03797035047,MANSTON UK,51.35000,1.33300,50.0,nan,12.3,15.5,18.0,18.5,21.7,21.0,23.2,32.7,28.5,29.8,21.3,22.7,14.2,19.8
03857099999,ISLE OF PORTLAND UK,50.51667,-2.45000,52.0,nan,19.3,25.0,25.8,27.9,23.2,35.1,38.7,45.1,38.9,43.3,30.7,31.6,26.5,34.4
03895099999,JERSEY JE,49.20795,-2.19551,84.4,nan,13.4,18.4,20.5,24.0,22.7,24.6,31.4,33.7,28.1,31.4,20.8,24.7,22.8,30.7
03924099999,CITY UK,54.61806,-5.87250,4.6,nan,11.7,17.9,13.5,11.9,12.5,25.5,14.7,32.0,17.4,23.9,23.1,14.9,9.7,12.1
03967099999,CASEMENT EI,53.30167,-6.45133,97.2,nan,8.4,21.6,14.4,17.3,14.5,33.0,23.5,34.5,28.6,28.7,29.7,23.3,15.4,18.8
04013099999,STYKKISHOLMUR IC,65.08333,-22.73333,8.0,nan,32.8,24.4,35.8,28.2,24.5,21.2,24.8,31.3,17.3,22.6,24.6,24.8,17.8,20.6
04064099999,KIRKJUBAEJARKLAUSTUR IC,63.78333,-18.06667,38.0,nan,18.7,13.1,12.5,14.9,9.6,12.6,13.5,nan,nan,nan,nan,nan,nan,27.5
04097099999,DALATANGI IC,65.26667,-13.58333,11.0,nan,23.2,20.6,23.6,37.3,32.1,17.1,30.6,nan,nan,nan,nan,nan,14.4,nan
04145099999,BLONDUOS IC,65.66667,-20.30000,22.0,nan,nan,nan,30.7,24.4,23.8,24.4,16.3,32.9,23.8,20.6,25.1,22.7,19.2,22.5
04170099999,SKARDSFJORUVITI IC,63.51667,-17.98333,9.0,nan,nan,nan,nan,nan,nan,nan,nan,nan,17.3,31.8,nan,nan,19.2,25.4
04202299999,JAKOBSHAVN LUFTHAVN GL,69.23300,-51.06700,31.0,nan,21.7,26.5,20.4,18.8,30.9,20.9,12.7,21.8,21.3,23.1,23.4,18.2,12.4,10.4
04231099999,SONDRE STROMFJORD GL,67.01697,-50.68932,50.3,nan,11.4,11.1,12.9,14.4,15.0,13.6,12.6,13.2,13.0,16.8,13.5,13.4,10.5,15.5
04301099999,KAP MORRIS JESUP GL,83.65000,-33.36667,4.0,nan,nan,nan,nan,21.5,nan,21.1,31.8,14.3,12.6,26.4,42.9,25.4,32.6,0.0
04373099999,IKERMIIT GL,64.78333,-40.30000,80.0,nan,45.6,49.2,40.9,30.3,40.9,55.5,21.4,34.5,33.5,30.1,62.8,29.7,8.4,27.4
06022099999,TYRA OST DA,55.72000,4.80000,43.0,nan,19.0,42.5,32.0,41.1,31.9,38.6,47.2,55.6,37.5,59.2,64.2,47.7,30.4,28.9
06049099999,HALD V DA,56.56667,10.10000,89.0,nan,21.8,18.3,18.2,19.1,16.2,22.0,23.5,26.9,16.9,26.2,28.7,27.7,19.5,11.8
06073099999,SLETTERHAGE FYR DA,56.10000,10.51667,6.0,nan,nan,nan,nan,nan,nan,nan,32.6,27.1,20.1,29.3,36.0,30.8,23.8,17.4
06108099999,KOLDING VAMDRUP DA,55.43628,9.33093,43.6,nan,13.9,16.5,19.5,19.2,11.3,17.7,31.6,35.0,19.2,29.5,30.2,27.2,16.5,12.6
06136099999,TYSTOFTE DA,55.25000,11.33333,12.0,nan,11.4,15.2,13.3,20.3,16.7,17.2,23.0,42.3,26.1,41.4,24.3,23.9,14.1,11.8
06168099999,NAKKEHOVED DA,56.11667,12.35000,43.0,nan,14.0,12.6,18.4,14.5,27.5,16.2,19.4,19.4,14.5,16.9,20.8,19.0,nan,13.5
06197099999,NEXOE VEST DA,55.05000,15.10000,25.0,nan,nan,18.4,17.0,21.8,nan,24.0,26.8,28.5,26.3,28.5,33.8,32.2,19.9,11.7
06235099999,DE KOOIJ NL,52.92335,4.78062,0.9,nan,10.3,18.6,20.8,25.5,19.3,25.3,25.3,37.3,32.9,35.8,31.4,25.3,17.4,18.3
06269099999,LELYSTAD NL,52.46028,5.52722,-4.0,nan,8.4,14.2,15.2,19.9,18.0,20.1,19.8,29.0,27.3,28.7,23.8,21.1,15.1,15.9
06286099999,NIEUW BEERTA NL,53.20000,7.15000,0.0,nan,7.6,17.7,18.4,22.8,19.8,22.9,23.4,29.4,30.1,29.2,29.8,24.6,18.6,15.9
06348099999,CABAUW TOWER NL,51.96667,4.93333,2.0,nan,8.4,13.8,14.5,19.6,16.5,20.2,21.6,28.7,28.6,28.2,22.6,21.3,15.3,16.8
06414099999,BEITEM BE,50.90000,3.11667,25.0,nan,nan,nan,13.4,15.2,14.0,15.7,18.8,24.9,20.1,21.6,16.0,16.5,12.5,15.0
06451099999,BRUSSELS NATIONAL BE,50.90139,4.48444,56.1,nan,9.3,11.8,12.0,15.6,13.0,17.0,22.5,26.8,23.6,23.7,19.9,17.9,14.5,17.4
06477099999,DIEPENBEEK BE,50.91667,5.45000,39.0,nan,nan,nan,nan,12.4,10.0,14.4,17.5,22.1,18.9,20.3,14.1,15.2,10.9,13.4
06602099999,DELEMONT SZ,47.35000,7.35000,439.4,nan,nan,nan,nan,nan,nan,nan,12.1,8.7,5.8,2.7,3.9,5.8,11.0,9.9
06613099999,EMMEN SZ,47.09237,8.30512,426.7,nan,3.7,nan,nan,4.6,2.6,3.1,5.2,2.5,3.0,2.6,3.0,4.4,7.4,6.8
06625099999,FRIBOURG POSIEUX SZ,46.76667,7.11667,633.0,nan,nan,nan,nan,nan,nan,7.0,15.7,8.9,8.9,6.4,5.0,6.1,15.9,17.2
06636099999,MUEHLEBERG SZ,46.98333,7.28333,483.0,nan,nan,nan,6.2,3.5,3.9,3.2,5.7,4.5,3.8,2.8,3.1,3.5,6.4,6.0
06647099999,WUERENLINGEN SZ,47.53333,8.23333,337.0,nan,nan,nan,nan,nan,nan,nan,nan,nan,nan,0.0,nan,nan,nan,nan
06662199999,GRENCHEN SZ,47.18163,7.41719,430.1,nan,11.8,3.3,12.5,5.2,6.7,7.3,12.3,7.6,7.3,4.0,6.1,5.7,13.8,11.9
06679099999,AADORF TAENIKON SZ,47.48333,8.90000,539.5,nan,4.4,2.2,8.7,5.8,3.1,5.6,11.4,4.7,6.9,4.8,4.5,4.0,8.5,8.7
06693099999,EBNAT KAPPEL SZ,47.26667,9.10000,623.0,nan,nan,nan,nan,nan,nan,2.9,3.1,5.0,4.1,2.4,3.2,2.4,4.3,5.4
06711099999,PULLY SZ,46.51667,6.66667,462.0,nan,5.7,3.6,6.6,5.2,4.9,4.3,5.5,4.7,6.3,3.9,3.9,4.9,5.4,6.7
06723099999,VERBIER LES ATTLELAS SZ,46.10000,7.26667,2733.0,nan,nan,nan,nan,nan,nan,nan,nan,19.9,14.7,12.0,12.7,15.5,19.9,20.8
06740099999,TITLIS SZ,46.76667,8.43333,3094.3,nan,nan,nan,nan,nan,nan,nan,nan,35.4,40.3,23.7,26.4,28.1,38.7,43.9
06754099999,MATRO SZ,46.41667,8.93333,2171.0,nan,nan,nan,nan,nan,nan,nan,nan,38.7,22.3,9.1,23.5,28.7,26.3,29.3
06779099999,SEGL MARIA SZ,46.43333,9.76667,1804.2,nan,nan,nan,nan,nan,nan,nan,nan,nan,9.7,6.0,8.1,9.9,9.1,11.0
06790099999,SCHIERS SZ,46.98333,9.66667,626.0,nan,nan,nan,nan,nan,nan,nan,nan,nan,3.5,2.9,3.7,3.4,3.2,4.5
06806599999,BUOCHS AIRPORT STANS SZ,46.96667,8.40000,450.0,nan,7.8,nan,3.1,5.6,4.3,3.0,nan,5.9,6.5,5.1,10.1,6.0,7.8,9.3
07020099999,LA HAGUE FR,49.71667,-1.93333,12.0,nan,19.6,23.1,27.1,31.2,30.3,30.8,37.2,39.6,36.5,40.3,26.8,31.9,23.1,33.1
07055099999,TILLE FR,49.45444,2.11278,109.4,nan,11.9,5.8,14.8,12.2,15.1,13.8,22.6,24.4,18.6,18.3,11.6,15.6,9.7,17.9
07109099999,POULMIC FR,48.28170,-4.44502,87.5,nan,11.6,13.6,13.9,14.9,18.0,16.2,29.1,28.4,18.5,27.3,13.4,17.4,15.6,25.3
07139099999,ALENCON VALFRAMBERT FR,48.45000,0.11667,141.0,nan,9.6,5.2,14.1,10.3,13.5,9.9,20.1,21.4,15.1,15.3,9.0,13.0,11.5,16.4
07156099999,PARIS MONTSOURIS FR,48.81667,2.33333,77.0,nan,9.7,6.5,12.0,9.7,14.5,9.6,14.9,17.0,13.3,13.1,10.0,12.2,10.8,14.3
07182599999,MIRECOURT FR,48.32496,6.06998,330.4,nan,nan,nan,nan,nan,nan,nan,nan,nan,18.8,18.3,12.3,15.6,16.2,18.6
07230099999,BEAUCOUZE FR,47.48333,-0.60000,50.0,nan,7.4,5.2,12.2,10.2,11.4,9.8,17.5,18.6,11.2,13.1,8.1,11.3,11.4,15.2
07260099999,FOURCHAMBAULT FR,47.00263,3.11333,183.5,nan,6.2,5.6,7.2,10.4,6.7,8.1,12.5,13.5,8.5,8.1,4.9,9.9,12.2,16.1
07314099999,CHASSIRON FR,46.05000,-1.41667,22.0,nan,17.0,14.2,25.2,18.8,26.9,17.4,25.7,34.6,18.7,20.2,15.2,19.2,16.7,30.6
07385099999,CHARNAY FR,46.29510,4.79577,221.9,nan,4.5,1.7,12.1,9.6,13.0,8.4,9.2,13.1,7.3,5.8,6.0,9.4,9.0,11.7
07475099999,BOUTHEON FR,45.54055,4.29639,403.9,nan,3.1,3.8,5.8,11.1,13.4,7.3,11.8,18.1,5.0,10.4,3.5,9.5,8.3,10.3
07491099999,AIX LES BAINS FR,45.63805,5.88023,237.4,nan,11.7,3.2,12.0,9.3,9.0,5.8,9.3,10.0,6.0,4.3,3.4,5.8,12.3,10.1
07549099999,AURILLAC FR,44.89139,2.42194,638.9,nan,5.7,9.2,7.4,11.8,14.0,nan,11.5,12.7,7.2,11.6,4.6,9.7,6.9,11.1
07586099999,CARPENTRAS FR,44.08333,5.05000,105.0,nan,3.0,3.0,5.8,9.6,15.7,12.6,6.5,11.8,8.5,4.2,6.1,7.5,4.4,nan
07622099999,LAMOTHE FR,43.68778,0.60167,125.3,nan,4.1,5.3,4.0,6.3,7.1,5.6,7.5,6.4,5.6,4.9,4.2,7.4,4.3,9.7
07641599999,VIAS FR,43.32352,3.35390,17.1,nan,10.6,10.5,10.9,15.6,25.1,16.2,11.4,14.1,12.7,10.0,12.0,15.7,8.9,17.4
07675099999,LE CANNET FR,43.38467,6.38714,80.8,nan,1.5,4.0,10.0,13.5,12.2,8.0,11.1,8.8,9.5,2.2,3.4,4.2,12.3,20.5
07768099999,LA CHIAPPA FR,41.60000,9.36667,68.0,nan,46.3,29.4,27.7,33.5,25.9,nan,nan,nan,nan,nan,nan,nan,nan,36.5
08008099999,LUGO ROZAS SP,43.11667,-7.45000,446.0,nan,2.4,nan,nan,nan,nan,nan,9.3,nan,nan,10.0,4.5,6.7,5.0,11.1
08025099999,BILBAO SP,43.30110,-2.91061,42.1,nan,7.5,9.1,5.9,11.7,9.2,5.9,10.0,14.2,6.2,12.2,3.0,8.9,6.4,10.2
08075099999,BURGOS SP,42.35763,-3.62076,897.6,nan,11.4,13.7,9.5,20.4,14.2,9.0,15.5,25.8,7.3,9.7,5.9,15.4,8.5,18.2
08140099999,VALLADOLID SP,41.70611,-4.85194,845.8,nan,8.5,9.0,8.1,17.5,11.7,6.7,12.8,21.3,5.2,5.8,3.4,14.3,7.1,18.2
08186099999,SAN LORENZO SP,41.63300,2.01700,1092.0,nan,nan,nan,nan,nan,nan,nan,nan,nan,nan,nan,nan,4.6,nan,5.5
08223099999,CUATRO VIENTOS SP,40.37068,-3.78514,691.0,nan,5.4,4.8,3.5,12.9,8.2,1.9,5.3,12.2,3.3,2.0,1.5,9.2,3.4,13.7
08272099999,TOLEDO SP,39.88333,-4.05000,516.0,nan,7.8,8.8,9.5,19.2,12.6,6.4,nan,11.4,6.5,5.6,4.5,9.5,5.6,13.6
08330099999,TALAVERA LA REAL SP,38.89125,-6.82133,185.6,nan,5.2,8.6,5.8,17.5,13.5,4.0,6.8,13.9,3.4,6.3,3.9,7.2,5.3,7.2
08397099999,MORON AB SP,37.17492,-5.61594,86.9,nan,8.0,7.8,6.4,22.2,15.4,9.7,6.6,13.3,3.9,4.5,8.5,8.6,4.9,11.9
08452099999,CADIZ OBS SP,36.50000,-6.25000,9.0,nan,nan,nan,nan,nan,nan,nan,nan,nan,nan,nan,nan,11.8,8.6,12.5
08507099999,GRACIOSA AERODROME PO,39.10000,-28.03333,26.2,nan,nan,nan,nan,nan,nan,nan,nan,nan,nan,nan,nan,nan,nan,nan
08532099999,SINTRA PO,38.83105,-9.33955,134.1,nan,3.3,7.6,4.7,21.2,19.8,13.6,7.4,18.6,7.5,nan,nan,15.9,9.9,7.9
08548099999,COIMBRA CERNACHE PO,40.15000,-8.46667,179.0,nan,6.9,8.3,6.9,13.2,11.0,7.9,9.4,13.7,7.8,10.1,9.7,9.9,7.8,11.5
08570099999,CASTELO BRANCO PO,39.83333,-7.48333,384.0,nan,10.1,11.2,8.2,13.1,10.7,9.1,8.0,12.7,8.1,6.4,6.3,10.6,5.6,11.7
10018099999,WESTERLAND SYLT GM,54.91325,8.34047,15.5,nan,13.1,21.5,21.6,22.6,19.5,24.9,27.7,36.7,24.5,26.9,36.1,29.0,17.2,18.6
10162499999,SCHWERIN PARCHIM GM,53.42700,11.78344,50.6,nan,9.2,7.7,17.5,15.4,8.2,14.2,18.1,27.7,24.6,25.2,16.7,13.8,15.4,nan
10338099999,HANNOVER GM,52.46106,9.68508,55.8,nan,7.5,11.3,nan,18.6,13.8,19.4,20.2,23.7,23.4,22.0,22.0,19.8,16.2,12.1
10439099999,FRITZLAR GM,51.11450,9.28583,172.5,nan,6.7,9.5,9.3,10.7,9.4,8.5,9.6,17.4,16.0,17.6,16.3,12.5,12.2,9.1
10613099999,BUCHEL GM,50.17383,7.06333,477.9,nan,11.0,8.1,14.6,14.6,10.8,13.9,11.2,22.6,20.0,19.6,16.5,16.8,14.1,15.4
10727599999,KARLSRUHE BADEN BADEN GM,48.77935,8.08050,124.3,nan,15.7,4.6,18.2,12.1,9.1,13.5,20.5,14.2,18.6,15.3,12.1,13.9,15.4,14.3
10837099999,LAUPHEIM GM,48.22030,9.91002,538.3,nan,12.5,3.0,17.7,10.8,5.5,10.5,19.9,9.4,15.9,10.7,11.9,12.9,15.0,14.0
11001099999,WOLFSEGG AU,48.10000,13.66667,615.6,nan,13.0,6.8,20.7,14.6,11.5,14.7,12.4,10.0,22.9,8.8,15.5,nan,18.6,16.0
11022099999,RETZ AU,48.76667,15.95000,323.0,nan,10.8,7.1,23.5,13.0,12.3,11.6,8.7,9.9,21.5,7.4,14.1,15.9,17.7,16.2
11040099999,WIEN UNTERLAA AU,48.13333,16.41667,199.0,nan,8.8,7.9,19.6,16.4,13.8,15.1,10.6,16.0,23.4,7.2,18.9,18.6,18.7,17.8
11082099999,GUMPOLDSKIRCHEN AU,48.03333,16.28333,233.0,nan,7.9,4.4,11.5,9.1,10.8,8.7,4.9,9.5,11.1,4.4,8.3,13.2,17.3,15.8
11121099999,INNSBRUCK FLUGHAFEN AU,47.25000,11.35000,579.0,nan,nan,nan,nan,nan,nan,nan,nan,nan,7.4,5.6,6.2,7.7,8.6,7.2
11142099999,ST. JOHANN PONGAU AU,47.31667,13.18333,647.0,nan,0.1,0.2,3.0,2.3,1.9,1.0,0.9,6.2,nan,3.5,6.5,nan,nan,nan
11161099999,PRAEBICHL AU,47.51667,14.95000,1214.2,nan,nan,nan,nan,nan,nan,nan,nan,nan,8.5,5.8,8.9,11.3,8.4,11.1
11190099999,EISENSTADT AU,47.85000,16.53333,189.3,nan,9.5,8.9,16.4,12.4,11.8,10.5,9.2,14.0,13.6,5.1,15.8,13.9,13.8,15.9
11229099999,ST. ANDRAE I.L. AU,46.76667,14.83333,404.0,nan,3.4,1.9,2.4,3.0,5.0,2.2,3.2,4.4,3.8,3.5,4.3,nan,4.0,4.0
11260099999,MALLNITZ BAD AU,47.00000,13.16667,1201.2,nan,nan,nan,nan,nan,nan,nan,nan,nan,6.1,3.9,6.1,nan,nan,nan
11292099999,LASSNITZHOEHE AU,47.06667,15.58333,533.0,nan,5.3,2.9,6.1,6.0,5.7,5.1,5.6,6.5,6.8,5.4,5.8,5.9,6.7,6.7
11318099999,BRUNNENKOGEL OETZTALER ALPEN AU,46.91667,10.86667,3429.5,nan,11.7,14.7,nan,nan,nan,nan,nan,nan,15.9,15.2,15.9,nan,21.2,14.1
11348099999,MARIAPFARR AU,47.15000,13.75000,1151.0,nan,3.2,3.5,14.7,6.9,12.5,11.3,4.1,9.1,10.2,4.0,9.9,nan,nan,nan
11365099999,ZELTWEG AUTOM. STAT. AU,47.20000,14.76667,682.0,nan,nan,nan,nan,nan,nan,nan,nan,nan,7.5,4.0,8.2,nan,7.2,8.5
11386099999,KRUMBACH ID BUCKLIGEN WELT AU,47.51667,16.18333,545.0,nan,nan,nan,nan,nan,nan,nan,nan,nan,9.2,4.6,6.8,nan,nan,nan
11423399999,KUNOVICE EZ,49.02944,17.43972,177.1,nan,16.1,8.7,15.6,17.8,7.9,2.6,9.8,10.0,14.8,10.1,13.2,3.2,9.1,nan
11519099999,PRAHA KARLOV KLEMENTINUM EZ,50.06667,14.43333,254.0,nan,nan,6.7,14.7,10.2,10.0,14.8,10.1,8.0,21.3,12.9,16.3,14.0,17.3,11.9
11643099999,PEC POD SNEZKOU EZ,50.70000,15.73333,820.6,nan,4.4,4.0,10.9,8.2,4.4,8.3,5.8,7.5,9.9,12.2,8.9,8.7,8.4,6.8
11723099999,TURANY EZ,49.15127,16.69443,237.1,nan,8.3,8.0,18.2,12.6,11.7,6.7,9.8,14.2,17.7,5.8,12.6,12.5,13.7,12.4
11816099999,M R STEFANIK LO,48.17017,17.21267,132.9,nan,9.8,7.9,16.6,15.2,19.1,10.0,9.1,15.5,19.5,7.2,16.0,15.5,17.8,19.6
11903099999,SLIAC LO,48.65000,19.15000,315.0,nan,nan,nan,9.1,nan,nan,nan,nan,nan,nan,nan,nan,nan,11.0,11.1
11934099999,TATRY LO,49.07359,20.24114,718.1,nan,7.7,2.4,18.4,14.2,12.0,7.7,5.5,14.5,26.4,12.8,11.7,20.3,20.1,13.7
12100099999,KOLOBRZEG PL,54.18333,15.58333,5.0,nan,19.8,10.0,14.0,11.1,15.9,12.4,12.4,12.6,22.4,14.5,16.1,16.5,25.5,16.8
12120099999,LEBA PL,54.75000,17.53333,6.0,nan,21.9,13.8,15.9,19.0,18.3,19.5,17.1,26.6,25.8,31.2,31.4,30.6,18.8,11.6
12155099999,GDANSK SWIBNO PL,54.33333,18.93333,9.0,nan,nan,nan,nan,nan,nan,nan,nan,nan,nan,nan,nan,nan,17.1,11.6
12226099999,MIROSLAWIEC PL,53.39507,16.08281,150.9,nan,11.3,2.7,13.2,13.7,10.0,11.7,13.2,12.3,17.9,15.1,14.6,17.4,16.8,10.0
12312099999,BABIMOST PL,52.13852,15.79856,59.1,nan,nan,nan,nan,nan,7.3,nan,nan,11.0,25.2,20.6,18.4,18.7,16.9,8.8
12376799999,SZWEDEROWO PL,53.10000,17.98300,235.0,nan,16.6,nan,12.7,11.5,12.1,11.0,11.9,11.9,17.7,17.0,20.9,23.0,20.2,11.3
12469099999,SULEJOW PL,51.35000,19.86667,189.0,nan,15.8,8.1,17.8,16.1,12.5,13.8,14.4,16.1,24.9,20.2,18.5,20.2,19.9,11.9
12550099999,CZESTOCHOWA PL,50.81667,19.10000,295.0,nan,9.6,6.9,13.4,10.2,9.2,8.9,10.1,13.1,13.1,10.0,11.3,12.0,11.2,10.5
12650099999,KASPROWY WIERCH PL,49.23333,19.98333,1989.0,nan,26.5,13.5,29.2,40.3,35.2,16.9,29.6,47.8,38.3,34.3,26.2,31.0,30.2,29.8
12812099999,SZOMBATHELY AIRPORT VAS HU,47.28333,16.63333,223.1,nan,8.1,3.8,10.3,9.8,9.9,6.6,8.3,13.8,7.0,5.6,7.9,6.8,9.1,10.9
12851099999,KEKESTETO HU,47.86667,20.01667,1015.0,nan,11.5,11.2,19.9,25.3,16.3,12.7,16.7,24.5,22.4,20.5,20.9,21.2,20.0,17.5
12922099999,SARMELLEK HU,46.68333,17.16667,125.0,nan,6.9,5.4,12.2,9.8,14.1,6.2,9.6,11.3,8.1,6.7,8.4,10.2,11.6,14.1
13014599999,CERKLJE SI,45.89997,15.53019,155.4,nan,2.9,3.8,5.3,5.0,4.9,2.5,6.4,7.4,6.3,7.1,3.9,7.3,7.1,5.6
13262099999,LOZNICA RI,44.55000,19.23333,122.0,nan,1.6,1.5,5.4,5.4,3.5,1.6,0.5,4.4,5.0,4.0,5.1,5.9,7.2,9.2
13295099999,NEGOTIN RI,44.23333,22.55000,44.0,nan,10.2,1.9,8.7,3.1,6.2,7.5,2.8,4.3,11.2,7.8,9.6,10.0,12.4,14.4
13383099999,KRUSEVAC RI,43.56667,21.35000,167.0,nan,3.9,0.5,8.0,7.2,8.0,4.5,3.9,5.6,7.3,3.6,5.8,5.4,7.7,10.8
13462499999,PODGORICA TITOGRAD MJ,42.43333,19.28333,53.0,nan,14.0,3.8,17.2,8.1,7.9,17.6,4.9,5.1,10.9,4.5,7.0,15.1,10.8,15.9
13580099999,PRETOR PGC MK,40.98333,21.06667,910.0,nan,nan,nan,nan,nan,nan,nan,nan,nan,nan,5.4,9.8,11.6,9.3,10.8
13595099999,STRUMICA MK,41.43333,22.65000,224.0,nan,nan,nan,nan,nan,nan,nan,nan,nan,nan,nan,11.5,11.9,12.3,16.8
13623099999,SAZAN ISLAND AL,40.50000,19.28333,240.0,nan,nan,nan,nan,nan,nan,7.0,4.3,3.2,3.7,2.8,6.6,6.2,7.4,12.2
14015099999,LJUBLJANA BEZIGRAD SI,46.06667,14.51667,298.0,nan,4.3,3.5,6.4,4.8,3.3,2.4,5.3,6.8,6.2,4.2,4.7,5.4,4.6,3.9
14120099999,CRNOMELJ SI,45.56667,15.15000,157.0,nan,nan,nan,nan,nan,nan,nan,5.3,8.7,10.8,nan,4.0,6.0,4.0,3.1
14241099999,ZAGREB HR,45.74293,16.06878,107.6,nan,5.4,4.1,7.7,7.6,5.3,3.9,7.3,7.9,8.5,4.4,4.3,8.1,6.1,7.9
14307099999,PULA HR,44.89353,13.92219,83.5,nan,15.9,8.2,16.9,10.7,15.6,11.5,5.0,7.9,6.4,7.0,6.2,8.9,6.7,10.9
14428099999,ZADAR PUNTAMIKA HR,44.13333,15.21667,7.0,nan,5.1,6.4,6.5,23.9,17.6,8.1,9.9,17.8,8.8,8.7,7.0,10.3,6.8,11.5
14452099999,LASTOVO HR,42.76667,16.90000,187.0,nan,11.5,5.7,22.2,27.7,20.9,18.3,14.0,18.0,14.3,20.5,10.2,20.8,16.4,28.2
14549099999,ZENICA BK,44.21667,17.90000,348.0,nan,nan,1.9,4.9,7.4,5.0,2.7,2.8,5.2,5.1,3.8,4.1,5.0,3.9,5.8
15000199999,BOBOC AIR BASE RO,45.21000,26.97000,103.0,nan,nan,nan,18.3,16.2,16.4,14.8,13.7,8.1,nan,13.9,10.0,14.0,19.5,13.2
15033099999,IEZER RO,47.60000,24.65000,1786.0,nan,nan,nan,nan,nan,nan,nan,nan,nan,29.0,25.6,10.3,14.7,12.1,10.0
15085099999,BISTRITA RO,47.15000,24.51667,367.0,nan,nan,nan,nan,nan,nan,nan,nan,nan,5.0,4.0,3.5,4.8,5.1,6.2
15113099999,NEGRESTI RO,46.85000,27.45000,131.0,nan,nan,nan,nan,nan,nan,nan,nan,nan,11.5,nan,7.0,8.1,13.5,15.2
15143099999,TURDA RO,46.58333,23.78333,428.0,nan,nan,nan,nan,nan,nan,nan,nan,nan,nan,4.0,2.5,5.1,10.1,9.2
15170099999,MIERCUREA CIUC RO,46.36667,25.73333,662.0,nan,7.2,1.8,5.9,4.9,4.3,3.9,3.6,2.7,14.6,3.8,4.1,6.5,11.1,7.3
15206099999,TEBEA RO,46.16667,22.72611,264.0,nan,nan,nan,nan,nan,nan,nan,nan,nan,5.0,5.5,5.5,5.2,7.2,8.2
15245099999,JIMBOLIA RO,45.78333,20.70000,80.0,nan,nan,nan,nan,nan,nan,nan,nan,nan,14.4,12.6,11.5,12.2,15.7,17.7
15279099999,BALEA LAC RO,45.60000,24.61667,2038.0,nan,nan,nan,nan,nan,nan,nan,nan,nan,23.9,13.4,6.5,13.2,26.7,18.6
15302099999,PREDEAL RO,45.50000,25.58333,1093.0,nan,nan,nan,nan,nan,nan,nan,nan,nan,8.5,5.5,4.3,5.7,8.3,6.3
15325099999,SINAIA 1500 RO,45.35000,25.50000,1510.0,nan,nan,nan,nan,nan,nan,nan,nan,nan,8.8,8.6,6.4,6.4,6.8,7.5
15345099999,MORARESTI RO,45.00000,24.53333,550.0,nan,nan,nan,nan,nan,nan,nan,nan,nan,9.9,10.3,8.0,7.7,9.5,9.6
15375099999,TARGOVISTE RO,44.93333,25.43333,297.7,nan,nan,nan,nan,nan,nan,nan,nan,nan,8.8,8.2,6.6,7.7,7.1,6.7
15410099999,DROBETA TURNU SEVERIN RO,44.63333,22.63333,80.0,nan,7.4,4.8,8.7,5.3,5.2,4.3,4.2,4.8,14.1,8.9,12.1,10.1,10.8,14.6
15434099999,SLATINA RO,44.43333,24.35000,173.0,nan,nan,nan,nan,nan,nan,nan,nan,nan,10.3,5.7,5.7,5.8,7.3,5.6
15475099999,OLTENITA RO,44.06667,26.63333,16.0,nan,nan,nan,nan,nan,nan,nan,nan,nan,13.9,8.5,8.1,10.6,14.1,10.8
15498099999,ZIMNICEA RO,43.66667,25.35000,34.0,nan,nan,nan,nan,nan,nan,nan,nan,nan,14.4,7.2,8.5,9.8,12.3,10.5
15552099999,VARNA BU,43.23207,27.82511,70.1,nan,15.1,6.0,15.4,10.8,8.6,14.1,8.8,7.2,16.1,9.5,11.3,11.7,13.3,14.6
16008399999,RESIA PASS IT,46.83333,10.50000,1800.0,nan,8.7,5.0,10.8,10.2,12.5,10.4,8.2,9.7,nan,nan,10.0,12.3,10.4,9.4
16052099999,PIAN ROSA MTN TOP IT,45.93333,7.70000,3488.0,nan,nan,nan,32.3,nan,nan,nan,nan,nan,33.3,nan,nan,nan,nan,39.3
16076099999,BERGAMO ORIO AL SERIO IT,45.67389,9.70417,238.3,nan,6.6,7.7,5.1,4.3,5.4,7.8,4.4,9.0,4.9,4.5,7.3,7.2,5.0,9.5
16105099999,VENEZIA TESSERA IT,45.50514,12.35188,2.1,nan,11.1,6.3,11.7,8.9,10.4,3.8,2.5,6.9,6.1,5.5,8.9,8.7,6.4,9.6
16123099999,CHIAVARI IT,44.31667,9.33333,30.0,nan,13.8,9.6,nan,nan,nan,nan,nan,nan,nan,7.1,nan,nan,nan,9.5
16147099999,FORLI IT,44.19475,12.07009,29.6,nan,5.7,3.6,5.9,5.2,3.9,3.6,2.1,7.2,3.9,nan,3.2,0.0,0.6,nan
16179099999,FRONTONE IT,43.51667,12.73333,574.0,nan,6.9,nan,4.5,28.5,10.3,8.4,10.4,12.1,17.4,9.8,10.3,13.4,18.0,25.0
16216099999,VITERBO IT,42.43018,12.06416,301.8,nan,25.3,17.5,nan,23.1,22.6,nan,13.8,16.4,12.4,9.5,11.7,nan,nan,16.0
16239099999,CIAMPINO IT,41.79936,12.59494,130.1,nan,7.0,5.1,7.9,20.8,17.7,8.2,8.3,9.8,5.6,6.0,7.3,11.3,8.8,11.4
16259399999,MONTICHIARI IT,45.42889,10.33056,108.5,nan,7.2,6.0,10.9,9.8,10.8,6.8,6.3,12.4,6.6,6.2,6.1,6.8,6.9,11.5
16292399999,PONTECAGNANO IT,40.62040,14.91129,37.5,nan,nan,nan,13.3,8.3,8.8,17.6,7.3,5.9,6.0,3.1,7.3,15.9,10.1,13.2
16325099999,MARINA DI GINOSA IT,40.43333,16.88333,12.0,nan,15.3,14.1,17.7,19.2,19.2,20.3,9.9,12.8,8.1,11.7,13.2,14.5,11.8,17.2
16365099999,CATANZARO IT,38.90000,16.60000,358.0,nan,9.2,3.0,nan,nan,nan,nan,nan,nan,nan,10.6,14.1,11.5,13.4,13.8
16450099999,ENNA IT,37.56667,14.28333,965.0,nan,10.6,nan,9.6,12.8,10.1,10.5,5.9,11.3,2.9,5.4,8.0,11.2,8.1,11.4
16490099999,LAMPEDUSA IT,35.49791,12.61808,21.3,nan,14.1,20.1,18.4,19.5,15.4,30.4,23.4,33.0,16.7,11.7,18.9,30.8,18.7,31.0
16564099999,CAPE CARBONARA IT,39.10000,9.51667,118.0,nan,28.5,20.9,21.0,34.7,34.1,30.6,27.4,23.6,18.7,15.3,18.8,28.2,35.2,56.8
16627099999,DIMOKRITOS GR,40.85587,25.95626,7.3,nan,11.5,7.0,16.6,12.9,9.6,20.4,0.9,6.2,6.3,3.1,17.6,11.6,7.9,14.2
16667099999,MITILINI GR,39.05667,26.59833,18.3,nan,17.3,7.6,18.2,19.0,17.7,14.4,9.1,1.6,12.4,6.3,24.1,14.8,14.4,18.2
16713199999,NAFPLION GR,37.58300,22.76700,2.0,nan,nan,nan,nan,nan,nan,nan,nan,nan,nan,nan,10.3,7.4,6.4,5.7
16726499999,SYROS GR,37.42279,24.95094,71.9,nan,33.6,16.1,27.1,17.1,13.0,22.3,23.3,16.9,14.5,15.3,25.9,27.3,20.9,29.9
16749099999,DIAGORAS GR,36.40542,28.08619,5.8,nan,15.9,5.5,12.1,12.4,8.4,11.4,10.5,16.2,11.4,6.2,16.6,12.4,16.6,15.6
17026099999,SINOP TU,42.03333,35.16667,32.0,nan,18.5,7.4,10.6,11.5,6.2,11.4,9.8,7.5,10.4,7.1,9.3,7.3,9.3,9.8
17050099999,EDIRNE TU,41.66667,26.56667,51.0,nan,7.0,3.8,6.8,6.6,4.8,7.8,3.7,3.3,5.5,3.6,6.0,4.9,4.8,5.8
17067499999,ANTALYA GAZIPASA TU,36.30000,32.30000,28.0,nan,nan,nan,13.7,nan,6.9,9.8,6.5,7.7,8.7,8.4,9.7,9.1,10.8,9.7
17086099999,TOKAT TU,40.30000,36.56667,608.0,nan,5.4,5.1,6.4,5.9,5.0,9.1,5.0,3.4,5.4,3.7,7.8,5.9,5.2,10.7
17100099999,IGDIR TU,39.91667,44.05000,858.0,nan,nan,nan,nan,nan,nan,nan,nan,2.4,1.6,1.1,1.2,3.9,1.6,1.2
17124099999,ESKISEHIR TU,39.78414,30.58211,786.7,nan,11.7,7.3,10.2,9.9,13.0,11.0,7.6,7.8,8.3,8.2,4.8,8.9,5.7,9.7
17155099999,KUTAHYA TU,39.41667,29.96667,969.0,nan,6.2,3.1,4.8,5.1,3.1,6.2,2.5,3.0,4.6,3.0,4.3,3.4,3.5,3.7
17189099999,AFYONKARAHISAR TU,38.73000,30.60000,1012.0,nan,nan,nan,11.1,nan,nan,nan,nan,nan,nan,nan,nan,10.2,9.8,nan
17200699999,ANADOLU TU,39.80986,30.51938,788.8,nan,18.5,9.2,nan,nan,14.7,13.9,9.4,13.0,9.5,10.5,11.5,12.8,8.0,13.0
17220099999,IZMIR GUZELYALI TU,38.43333,27.16667,29.0,nan,nan,nan,8.4,13.8,12.4,9.7,6.6,6.2,9.4,5.0,10.7,9.9,9.2,9.8
17244099999,KONYA TU,37.97900,32.56186,1030.5,nan,nan,4.8,12.3,7.1,4.2,14.1,nan,nan,9.1,6.5,15.8,12.0,14.3,15.6
17275099999,MARDIN TU,37.30000,40.73333,1050.0,nan,nan,nan,nan,nan,9.5,11.9,14.4,8.2,9.6,9.3,13.7,15.7,14.2,19.7
17297099999,DATCA TU,36.70000,27.66667,28.0,nan,nan,nan,9.6,nan,21.9,nan,4.3,30.2,16.3,11.4,20.6,15.8,15.5,21.1
17355099999,OSMANIYE TU,37.10000,36.25000,94.0,nan,nan,nan,nan,nan,nan,5.3,3.5,7.2,5.7,3.6,15.4,6.2,4.7,2.9
17515099999,LEFKOSA CY,35.20000,33.35000,131.0,nan,15.7,1.9,6.5,4.6,2.7,5.5,4.1,6.1,5.2,2.5,5.2,6.9,5.3,4.2
20046099999,POLARGMO IM. E.T. KRENKELJA RS,80.61667,58.05000,22.0,nan,29.8,22.2,26.2,20.4,10.4,23.2,33.7,6.0,27.8,28.7,42.3,34.9,23.9,14.1
20871099999,SOPOCHNAYA KARGA RS,71.88333,82.70000,5.9,nan,nan,nan,nan,nan,nan,nan,30.2,24.6,19.5,25.6,23.5,23.6,34.9,18.1
21721099999,IM YU A HABAROVA RS,72.40000,126.35000,19.6,nan,nan,nan,nan,nan,nan,nan,25.4,28.6,41.3,43.8,27.1,41.9,46.4,11.2
21946099999,CHOKURDAH RS,70.61667,147.88333,61.0,nan,13.0,7.0,17.3,12.2,14.6,8.0,24.0,7.2,4.9,6.1,13.9,18.7,7.4,14.8
22165099999,KANIN NOS RS,68.65000,43.30000,49.0,nan,39.4,26.4,27.6,35.1,21.7,26.4,32.2,34.2,18.4,36.7,32.9,25.2,33.9,30.2
22324099999,UMBA RS,66.68333,34.35000,40.0,nan,17.6,16.2,14.2,15.7,8.1,15.0,8.8,12.1,8.1,10.9,14.8,7.8,7.4,7.8
22456099999,KEPINO RS,65.38333,41.88333,68.6,nan,nan,nan,nan,nan,nan,nan,3.3,6.4,3.5,6.0,7.7,4.4,4.7,4.5
22563099999,PINEGA RS,64.70000,43.38333,31.0,nan,14.6,11.6,10.7,7.2,4.5,7.7,6.2,10.8,5.3,8.0,11.7,7.5,7.4,7.5
22676099999,SURA RS,63.58333,45.63333,62.0,nan,15.6,11.6,11.4,11.8,5.4,8.7,5.3,13.1,6.6,9.5,14.8,9.6,6.1,8.7
22798099999,JARENSK RS,62.16667,49.11667,92.0,nan,nan,nan,nan,nan,nan,nan,2.8,8.4,6.3,7.7,9.1,6.5,6.0,5.4
22876099999,KRASNOBORSK RS,61.55000,45.93333,59.6,nan,nan,nan,nan,nan,nan,nan,5.2,12.5,9.2,9.1,13.6,8.9,7.1,6.0
22954099999,VOZEGA RS,60.46667,40.20000,202.0,nan,15.9,16.0,13.0,13.1,6.4,11.9,6.6,14.3,10.1,13.1,13.1,11.5,4.3,9.0
23174099999,POTAPOVO RS,68.66667,86.25000,41.0,nan,nan,nan,nan,nan,nan,nan,21.2,9.0,14.5,21.4,16.4,9.4,22.2,15.6
23324099999,PETRUN RS,66.43333,60.76667,62.0,nan,nan,nan,nan,11.6,13.9,11.3,17.3,13.3,8.5,9.8,nan,9.3,11.6,6.3
23426099999,MUZHI RS,65.48333,64.71667,19.0,nan,7.2,10.3,7.9,9.5,10.0,5.2,7.9,8.7,10.4,7.7,8.6,6.4,12.1,8.9
23527099999,SARAN PAUL RS,64.28333,60.88333,29.0,nan,nan,nan,nan,nan,nan,nan,6.7,7.7,6.0,3.9,7.4,6.9,7.6,4.2
23662099999,TOL KA RS,63.98333,82.08333,33.0,nan,nan,nan,nan,5.6,5.4,4.3,7.1,7.4,8.5,4.9,6.1,5.8,7.2,5.2
23758099999,RADUZHNY RS,62.15833,77.31250,78.0,nan,nan,nan,nan,nan,nan,nan,9.8,16.2,13.5,8.0,11.6,8.7,10.8,7.8
23849099999,SURGUT RS,61.34369,73.40184,61.0,nan,12.5,10.1,9.8,10.2,11.0,7.2,9.6,18.9,15.4,11.3,13.6,10.0,15.2,8.4
23939099999,ALTAY RS,60.33333,68.96667,32.3,nan,nan,nan,nan,nan,nan,nan,7.1,13.8,11.0,8.6,12.3,8.2,11.3,7.7
23992099999,UST KAMO RS,60.71667,97.51667,178.0,nan,nan,nan,nan,nan,nan,nan,1.0,4.4,4.6,nan,4.4,4.2,nan,nan
24322099999,POLIARNY RS,66.40043,112.03033,506.0,nan,9.6,10.1,nan,6.4,11.1,6.1,10.7,6.8,8.8,7.7,6.1,7.1,7.1,7.0
24507099999,TURA RS,64.26667,100.23333,168.0,nan,1.4,0.2,4.3,1.4,3.5,1.8,3.0,3.7,5.9,3.5,6.0,7.2,4.7,3.5
24644099999,VERHNEVILJUJSK RS,63.45000,120.31667,115.3,nan,nan,nan,nan,nan,nan,nan,5.9,2.9,5.5,4.7,6.7,5.3,7.8,5.5
24724099999,CHERNISHEVSKIJ RS,63.03333,112.48333,422.0,nan,15.0,13.1,14.9,11.7,12.9,9.0,15.7,12.6,12.7,14.1,13.9,9.7,14.7,13.3
24790099999,SUSUMAN RS,62.78333,148.16667,655.0,nan,nan,nan,nan,0.8,1.0,0.3,11.9,4.1,3.9,8.1,4.0,6.4,3.5,4.5
24908099999,VANAVARA RS,60.33333,102.26667,260.0,nan,3.7,4.9,6.1,3.5,3.5,1.1,4.0,6.9,6.1,5.0,9.2,4.6,5.6,3.5
24967099999,TEGYULTYA RS,60.46667,130.00000,171.0,nan,nan,nan,nan,0.5,1.7,0.6,3.6,2.8,1.5,nan,6.3,nan,3.7,4.4
25123099999,CHERSKIJ RS,68.75000,161.28333,28.0,nan,10.3,6.9,11.8,7.2,8.4,6.4,15.3,nan,nan,6.3,9.0,10.7,5.2,9.0
25378099999,EGVEKINOT RS,66.35000,-179.11667,26.0,nan,10.6,21.8,7.0,30.2,11.7,27.3,32.3,23.9,14.7,25.2,21.8,15.1,21.6,15.1
25627099999,LABAZNAYA RS,63.30000,158.50000,709.0,nan,nan,nan,nan,nan,nan,nan,11.0,nan,5.8,6.9,5.0,6.6,4.0,5.7
25904099999,MADAUN RS,60.60000,150.70000,521.9,nan,nan,nan,nan,nan,nan,nan,6.4,4.2,7.4,6.5,6.9,6.2,4.8,5.9
26038199999,PARNU EN,58.41700,24.46700,47.0,nan,14.5,21.4,12.6,15.2,10.4,20.6,14.6,24.5,10.3,19.7,22.1,16.8,11.3,8.1
26094099999,TIHVIN RS,59.65000,33.55000,61.0,nan,11.6,9.6,8.5,11.5,9.0,10.2,6.2,nan,7.0,10.2,9.1,8.6,7.0,4.9
26135099999,TURI EN,58.81667,25.41667,65.0,nan,10.1,10.7,6.8,9.1,6.8,11.3,10.1,13.0,7.5,11.6,12.5,8.4,7.5,6.4
26227099999,RUHNU EN,57.78333,23.25000,2.0,nan,20.9,26.8,14.7,24.0,18.3,25.7,25.4,31.0,20.7,27.1,23.7,18.7,13.5,10.4
26285099999,KRESTCY RS,58.26667,32.53333,63.0,nan,nan,nan,nan,nan,nan,nan,7.8,9.2,8.7,12.5,8.6,8.7,nan,nan
26348099999,GULBENE LG,57.13333,26.71667,143.0,nan,nan,nan,8.0,10.7,8.9,13.1,13.2,14.4,11.5,14.8,11.4,11.6,8.6,0.1
26422599999,RIGA LG,56.96667,24.05000,26.0,nan,15.2,16.5,13.2,14.3,10.3,15.2,15.3,21.7,12.2,14.4,17.3,12.9,11.1,9.5
26479099999,TOROPEC RS,56.48333,31.63333,187.0,nan,nan,nan,nan,nan,nan,nan,10.7,10.8,10.4,13.1,8.3,8.7,7.9,7.8
26547099999,DUKSTAS LH,55.51667,26.30000,168.0,nan,nan,nan,nan,nan,nan,nan,nan,nan,nan,nan,nan,nan,nan,8.3
26653099999,POLOTSK BO,55.46667,28.76667,133.0,nan,11.7,8.3,7.9,11.5,6.2,8.8,10.9,12.6,9.5,11.2,9.5,7.9,5.2,5.2
26763099999,ORSHA BO,54.50000,30.41667,185.0,nan,16.3,10.5,10.4,14.6,10.0,14.4,14.4,14.5,11.9,15.2,12.3,11.7,10.5,9.8
26878099999,SLAVGOROD BO,53.45000,31.01667,170.0,nan,18.4,9.4,9.0,13.5,8.9,14.2,11.1,13.7,15.6,18.1,12.5,11.8,9.9,7.8
26997099999,TRUBCHEVSK RS,52.58333,33.76667,178.0,nan,13.3,8.7,8.3,12.3,6.7,9.5,12.7,11.1,11.7,13.5,8.4,9.6,9.0,8.0
27199099999,KIROV RS,58.56667,49.56667,158.0,nan,7.5,10.7,7.0,11.6,8.5,8.2,6.3,9.0,9.7,8.9,9.5,8.3,9.1,6.1
27283099999,KOTEL NIC RS,58.30000,48.35000,127.0,nan,nan,nan,nan,nan,nan,nan,8.5,nan,12.6,11.2,11.8,9.0,11.3,7.8
27393099999,NOLINSK RS,57.55000,49.95000,136.0,nan,14.1,16.9,7.5,18.5,15.9,17.5,12.0,nan,15.9,12.2,18.3,13.2,11.9,8.5
27515599999,SHEREMETYEVO RS,55.97264,37.41459,189.6,nan,21.1,16.9,13.9,16.9,14.0,19.8,15.0,17.2,19.7,22.8,17.2,17.8,12.5,12.7
27611099999,NARO FOMINSK RS,55.38333,36.70000,193.0,nan,nan,nan,nan,nan,nan,nan,8.9,11.1,10.8,13.7,9.9,10.3,7.3,7.3
27703099999,KALUGA RS,54.55000,36.36667,198.8,nan,nan,nan,nan,nan,nan,nan,13.6,9.6,11.2,20.3,13.5,15.0,10.2,10.9
27799099999,DIMITROVGRAD RS,54.23333,49.60000,73.0,nan,nan,nan,nan,nan,nan,nan,11.1,7.9,9.2,9.3,7.1,7.4,10.3,nan
27906099999,OREL RS,52.93333,36.00000,196.0,nan,19.2,11.8,14.0,16.8,13.5,15.1,17.0,16.5,nan,9.5,8.4,8.0,6.9,9.1
27962299999,CHEBOKSARY RS,56.09027,47.34725,170.1,nan,nan,nan,11.4,19.1,16.9,20.1,14.9,19.3,18.8,17.2,20.9,16.4,16.9,11.2
28097099999,TAUROVO RS,59.58333,73.28333,60.3,nan,nan,nan,nan,nan,nan,nan,3.1,7.1,6.0,5.3,6.5,4.1,5.4,4.2
28319099999,NOZOVKA RS,57.08333,54.75000,131.0,nan,5.6,8.8,2.4,10.9,10.1,8.7,8.5,9.5,nan,8.6,8.8,6.2,8.1,7.3
28465099999,JALTUROVOSK RS,56.68333,66.35000,61.0,nan,11.5,12.3,4.9,9.6,11.3,13.1,12.2,16.8,15.6,11.3,13.0,8.6,10.8,11.2
28552099999,SADRINSK RS,56.06667,63.65000,89.0,nan,9.5,12.3,2.8,7.7,8.0,6.2,7.1,9.0,9.7,8.2,8.4,6.8,7.0,10.5
28687099999,BULAJEVO KZ,54.90000,70.45000,134.0,nan,nan,nan,nan,nan,nan,nan,nan,nan,nan,nan,nan,nan,11.2,12.1
28775199999,JAVLENKA KZ,54.40000,68.40000,115.0,nan,nan,nan,nan,nan,nan,nan,nan,nan,nan,nan,nan,nan,13.7,18.4
28867099999,SARYKOL KZ,53.31667,65.55000,216.0,nan,15.3,10.2,2.4,9.6,7.0,7.7,10.2,15.9,19.7,26.7,20.7,14.2,16.1,23.9
28978099999,BALKASINO KZ,52.53333,68.75000,398.0,nan,18.5,17.5,6.6,12.2,8.2,4.9,10.8,12.8,18.7,26.7,22.8,11.7,8.9,14.4
29209099999,MAJSK RS,57.80000,77.21667,99.0,nan,9.4,9.7,4.1,6.9,5.9,5.5,3.3,7.1,7.4,6.0,4.8,3.7,10.5,4.7
29348099999,PERVOMAJSKOE RS,57.06667,86.21667,114.0,nan,9.0,13.2,4.6,6.5,5.7,8.2,5.8,10.1,9.9,8.0,9.3,9.0,10.7,7.4
29464099999,BOL SOJ ULUJ RS,56.65000,90.55000,231.0,nan,nan,nan,nan,nan,nan,nan,9.3,13.6,15.4,10.4,13.4,13.1,9.8,10.0
29561099999,NAZAROVO RS,56.03333,90.31667,255.9,nan,nan,nan,nan,nan,nan,nan,3.9,8.2,8.0,7.7,8.8,8.0,7.8,6.9
29594099999,TAJSHET RS,55.95000,98.00000,307.0,nan,7.5,5.6,5.7,7.6,2.9,6.5,4.8,9.4,6.9,7.6,7.9,8.6,11.1,6.9
29653099999,UZUR RS,55.30000,89.81667,387.0,nan,9.3,9.2,6.7,6.8,8.2,7.5,8.8,9.4,10.7,9.6,9.8,8.2,9.6,7.5
29736099999,MASLJANINO RS,54.33333,84.21667,198.0,nan,8.5,16.7,2.2,7.1,5.4,6.4,4.8,7.9,11.7,15.8,11.0,11.0,12.4,13.8
29814099999,KARASUK RS,53.73333,78.01667,115.0,nan,17.6,18.5,5.4,13.3,12.2,11.6,10.6,10.7,18.4,19.5,14.6,14.2,13.2,12.0
29923099999,REBRIHA RS,53.06667,82.30000,219.0,nan,13.3,24.0,3.9,15.6,12.2,11.9,9.8,12.4,17.2,20.8,14.4,18.3,11.9,24.2
30127099999,TOKMA RS,58.23333,105.73333,438.8,nan,nan,nan,nan,nan,nan,nan,5.0,11.6,6.4,8.1,9.4,11.1,10.6,nan
30372099999,CHARA RS,56.90000,118.26667,711.0,nan,0.5,0.9,2.5,0.4,0.0,0.1,2.3,1.7,1.1,nan,nan,3.7,5.9,3.0
30521099999,ZHIGALOVO RS,54.80000,105.16667,418.0,nan,2.3,2.0,4.1,3.3,1.9,1.5,2.0,2.0,4.2,3.4,4.1,8.9,9.2,6.3
30650099999,ROMANOVKA RS,53.20000,112.78333,923.0,nan,2.2,2.7,4.7,2.6,3.1,1.3,4.8,7.2,11.9,3.5,7.7,7.7,9.0,3.5
30745099999,SOSNOVO OZERSKOE RS,52.53333,111.55000,952.0,nan,9.6,7.5,13.4,10.3,10.3,6.9,11.2,5.8,12.0,6.3,8.2,13.0,15.0,5.2
30838099999,PETROVSKIJ ZAVOD RS,51.31667,108.86667,806.0,nan,3.1,4.6,7.1,4.0,2.8,3.8,4.7,3.2,14.2,5.4,5.7,7.1,8.3,5.8
30965099999,BORZYA RS,50.40000,116.51667,676.0,nan,3.5,3.9,5.4,8.5,5.2,5.8,5.3,4.2,3.2,5.3,6.0,5.8,10.9,5.2
31087099999,UL YA RS,58.81667,141.85000,5.0,nan,nan,nan,nan,nan,nan,nan,37.7,24.8,30.5,28.9,37.5,27.0,25.8,43.0
31285099999,UDSKOE RS,54.50000,134.41667,62.0,nan,nan,nan,nan,3.1,4.6,2.7,3.7,3.0,4.1,3.7,4.0,4.6,5.2,7.5
31418099999,VESELAJA GORKA RS,52.28333,135.80000,201.0,nan,2.0,1.3,1.7,1.0,12.3,5.6,1.3,4.4,6.5,4.4,3.9,6.9,5.8,4.9
31527099999,ZAVITAJA RS,50.11667,129.46667,241.0,nan,3.6,1.6,3.6,2.2,8.4,4.7,6.3,3.8,4.7,7.2,5.6,8.3,9.5,4.2
31683099999,TUMNIN RS,49.65000,140.08333,58.0,nan,nan,nan,nan,1.1,4.1,8.2,1.4,5.7,7.1,7.8,3.5,8.8,7.6,3.5
31825099999,AGZU RS,47.60000,138.40000,165.0,nan,3.1,1.4,7.3,2.8,1.4,4.2,4.7,nan,9.4,5.8,3.5,7.8,6.7,5.0
31960099999,VLADIVOSTOK RS,43.11667,131.93333,183.0,nan,19.7,18.4,9.8,24.0,24.9,27.1,21.0,27.9,nan,19.0,29.6,21.3,21.8,20.1
32053099999,NOGLIKI RS,51.91667,143.13333,34.0,nan,10.4,8.0,13.3,11.9,23.1,21.2,14.4,14.1,17.7,14.9,9.2,15.2,13.5,10.7
32215099999,SEVERO KURIL SK RS,50.68333,156.13333,23.0,nan,10.6,9.5,20.0,8.0,17.5,21.8,23.5,15.0,nan,19.0,13.5,15.4,16.8,16.9
32562099999,BOL SHERETZK RS,52.83333,156.30000,30.0,nan,nan,nan,nan,nan,nan,nan,21.9,10.8,10.7,16.4,11.8,16.6,15.0,14.7
33036099999,MOZYR BO,52.03639,29.16667,190.0,nan,10.6,6.2,7.8,11.1,7.5,8.8,9.1,9.8,10.8,9.6,7.8,5.7,7.0,7.3
33301299999,MYKOLAIV UP,47.05000,31.91700,58.0,nan,17.4,9.8,11.4,14.4,15.3,13.8,10.3,12.6,19.0,12.8,7.9,17.4,19.7,17.8
33466099999,MYRONIVKA UP,49.66667,31.00000,153.0,nan,13.3,7.3,8.8,11.5,9.6,10.5,7.7,11.9,14.9,14.0,10.2,12.9,13.4,10.0
33679099999,CAMENCA MD,48.03333,28.70000,154.0,nan,nan,nan,nan,nan,nan,nan,nan,nan,nan,nan,6.7,12.1,10.2,11.0
33815099999,CHISINAU MD,47.01667,28.98333,173.0,nan,8.4,3.6,11.8,10.7,9.2,9.3,7.2,11.9,13.5,10.5,8.9,12.0,15.9,16.8
33902099999,KHERSON UP,46.63333,32.56667,54.0,nan,12.4,8.7,10.4,9.1,7.7,11.1,7.3,7.9,13.5,10.6,8.6,15.2,17.3,15.8
34072099999,KARABULAK RS,52.33333,46.36667,302.0,nan,nan,nan,nan,nan,nan,nan,16.2,17.7,19.7,24.3,11.2,16.8,13.5,13.5
34163099999,OKTJABR SKIJ GORODOK RS,51.63333,45.45000,201.0,nan,nan,nan,nan,10.4,9.2,13.5,12.7,13.7,16.2,19.6,12.2,15.1,12.2,9.4
34254099999,NOVOANNENSKIJ RS,50.53333,42.68333,98.0,nan,nan,nan,nan,nan,nan,nan,12.0,9.4,10.2,12.6,8.3,7.6,7.9,6.6
34363099999,KAMYSIN RS,50.06667,45.36667,119.0,nan,22.8,19.4,21.5,16.8,14.9,16.9,23.8,19.3,22.0,27.9,15.5,20.2,15.7,12.4
34476099999,EL TON RS,49.13333,46.85000,6.0,nan,nan,nan,nan,nan,nan,nan,16.8,nan,21.3,27.1,15.1,19.5,15.6,13.1
34646099999,CIMLJANSK RS,47.63333,42.11667,65.0,nan,nan,nan,nan,nan,nan,nan,10.7,13.5,14.6,20.2,7.4,11.0,13.4,11.8
34772099999,YUSTA RS,47.13333,46.31667,2.6,nan,nan,nan,nan,nan,nan,nan,12.3,13.3,18.7,nan,nan,nan,12.7,10.3
34880099999,ASTRAHAN RS,46.28333,47.98333,-21.6,nan,14.5,12.4,10.7,10.0,7.9,10.7,9.6,9.6,11.3,15.9,8.7,8.1,7.7,7.0
35011099999,SOROCHINSK RS,52.43333,53.13333,123.0,nan,nan,nan,nan,9.3,9.7,11.4,11.8,10.5,14.6,13.3,9.8,11.2,11.1,7.8
35108099999,URALSK KZ,51.15083,51.54306,38.1,nan,11.4,12.6,9.2,15.0,13.4,15.1,21.1,16.4,20.0,21.7,17.5,18.8,21.5,15.8
35229099999,AKTYUBINSK KZ,50.24583,57.20667,224.9,nan,21.5,19.1,8.2,11.0,15.8,15.5,17.8,17.7,21.8,25.5,13.2,17.9,14.2,15.2
35357099999,BARSHINO KZ,49.68333,69.51667,349.0,nan,nan,nan,6.0,13.0,15.5,9.2,15.4,14.5,18.1,22.3,12.6,13.0,7.8,16.6
35426099999,TEMIR KZ,49.15000,57.11667,234.0,nan,14.0,11.1,8.6,6.5,8.2,12.2,9.1,12.1,13.6,16.6,9.4,16.2,9.1,12.0
35615099999,MAKAT KZ,47.63333,53.31667,-22.0,nan,nan,nan,nan,nan,nan,nan,nan,nan,22.4,16.4,17.1,14.4,23.0,23.2
35796099999,BALHASH KZ,46.80000,75.08333,350.0,nan,9.6,19.7,11.9,13.5,16.7,14.6,19.7,14.0,16.7,23.9,14.8,18.4,21.0,16.4
36015099999,LEBJAZJE KZ,51.48300,77.76700,144.0,nan,nan,nan,nan,nan,nan,nan,nan,nan,nan,nan,nan,nan,9.6,21.1
36083099999,UST USA RS,52.05000,92.16667,576.9,nan,nan,nan,nan,nan,nan,nan,8.4,5.8,nan,3.5,3.0,5.1,7.3,6.4
36197099999,TAVRIA KZ,50.16667,82.03333,270.0,nan,nan,nan,nan,nan,nan,nan,nan,nan,14.7,nan,15.5,nan,6.1,20.2
36418099999,SAMARSKOE KZ,49.03300,83.38300,524.0,nan,nan,nan,nan,nan,nan,nan,nan,nan,nan,nan,nan,nan,8.1,8.1
36665099999,ZAJSAN KZ,47.46700,84.91700,603.0,nan,nan,nan,nan,nan,nan,nan,nan,nan,nan,nan,nan,nan,9.8,8.5
36819099999,AYDARLI KZ,44.13300,75.85000,499.0,nan,nan,nan,nan,nan,nan,nan,nan,nan,nan,nan,nan,nan,3.5,8.7
36870099999,ALMATY KZ,43.23333,76.93333,851.0,nan,nan,nan,8.1,nan,nan,0.8,1.5,3.8,4.5,4.9,4.4,nan,3.5,3.5
36911099999,TOKMAK KG,42.83333,75.28333,817.0,nan,2.4,2.6,3.2,4.1,2.4,2.6,13.9,7.0,6.7,7.6,8.1,9.5,5.9,9.5
37054099999,MINERALNYYE VODY RS,44.22507,43.08189,321.2,nan,13.1,18.5,17.0,15.9,4.8,17.8,7.5,16.0,17.0,28.4,8.3,17.9,15.5,12.9
37193099999,TEBERDA RS,43.45000,41.73333,1325.0,nan,nan,nan,nan,nan,nan,nan,4.1,5.0,10.9,6.7,4.4,10.6,8.3,5.4
37463099999,GUNIB RS,42.40000,46.96667,1399.0,nan,nan,nan,nan,nan,nan,nan,1.7,2.1,4.7,6.7,4.3,7.2,6.3,5.5
37609099999,ASHOTSK AM,41.02944,43.87639,2015.0,nan,nan,nan,nan,nan,nan,nan,nan,nan,9.8,23.4,nan,16.1,nan,nan
37735299999,UYTASH RS,42.81682,47.65229,3.6,nan,19.6,23.6,18.0,12.1,10.5,11.8,17.3,15.1,15.9,20.2,12.6,19.4,16.0,14.4
37863099999,GYANDZHA AJ,40.73300,46.40000,330.0,nan,13.7,11.2,8.4,8.7,8.7,8.3,8.7,8.5,12.7,15.0,6.0,18.1,10.6,8.4
38008099999,TUSHCHIBEK KZ,44.15000,51.95000,240.0,nan,nan,nan,nan,nan,nan,nan,nan,nan,nan,nan,nan,nan,12.1,15.0
38141299999,TURKMENBASHI TX,40.06333,53.00722,85.0,nan,16.3,17.0,12.8,9.8,5.6,13.8,19.4,14.3,17.8,16.7,10.9,16.4,17.8,14.4
38202199999,BAIKADAM KZ,43.80000,69.90000,336.0,nan,nan,nan,nan,nan,nan,nan,nan,nan,nan,nan,nan,nan,11.2,10.6
38313099999,BUGUN KZ,43.71667,69.00000,405.0,nan,nan,nan,nan,nan,nan,nan,nan,nan,7.0,14.3,9.0,5.5,7.3,10.6
38353099999,BISHKEK KG,42.85000,74.53333,760.0,nan,3.7,4.0,3.5,3.7,3.1,3.1,4.7,5.3,5.0,4.7,5.2,5.4,3.6,4.7
38452099999,KARATAS KZ,41.86700,69.43300,637.0,nan,nan,nan,nan,nan,nan,nan,nan,nan,nan,nan,nan,nan,6.7,9.8
38567099999,NAVOI UZ,40.13333,65.35000,341.0,nan,nan,nan,10.4,9.3,11.1,10.6,16.0,11.8,13.2,19.4,12.7,15.4,13.6,18.3
38647099999,GAZANDZHYK TX,39.25000,55.51667,31.0,nan,9.0,18.6,22.3,20.1,20.6,18.4,20.8,10.7,13.5,13.9,13.4,14.3,14.2,15.7
38725099999,MADRUSHKAT TI,39.43333,69.66667,2234.0,nan,0.0,nan,5.1,2.1,2.0,1.7,4.8,13.1,15.8,14.0,11.9,13.4,9.3,12.0
38838099999,ISAMBAJ TI,38.05000,68.35000,563.0,nan,4.8,5.6,9.2,4.1,3.7,4.8,5.0,nan,14.6,9.1,10.8,13.9,8.5,9.9
38880099999,ASHGABAT TX,37.98681,58.36097,210.9,nan,8.0,8.6,8.4,4.7,8.1,12.0,9.7,9.8,7.9,7.8,8.8,11.7,9.5,8.4
38944099999,PARKHAR TI,37.48333,69.38333,448.0,nan,2.8,nan,4.5,5.3,4.1,3.9,4.8,7.2,8.4,8.6,9.7,11.3,4.3,4.8
40016099999,HASSAKAH SY,36.50000,40.75000,308.0,nan,nan,1.8,nan,0.7,5.5,6.3,3.9,nan,nan,nan,nan,nan,nan,nan
40153099999,HAR KNAAN ZEFAT IS,32.96667,35.50000,934.0,nan,18.9,13.9,20.4,11.6,19.1,20.2,17.3,24.9,18.7,14.6,17.8,21.4,16.8,28.0
40199099999,EILAT IS,29.56128,34.96008,12.8,nan,13.1,17.1,14.6,18.6,19.9,13.3,11.3,19.5,16.4,18.6,12.6,11.9,17.6,7.1
40356099999,TURAIF SA,31.69268,38.73120,854.4,nan,13.1,8.3,12.0,12.1,11.7,11.3,14.6,16.4,14.7,8.3,15.2,11.2,11.3,16.1
40405099999,GASSIM SA,26.30000,43.76667,648.0,nan,10.0,9.4,12.6,4.8,5.6,8.4,10.8,9.1,11.3,11.7,12.3,10.0,11.1,7.8
40439099999,YENBO SA,24.14424,38.06335,7.9,nan,12.1,11.0,13.4,8.4,10.9,8.4,11.9,12.1,13.8,12.4,10.4,9.8,7.7,9.9
40582099999,KUWAIT INTERNATIONAL KU,29.22657,47.96893,62.8,nan,11.8,14.1,18.4,8.1,13.6,14.6,13.7,9.8,12.6,14.0,11.4,12.8,13.9,11.3
40621099999,KIRKUK AB IZ,35.46948,44.34893,323.4,nan,11.8,5.9,nan,4.4,5.3,7.0,3.7,6.8,6.7,5.2,6.2,7.1,6.3,7.8
40637099999,KHANAQIN IZ,34.35000,45.38333,202.0,nan,nan,nan,nan,1.4,nan,7.2,3.0,6.5,10.0,nan,nan,11.2,8.3,8.2
40656099999,KERBELA IZ,32.56667,44.05000,29.0,nan,nan,nan,nan,8.2,8.7,7.0,8.6,12.8,10.6,10.2,6.8,14.0,13.0,18.7
40674099999,SAMAWA IZ,31.26667,45.26667,6.0,nan,nan,nan,nan,nan,8.0,14.5,12.2,9.9,13.2,12.3,11.3,12.8,17.1,13.5
40703699999,LAMERD IR,27.37274,53.18879,409.9,nan,nan,nan,nan,nan,7.3,5.2,8.7,7.0,2.2,6.4,3.8,2.3,5.1,1.7
40718099999,ANZALI IR,37.46667,49.46667,-26.0,nan,13.7,8.8,13.6,10.0,7.1,8.4,12.7,10.9,12.5,10.4,11.2,14.8,9.0,7.4
40735099999,GONBAD GHABUS IR,37.25000,55.10000,32.6,nan,8.6,7.3,nan,5.3,4.7,3.5,4.3,5.1,nan,6.1,nan,7.0,6.9,nan
40757099999,SEMNAN IR,35.59109,53.49509,1117.1,nan,2.8,1.4,0.0,2.1,4.8,4.0,5.0,4.2,4.8,4.4,4.3,4.6,4.5,4.5
40780699999,HAMADAN IR,34.86700,48.55000,1801.0,nan,3.7,2.9,nan,5.6,1.8,7.0,7.2,1.0,4.9,3.1,8.6,12.0,6.3,7.5
40785099999,KASHAN IR,33.89533,51.57704,1056.1,nan,0.8,1.6,0.4,1.4,1.7,1.6,2.7,2.0,nan,2.3,10.7,4.6,0.7,5.4
40818099999,ABADEH IR,31.18333,52.66667,2004.0,nan,4.2,5.0,8.1,5.4,8.0,6.9,9.9,9.1,nan,6.0,15.3,14.4,9.4,10.4
40835499999,MINAB IR,27.12000,57.10000,27.0,nan,2.9,12.2,nan,2.5,7.3,5.2,1.4,17.1,nan,10.8,nan,4.4,4.6,nan
40853099999,BAFT IR,29.23333,56.56667,2280.0,nan,4.5,7.7,10.8,4.9,8.4,10.5,12.9,16.3,14.7,14.0,15.8,17.1,14.3,11.2
40883099999,BANDAR LENGEH IR,26.53200,54.82485,20.4,nan,13.0,16.4,12.2,14.1,12.5,13.8,8.5,18.3,14.1,15.5,11.7,7.2,10.3,8.0
41024099999,KING ABDULAZIZ INTERNATIONAL SA,21.67956,39.15654,14.6,nan,13.2,10.3,17.6,6.7,8.2,11.6,16.4,14.1,12.3,16.3,13.1,11.8,12.1,13.4
41136099999,SHARURAH SA,17.46688,47.12143,720.2,nan,12.3,13.9,6.7,14.7,8.0,5.7,12.5,14.6,12.7,14.7,14.3,8.3,13.8,11.6
41176099999,UMM SAID QA,24.95000,51.56667,5.0,nan,nan,nan,nan,nan,nan,nan,14.3,12.6,14.6,nan,nan,nan,6.8,11.4
41216399999,DELMA AE,24.50994,52.33522,25.0,nan,nan,nan,nan,14.8,nan,19.6,11.5,15.1,nan,nan,nan,nan,nan,nan
41250099999,SUNAYNAH MU,23.71667,55.90000,257.0,nan,nan,nan,nan,nan,nan,nan,nan,13.1,13.8,15.0,11.0,14.1,14.3,nan
41263099999,BAHLA MU,22.91222,57.25722,592.0,nan,4.8,5.7,3.8,5.6,5.4,4.6,6.2,9.6,10.1,7.8,5.8,7.1,7.7,nan
41276099999,UMZAMAIM MU,20.80000,57.11667,126.0,nan,nan,nan,nan,nan,nan,nan,nan,17.8,13.9,12.8,11.2,9.7,14.2,nan
41304099999,MARMUL MU,18.13333,55.18333,273.0,nan,14.2,nan,9.6,12.0,nan,nan,nan,nan,1.8,13.4,10.8,10.7,11.2,nan
41518099999,BUNJI PK,35.66667,74.63333,1470.0,nan,nan,nan,nan,nan,nan,nan,nan,nan,nan,nan,nan,nan,nan,nan
41536099999,BALAKOT PK,34.38333,73.35000,981.0,nan,2.0,3.2,1.1,0.5,0.4,1.0,0.8,1.3,0.7,0.8,0.5,1.4,0.1,0.2
41600099999,SIALKOT PK,32.50000,74.53333,256.0,nan,1.3,0.9,0.8,0.7,0.0,0.6,0.4,0.7,0.2,0.1,0.1,0.8,0.2,0.2
41685099999,BAR KHAN PK,29.88333,69.71667,1098.0,nan,1.0,3.9,2.7,2.0,1.6,1.4,1.7,1.8,0.7,0.9,0.7,1.5,1.7,1.3
41739099999,PANJGUR PK,26.95455,64.13252,1002.5,nan,7.7,9.9,5.3,5.8,9.5,8.3,10.1,18.5,13.5,11.3,14.3,9.7,12.9,9.8
41785099999,BADIN PK,24.63333,68.90000,11.0,nan,6.5,3.4,3.3,1.8,3.9,2.6,2.2,3.0,1.8,1.9,2.2,2.5,1.6,3.1
41907099999,ISHURDI BG,24.15250,89.04945,13.7,nan,1.2,nan,2.6,1.6,1.9,nan,1.9,2.4,1.2,2.2,1.9,1.4,nan,1.9
41941099999,CHANDPUR BG,23.26667,90.70000,7.0,nan,nan,nan,nan,nan,nan,2.5,2.5,1.2,0.7,0.7,1.2,2.5,nan,4.2
41964099999,SANDWIP BG,22.48333,91.43333,6.0,nan,nan,nan,nan,nan,nan,nan,2.1,0.3,1.4,1.4,0.6,0.1,nan,0.8
42045099999,BANIHAL IN,33.50000,75.16667,1630.0,nan,nan,nan,nan,nan,nan,nan,nan,nan,nan,2.7,2.7,4.5,1.4,3.5
42105099999,CHANDIGARH IAFB IN,30.73333,76.88333,347.0,nan,nan,nan,nan,nan,nan,nan,nan,nan,nan,3.0,1.5,1.7,1.2,2.4
42181099999,INDIRA GANDHI INTERNATIONAL IN,28.56650,77.10309,236.8,nan,6.7,11.0,5.6,5.2,5.1,4.5,6.4,7.9,7.1,7.1,7.4,6.4,5.1,8.2
42328099999,JAISALMER IN,26.90000,70.91667,231.0,nan,9.8,4.3,3.3,4.3,7.2,6.2,4.0,4.2,3.0,2.9,3.6,1.9,4.3,6.1
42403099999,COOCH BEHAR IN,26.33333,89.46667,43.0,nan,nan,nan,nan,nan,nan,nan,nan,nan,nan,nan,nan,nan,nan,2.6
42488099999,CHAPRA IN,25.78333,84.73333,58.0,nan,nan,nan,nan,nan,nan,nan,nan,nan,nan,nan,nan,nan,nan,nan
42559099999,GUNA IN,24.65000,77.31667,478.0,nan,1.1,1.2,0.7,1.8,0.9,1.8,1.1,nan,0.9,0.6,1.0,0.7,1.4,2.7
42647099999,AHMEDABAD IN,23.07724,72.63465,57.6,nan,7.6,3.3,5.5,11.0,3.4,4.1,9.2,6.3,6.4,7.0,3.6,6.6,4.4,9.4
42705699999,BANGALURU INTERNATIONAL AIRPORT IN,13.20000,77.70000,915.0,nan,nan,nan,6.5,10.6,6.1,6.9,8.5,nan,7.5,8.2,5.3,9.4,8.8,10.7
42763099999,HOSHANGABAD IN,22.76667,77.76667,302.0,nan,nan,nan,nan,nan,nan,nan,nan,nan,nan,3.1,0.5,3.6,2.7,2.4
42838099999,BHAUNAGAR IN,21.75000,72.20000,5.0,nan,nan,nan,nan,nan,nan,nan,nan,nan,nan,11.3,10.0,4.5,9.4,11.6
42895099999,BALASORE IN,21.51667,86.93333,20.0,nan,2.5,1.9,3.1,2.4,1.7,2.7,3.2,1.8,2.5,3.5,1.3,2.5,2.2,2.5
42946099999,BRAMHAPURI IN,20.60000,79.85000,229.0,nan,nan,nan,nan,nan,nan,nan,nan,nan,nan,nan,nan,0.0,0.0,nan
43029099999,CHANDRAPUR IN,19.96667,79.30000,193.0,nan,nan,nan,nan,nan,nan,nan,nan,nan,nan,nan,nan,4.4,4.8,4.3
43110099999,RATNAGIRI IN,16.98333,73.33333,67.0,nan,7.1,2.7,4.3,6.8,4.4,4.5,5.4,4.0,3.0,8.6,3.6,5.3,4.5,2.6
43181099999,VIJAYAWADA IN,16.53043,80.79685,25.0,nan,nan,nan,nan,3.1,0.0,3.1,0.7,2.2,5.1,5.7,5.6,3.8,2.2,5.0
43201199999,HUBLI IN,15.35000,75.08333,661.3,nan,nan,nan,nan,nan,nan,nan,nan,nan,nan,nan,nan,12.1,6.9,7.7
43257099999,AGUMBE EMO IN,13.50000,75.08333,659.0,nan,nan,nan,nan,nan,nan,nan,nan,nan,nan,3.9,4.1,nan,nan,1.5
43314099999,KOZHIKODE IN,11.25000,75.78333,5.0,nan,4.1,4.9,3.7,3.1,3.3,3.2,2.4,3.2,2.4,1.5,1.9,2.6,0.4,0.2
43348099999,ATIRAMAPATTINAM IN,10.33333,79.38333,6.0,nan,nan,nan,nan,nan,nan,nan,nan,nan,nan,3.6,3.6,3.3,4.4,5.0
43399099999,PARO BT,27.40319,89.42461,2234.8,nan,nan,nan,nan,nan,5.4,nan,nan,4.2,6.6,9.7,12.1,7.5,9.9,11.9
43444099999,KANDY CE,7.33333,80.63333,477.0,nan,nan,0.6,2.0,2.9,2.1,1.4,1.2,2.6,0.7,2.9,1.3,2.3,1.3,1.0
43497099999,HAMBANTOTA CE,6.11667,81.13333,20.0,nan,15.8,nan,13.5,12.3,7.3,9.4,8.9,14.5,7.6,10.6,5.8,11.3,7.7,8.7
44213099999,BARUUNTURUUN MG,49.65000,94.40000,1232.0,nan,3.0,5.3,0.0,1.4,0.4,0.1,1.1,nan,nan,nan,4.4,5.4,9.1,nan
44229099999,TARIAT MG,48.08333,99.55000,2041.0,nan,5.4,5.9,8.2,10.1,7.4,11.7,9.8,10.3,9.9,12.6,9.0,8.6,10.3,9.2
44256099999,DASHBALBAR MG,49.55000,114.40000,705.0,nan,9.2,3.3,14.1,13.2,14.8,2.7,10.4,17.7,14.8,9.2,16.7,12.2,22.5,8.1
44285099999,HUJIRT MG,46.90000,102.76667,1662.0,nan,2.3,3.9,2.7,8.2,0.3,7.0,7.0,7.6,7.9,6.9,9.8,8.1,15.7,5.4
44305099999,BARUUN URT MG,46.68333,113.28333,981.0,nan,9.9,6.8,13.1,12.2,11.6,11.8,14.2,11.4,13.4,12.3,12.5,10.4,17.5,11.5
44348099999,BAYAN DOBO SUMA MG,44.56667,107.18333,1093.0,nan,9.8,16.4,21.8,27.1,17.1,16.7,19.4,18.3,19.0,22.8,15.9,18.1,26.3,27.3
44409099999,DHANGADHI ATARIYA NP,28.80000,80.55000,187.0,nan,nan,nan,nan,nan,nan,nan,0.0,0.5,0.1,0.9,0.5,0.2,0.3,0.9
44474099999,TAPLEJUNG NP,27.35000,87.66667,1732.0,nan,nan,nan,nan,nan,nan,nan,2.2,2.2,1.1,0.3,0.6,0.0,0.8,1.2
46686099999,CHIANG KAI SHEK INTERNATIONAL TW,25.07773,121.23282,32.6,nan,25.8,26.4,28.0,20.6,24.4,23.6,27.3,32.9,30.2,20.4,26.4,27.2,26.7,19.1
47016099999,HYESAN KN,41.40000,128.16667,714.0,nan,0.8,0.8,3.2,0.7,3.5,2.1,1.8,5.0,nan,nan,4.2,6.5,3.9,3.4
47039099999,HUICHON KN,40.16667,126.25000,155.0,nan,1.4,0.1,0.2,0.3,1.1,1.4,1.1,9.8,nan,9.1,nan,1.7,1.8,0.0
47067099999,SINGYE KN,38.50000,126.53333,97.0,nan,4.9,0.0,5.1,1.4,6.5,5.4,2.6,11.9,5.7,9.2,10.7,8.1,14.1,9.4
47098099999,DONGDUCHEON KS,37.90000,127.06667,112.0,nan,4.4,3.0,6.1,4.7,6.2,6.6,5.6,4.7,5.3,4.3,6.4,5.8,6.6,3.5
47107099999,GANGNEUNG KS,37.75356,128.94362,10.7,nan,nan,nan,nan,nan,nan,nan,nan,nan,nan,nan,nan,nan,nan,11.0
47112099999,INCHEON KS,37.46667,126.63333,70.0,nan,9.9,8.3,13.5,11.3,14.3,15.7,14.0,10.4,12.0,12.4,14.5,12.8,13.9,10.9
47122399999,KOTAR RANGE KS,37.10000,128.90000,792.0,nan,nan,nan,nan,nan,nan,nan,nan,nan,nan,nan,nan,nan,nan,6.5
47134099999,YECHEON KS,36.63193,128.35485,107.9,nan,nan,nan,nan,nan,nan,nan,nan,nan,nan,nan,nan,nan,nan,4.9
47145099999,CHEONAN KS,36.76250,127.29278,81.5,nan,nan,nan,nan,6.5,8.2,8.7,8.0,5.8,5.9,6.1,5.8,4.9,5.0,3.1
47159099999,BUSAN KS,35.10000,129.03333,71.0,nan,9.4,13.4,13.8,10.6,13.0,12.9,11.3,12.6,10.5,10.7,12.8,11.8,9.2,7.3
47172099999,GOCHANG KS,35.34889,126.59889,55.0,nan,nan,nan,nan,5.0,7.8,8.2,8.0,5.3,6.1,5.4,9.6,6.2,6.7,5.2
47189099999,SEOGWIPO KS,33.25000,126.56667,51.0,nan,10.5,13.4,5.7,8.8,10.4,6.9,8.4,6.8,7.5,5.0,8.7,6.7,5.2,6.2
47412099999,SAPPORO JA,43.06667,141.33333,26.2,nan,10.1,10.1,16.6,9.7,10.9,14.0,12.9,10.7,9.2,11.2,10.4,12.5,8.6,9.2
47428099999,ESASHI JA,41.86667,140.11667,12.1,nan,18.7,14.1,31.9,25.2,31.5,32.4,29.7,24.1,35.4,26.3,19.1,34.1,28.7,19.0
47479099999,SAPPORO JA,43.11614,141.38022,7.6,nan,13.3,12.4,22.5,12.5,13.8,14.6,15.3,10.3,14.4,16.1,12.6,15.1,13.2,11.9
47542099999,AOMORI JA,40.73472,140.69083,202.4,nan,13.4,9.7,19.6,15.4,21.7,23.8,17.0,17.2,23.4,14.3,15.2,24.8,19.1,11.9
47576099999,MUTSU JA,41.28333,141.21667,4.8,nan,8.3,5.7,12.7,7.7,16.8,12.3,11.5,10.1,11.2,10.0,10.2,12.3,10.0,8.1
47590099999,SENDAI JA,38.26667,140.90000,43.8,nan,13.1,11.0,13.5,11.5,15.8,13.6,15.7,10.5,11.8,12.2,13.0,12.2,10.8,12.6
47606099999,FUSHIKI JA,36.80000,137.05000,13.1,nan,7.4,8.7,10.3,7.7,11.6,8.3,10.1,8.2,8.7,7.9,9.1,10.0,8.2,8.9
47624099999,MAEBASHI JA,36.40000,139.06667,114.4,nan,11.3,9.2,11.0,11.0,12.8,10.0,13.0,10.8,12.9,11.5,10.3,10.8,9.0,7.7
47638099999,KOFU JA,35.66667,138.55000,281.5,nan,6.5,5.6,11.8,5.1,9.0,9.0,9.8,8.8,7.9,7.9,8.1,10.3,8.6,6.7
47653099999,IRAKO JA,34.63333,137.10000,7.7,nan,13.7,10.1,15.9,11.8,21.1,19.4,18.2,18.4,16.3,13.9,13.8,16.7,14.2,14.5
47668099999,AJIRO JA,35.05000,139.10000,67.9,nan,13.4,11.8,18.2,7.9,24.1,9.7,10.6,6.7,12.0,12.0,14.7,13.5,8.4,9.7
47678099999,HACHIJOJIMA JA,33.11667,139.78333,152.6,nan,20.3,23.2,18.2,14.7,25.8,18.2,18.8,16.7,19.6,15.6,18.3,19.6,14.4,14.8
47690099999,NIKKO JA,36.73333,139.50000,1294.0,nan,17.4,10.9,21.7,12.0,23.2,18.6,18.3,12.1,21.8,19.5,18.0,21.0,15.1,11.5
47741099999,MATSUE JA,35.45000,133.06667,22.4,nan,10.4,10.5,16.9,9.0,25.1,16.7,14.5,9.0,15.3,9.2,14.3,17.3,9.1,8.9
47756099999,TSUYAMA JA,35.06667,134.01667,147.8,nan,5.5,5.3,8.0,5.8,10.3,11.7,9.2,8.3,8.5,6.5,7.9,8.9,7.7,5.7
47770099999,KOBE JA,34.70000,135.21667,30.6,nan,12.2,16.1,13.9,10.2,17.5,15.8,16.6,11.5,13.4,13.7,16.9,14.7,11.6,11.5
47783099999,IWAMI JA,34.67639,131.79028,56.1,nan,10.6,9.6,19.2,14.0,20.7,21.9,18.2,14.6,15.8,11.6,18.8,18.8,11.8,11.9
47800099999,IZUHARA JA,34.19778,129.29194,3.6,nan,9.8,11.3,11.5,8.9,12.9,13.8,13.5,12.7,9.8,8.7,13.3,13.2,10.7,9.6
47814099999,HITA JA,33.31667,130.93333,84.4,nan,6.4,7.8,6.8,4.9,7.5,6.8,6.7,6.5,6.2,4.8,9.4,7.3,5.3,5.7
47830099999,MIYAZAKI JA,31.93333,131.41667,15.0,nan,11.8,10.5,14.4,10.9,14.3,12.6,12.5,12.2,11.4,10.6,14.4,14.0,8.9,10.4
47851099999,KAGOSHIMA JA,31.80340,130.71941,276.1,nan,13.4,14.0,16.7,11.5,16.1,17.4,16.2,16.2,12.7,11.4,15.1,16.5,13.3,11.2
47880099999,TAKAMATSU JA,34.21417,134.01556,185.0,nan,12.7,10.9,16.5,12.8,21.2,18.9,16.5,12.5,14.3,11.6,13.1,17.7,11.5,10.3
47897099999,SUKUMO JA,32.91667,132.70000,10.9,nan,10.6,12.3,13.9,11.7,14.4,11.0,12.2,10.5,11.4,8.3,13.9,13.6,10.4,9.4
47929099999,KUMEJIMA JA,26.36351,126.71381,7.0,nan,18.2,13.3,13.5,10.9,14.0,17.9,18.2,15.7,14.6,12.8,20.1,15.6,15.6,14.3
47971042402,CHICHIJIMA JA,27.09200,142.19100,8.0,nan,15.9,19.5,9.1,8.4,10.7,11.5,11.3,14.6,8.9,12.6,18.2,11.2,9.9,14.5
48025099999,KALEWA BM,23.20000,94.30000,109.0,nan,nan,1.1,1.7,nan,1.6,1.7,1.8,1.4,1.6,2.0,1.9,1.3,1.5,1.3
48053099999,MEIKTILA BM,20.83333,95.83333,220.0,nan,1.3,1.4,1.7,2.1,1.5,2.3,2.3,2.5,3.0,3.1,1.9,3.2,2.8,1.8
48078099999,TOUNGOO BM,18.91667,96.46667,49.0,nan,nan,1.7,1.5,2.2,2.3,3.2,2.2,1.5,2.1,2.6,1.2,2.7,2.8,1.6
48101099999,PHYAPON BM,16.26667,95.66667,2.1,nan,nan,nan,nan,nan,nan,nan,2.0,2.0,3.3,3.4,1.3,1.9,1.2,1.0
48303199999,CHIANG RAI INTERNATIONAL TH,19.95234,99.88293,390.1,nan,3.5,1.5,3.9,4.6,6.1,6.2,2.8,3.0,5.2,4.6,2.8,5.2,3.0,2.5
48328099999,LAMPANG TH,18.27093,99.50417,247.2,nan,2.2,1.7,0.7,0.2,0.4,0.3,0.6,1.8,2.1,2.0,2.4,2.5,2.4,1.4
48354099999,UDON THANI TH,17.38644,102.78825,176.5,nan,3.8,2.2,6.7,4.5,5.5,7.7,5.6,4.7,7.1,5.8,4.5,5.0,4.1,4.6
48375099999,MAE SOT TH,16.69986,98.54506,210.3,nan,1.8,1.7,2.2,2.5,1.6,4.0,3.1,5.7,3.4,3.0,4.4,6.0,3.8,3.2
48385099999,UMPHANG TH,16.01667,98.86667,460.0,nan,0.3,0.7,0.1,0.3,0.6,1.0,0.8,0.3,0.2,0.0,0.1,0.2,0.5,0.2
48407099999,UBON RATCHATHANI TH,15.25128,104.87023,123.7,nan,11.2,4.8,9.6,4.8,7.0,11.2,8.4,9.3,13.1,7.5,13.0,13.8,6.9,5.3
48420099999,SAMUTPRAKAN AGROMET TH,13.51667,100.75000,3.0,nan,nan,nan,8.5,9.6,7.5,10.2,8.3,3.9,4.4,3.1,8.4,6.2,3.7,6.4
48433099999,SURIN AGROMET TH,14.88333,103.45000,145.0,nan,nan,nan,2.6,0.3,4.5,7.0,4.2,1.8,3.8,2.5,4.9,5.7,3.5,2.3
48454099999,BANGKOK PORT TH,13.70000,100.56667,6.0,nan,nan,nan,nan,nan,nan,8.8,8.0,0.9,9.6,3.3,5.2,3.6,4.0,3.3
48464099999,RATCHA BURI TH,13.48333,99.78333,5.0,nan,nan,nan,8.6,4.0,4.9,10.5,5.9,9.2,9.8,5.9,5.1,11.0,6.2,2.1
48501099999,KHLONG YAI TH,11.76667,102.88333,4.0,nan,7.8,5.6,5.4,5.5,4.1,6.3,3.8,5.5,6.9,4.9,4.4,4.8,5.2,5.9
48557099999,CHAWANG TH,8.43333,99.51667,30.0,nan,nan,nan,1.4,0.4,0.8,0.5,0.5,1.7,2.9,1.7,1.5,2.6,0.7,1.0
48566099999,KO LANTA TH,7.53333,99.05000,3.0,nan,7.2,3.6,6.8,7.1,4.8,12.9,7.0,8.7,4.1,6.1,4.7,3.5,5.9,6.5
48600099999,LANGKAWI INTERNATIONAL MY,6.32973,99.72867,8.8,nan,11.8,5.6,9.2,11.5,7.0,12.2,11.3,11.2,7.1,7.1,8.0,7.8,5.1,9.2
48620099999,SITIAWAN MY,4.21667,100.70000,8.0,nan,2.9,4.8,3.9,3.3,4.1,3.7,3.8,4.0,2.8,4.4,3.6,4.3,4.7,3.8
48694099999,PAYA LEBAR SN,1.36042,103.90953,19.8,nan,8.7,5.7,12.4,7.2,11.3,12.6,10.8,16.5,9.1,10.9,9.8,8.8,8.9,13.7
48825099999,HA DONG VM,20.96667,105.76667,7.9,nan,nan,nan,nan,nan,nan,nan,5.7,7.2,7.4,6.2,7.0,4.3,8.1,5.5
48848099999,DONG HOI VM,17.48333,106.60000,8.0,nan,7.8,5.7,9.9,6.0,6.4,10.8,10.5,10.6,11.4,8.1,7.8,9.5,5.8,6.7
48894099999,NHA BE VM,10.65000,106.71667,3.6,nan,nan,nan,nan,nan,nan,nan,nan,5.5,5.5,4.4,3.4,8.1,1.1,4.5
48921099999,BOUNNEUA LA,21.63333,101.88333,923.0,nan,6.6,4.9,2.8,5.1,7.5,nan,3.8,3.9,4.5,3.5,6.4,7.6,4.3,5.1
48941099999,PHONHONG LA,18.46667,102.40000,179.0,nan,nan,7.4,7.0,7.9,8.4,11.7,8.7,9.7,12.0,9.9,12.0,13.5,12.2,11.1
48991099999,PHNOM PENH INTERNATIONAL CB,11.54656,104.84414,12.2,nan,15.0,7.7,14.8,8.8,10.5,17.5,14.0,15.0,13.3,7.7,11.1,13.7,6.5,6.9
50632099999,BUGT CH,48.76667,121.91667,739.0,nan,11.3,6.1,11.1,10.7,15.4,12.6,11.4,11.4,9.2,12.5,9.6,10.1,18.7,6.3
50915099999,ULIASTAI CH,45.51667,116.96667,840.0,nan,8.0,7.7,9.5,7.7,7.7,4.9,8.3,6.2,6.7,6.6,7.0,7.2,13.1,6.6
51133099999,TACHENG CH,46.73333,83.00000,535.0,nan,5.6,7.0,5.4,6.6,5.4,6.2,7.1,4.8,4.7,4.8,5.4,6.2,6.6,3.9
51495099999,SHISANJIANFANG CH,43.21667,91.73333,732.0,nan,8.7,25.0,19.8,22.3,12.6,9.2,20.0,12.6,8.8,13.2,21.6,15.2,14.9,18.5
51765099999,TIKANLIK CH,40.63333,87.70000,847.0,nan,4.3,6.0,4.5,6.8,6.2,3.6,4.9,4.6,6.0,5.3,4.9,5.6,5.4,5.1
52378099999,GUAIZIHU CH,41.36667,102.36667,960.0,nan,9.5,12.2,12.7,18.9,20.0,13.5,15.9,11.4,15.1,18.9,13.9,16.7,19.7,22.6
52737099999,DELINGHA CH,37.36667,97.36667,2982.0,nan,7.7,4.8,4.0,4.8,4.2,3.5,4.2,6.4,6.8,5.2,5.3,6.9,5.8,5.1
53068099999,ERENHOT CH,43.65000,112.00000,966.0,nan,7.9,9.7,11.6,13.5,10.7,9.2,13.1,11.0,12.9,11.1,11.4,11.0,16.5,11.4
53480099999,JINING CH,41.03333,113.06667,1416.0,nan,4.9,5.5,9.3,9.7,8.7,8.3,7.0,9.3,8.2,7.4,8.0,9.3,9.5,8.4
53646099999,YULIN CH,38.26667,109.78333,1158.0,nan,6.8,10.0,7.6,10.9,8.6,6.9,8.4,7.6,8.2,7.9,11.4,9.4,9.1,8.9
53863099999,JIEXIU CH,37.03333,111.91667,745.0,nan,2.5,3.9,7.7,7.8,10.8,8.1,6.2,7.1,5.8,10.7,9.4,9.0,9.3,8.1
54094099999,MUDANJIANG CH,44.50000,129.66667,306.5,nan,4.3,3.2,8.5,1.0,9.1,7.8,6.2,4.8,10.8,9.6,11.0,16.6,17.9,4.0
54218099999,CHIFENG CH,42.30000,118.83333,567.0,nan,6.1,3.8,9.2,7.5,9.8,11.3,9.2,8.6,10.2,9.8,10.2,9.8,12.5,8.0
54342099999,SHENYANG CH,41.73333,123.51667,43.0,nan,11.1,6.5,7.3,7.1,8.7,7.8,9.0,6.3,5.4,6.6,8.9,8.2,7.9,6.1
54471099999,YINGKOU CH,40.66667,122.20000,4.0,nan,14.1,10.6,12.7,12.9,13.5,10.4,13.2,11.6,12.8,11.5,17.5,12.3,13.4,11.6
54662099999,ZHOUSHUIZI CH,38.96567,121.53860,32.6,nan,12.0,7.8,13.7,11.0,14.6,9.7,14.5,14.3,12.2,13.4,16.8,12.4,12.5,11.0
54843099999,WEIFANG CH,36.76667,119.18333,22.0,nan,8.3,4.5,8.8,7.9,7.9,5.8,6.4,7.1,6.7,5.1,6.4,6.0,6.8,5.2
55472099999,XAINZA CH,30.95000,88.63333,4670.0,nan,9.2,25.5,10.0,11.3,12.2,14.9,13.2,32.4,25.5,17.2,16.6,13.4,17.9,17.3
56033099999,MADOI CH,34.91667,98.21667,4273.0,nan,4.6,8.0,9.6,9.7,9.4,7.8,12.1,5.0,8.4,8.2,11.3,7.5,7.1,5.3
56146099999,GARZE CH,31.61667,100.00000,3394.0,nan,3.8,4.5,6.4,5.2,5.3,4.6,6.0,4.4,6.2,5.9,5.9,4.9,4.8,4.6
56294099999,SHUANGLIU CH,30.57853,103.94709,495.3,nan,3.2,4.5,6.5,4.3,5.2,5.3,7.0,3.0,2.6,2.8,4.5,3.6,5.6,3.7
56651099999,LIJING CH,26.83333,100.21667,2382.0,nan,6.0,8.8,11.8,12.9,9.6,10.1,10.3,10.1,10.1,12.5,12.0,7.8,10.9,13.0
56786099999,ZHANYI CH,25.58333,103.83333,1900.0,nan,8.1,11.9,11.1,12.6,10.3,12.7,10.4,9.9,11.1,10.6,11.3,8.4,11.6,10.6
56977099999,JIANGCHENG CH,22.61667,101.81667,1121.0,nan,3.9,4.5,3.0,4.0,3.4,3.8,3.4,4.3,4.7,3.8,4.6,3.8,6.1,5.1
57131099999,JINGHE CH,34.43333,108.96667,411.0,nan,5.8,7.4,9.0,8.8,9.5,7.0,8.0,6.2,6.8,8.1,10.3,5.8,8.0,7.3
57306099999,LANGZHONG CH,31.58333,105.96667,385.0,nan,2.6,2.3,4.4,3.2,3.1,2.6,3.4,4.2,4.4,4.7,5.1,4.7,4.7,4.4
57494099999,TIANHE CH,30.78376,114.20810,34.4,nan,8.7,7.6,9.2,9.5,11.8,6.4,8.8,7.0,7.4,7.8,9.0,7.8,10.4,8.3
57662099999,CHANGDE CH,29.05000,111.68333,35.0,nan,3.8,4.9,6.1,4.6,6.3,2.5,11.1,9.3,9.4,7.6,8.4,8.4,11.1,7.8
57816099999,LONGDONGBAO CH,26.53852,106.80070,1138.7,nan,6.6,9.0,10.2,8.7,8.8,9.2,9.4,8.2,8.6,10.0,8.8,8.2,11.6,8.7
57972099999,CHENZHOU CH,25.73333,112.96667,368.8,nan,2.8,3.7,4.1,3.8,2.1,2.8,4.3,4.7,4.7,4.0,13.5,8.8,11.4,9.2
58221099999,BENGBU CH,32.85000,117.30000,28.0,nan,6.3,10.2,9.2,7.2,10.4,5.8,8.5,6.7,8.3,10.3,11.3,nan,nan,9.2
58362099999,SHANGHAI CH,31.40000,121.46667,4.0,nan,7.9,9.2,11.3,8.5,10.5,9.8,12.3,9.8,9.1,8.3,12.7,7.8,10.4,9.2
58556099999,SHENGXIAN CH,29.60000,120.81667,108.0,nan,6.8,8.9,7.5,6.6,8.4,8.0,9.1,9.5,6.6,8.6,9.5,5.8,8.7,5.0
58752099999,RUIAN CH,27.78333,120.65000,38.0,nan,6.1,5.4,8.9,8.7,8.9,7.9,7.6,9.3,7.5,5.5,7.5,8.5,7.5,6.5
58968099999,TAIBEI CH,25.03333,121.51667,9.0,nan,9.7,11.2,12.8,8.6,10.1,9.0,12.9,9.0,12.0,7.9,12.6,13.9,10.5,10.3
59102099999,XUNWU CH,24.95000,115.65000,299.0,nan,3.1,4.7,5.3,4.4,4.6,6.5,4.6,7.4,4.0,5.1,5.4,4.4,6.9,5.5
59287199999,HUANGHUA CH,28.18916,113.21963,66.1,nan,4.7,6.0,8.6,6.5,9.2,8.4,12.9,8.7,10.8,10.7,13.3,6.0,14.1,10.4
59562099999,TAIDONG CH,22.75000,121.15000,10.0,nan,9.1,7.9,8.7,6.1,7.8,7.4,8.2,8.6,7.8,6.5,8.2,8.2,6.7,7.8
59845099999,DANXIAN CH,19.51667,109.58333,169.0,nan,7.3,7.2,6.7,6.2,6.4,6.7,6.1,6.1,6.1,5.4,5.8,6.4,5.1,4.9
60015099999,TENERIFE NORTE SP,28.48265,-16.34154,631.9,nan,13.3,14.2,16.9,13.3,17.5,7.5,14.4,14.6,15.3,15.6,23.5,13.2,16.0,13.5
60096099999,VILLA CISNEROS MIL WI,23.70000,-15.86667,10.0,nan,nan,nan,10.5,nan,nan,nan,nan,nan,nan,nan,nan,12.2,15.1,13.1
60150099999,BASSATINE MO,33.87907,-5.51513,576.1,nan,8.0,8.2,8.1,17.9,13.9,8.5,7.7,11.7,4.6,7.5,11.5,11.5,7.2,12.7
60252099999,AL MASSIRA MO,30.32500,-9.41307,76.2,nan,9.7,7.4,11.6,11.7,10.0,9.1,10.0,7.4,11.1,13.6,10.4,9.8,11.9,11.1
60351099999,FERHAT ABBAS AIRPORT AG,36.79514,5.87361,11.0,nan,5.5,3.9,4.6,19.9,19.3,10.0,9.3,14.2,5.6,1.9,7.4,8.8,6.0,10.7
60379099999,REGHAIA AG,36.76667,3.33333,162.2,nan,nan,nan,nan,nan,nan,nan,5.6,nan,nan,nan,nan,nan,nan,nan
60419099999,MOHAMED BOUDIAF INTERNATIONAL AG,36.27603,6.62039,690.4,nan,4.9,3.6,2.2,15.8,18.2,11.9,9.5,12.8,5.1,4.8,8.2,13.0,2.9,11.9
60459199999,HASSI R MEL AG,32.91700,3.30000,794.0,nan,21.0,10.9,7.9,39.3,22.4,22.1,23.8,32.9,0.0,11.5,10.1,15.7,7.5,17.2
60514099999,KSAR CHELLALA AG,35.16667,2.31667,801.0,nan,9.7,2.1,1.6,33.1,21.7,6.8,10.6,18.4,5.0,1.5,4.3,17.8,0.3,11.9
60545099999,LAGHOUAT AG,33.76402,2.92730,765.0,nan,10.7,7.5,2.8,20.1,22.3,14.1,11.1,23.5,8.3,4.4,10.2,17.1,3.3,9.8
60581099999,OUED IRARA AG,31.67297,6.14044,141.1,nan,7.6,13.2,6.5,18.8,15.0,8.4,6.1,19.4,7.1,10.3,6.3,10.3,8.1,9.4
60620199999,BORDJ MOKHTAR AG,21.33300,0.95000,398.0,nan,2.8,9.6,28.6,9.6,16.5,20.3,21.3,20.4,27.1,24.6,33.1,36.0,20.8,16.9
60663099999,MOULAY LACHEN AG,24.71667,4.65000,1054.0,nan,nan,nan,8.5,6.1,13.6,8.3,nan,13.1,nan,9.6,nan,nan,9.3,4.5
60691099999,ANESBARAKA AG,19.43333,4.65000,477.0,nan,nan,nan,nan,nan,nan,nan,0.0,0.0,nan,0.0,nan,nan,nan,0.2
60731099999,ENFIDHA TS,36.08333,10.43333,6.0,nan,nan,nan,nan,19.9,16.5,20.4,16.2,22.2,15.3,10.4,14.4,17.0,11.6,23.0
60748099999,SIDI BOUZID TS,35.00000,9.48333,355.0,nan,7.2,6.6,7.3,14.0,12.8,15.3,9.5,12.5,6.9,4.7,4.2,9.8,6.0,12.4
60780099999,EL BORMA TS,31.70428,9.25462,252.1,nan,11.7,20.9,9.4,21.3,17.1,11.9,13.6,23.2,5.4,11.7,11.5,16.4,9.7,9.5
61080099999,MARADI NG,13.50253,7.12675,377.9,nan,4.9,nan,9.6,7.7,5.6,10.5,7.1,5.9,12.4,23.3,21.6,17.6,21.0,20.8
61265099999,AMBODEDJO ML,14.51280,-4.07956,276.1,nan,13.3,7.5,13.0,9.9,7.4,12.2,10.9,14.3,9.5,6.0,10.1,18.5,10.1,11.8
61415099999,NOUADHIBOU MR,20.93307,-17.02996,4.9,nan,19.7,26.4,15.2,10.1,22.4,20.1,19.2,23.5,15.0,16.3,17.7,28.2,18.4,17.6
61679099999,KAOLACK SG,14.14688,-16.05130,7.9,nan,10.5,9.2,10.5,12.4,12.4,12.9,10.8,11.0,6.7,6.2,12.3,14.3,8.5,7.5
61722099999,SAPU GA,13.56667,-15.93333,2.0,nan,nan,nan,nan,nan,nan,18.9,nan,11.1,14.6,8.2,nan,26.9,nan,nan
61849099999,N ZEREKORE KONIA GV,7.73333,-8.83333,470.0,nan,4.3,nan,nan,nan,nan,nan,nan,nan,nan,nan,nan,nan,nan,nan
61976099999,SERGE FROLOW ILE TROMELIN TE,-15.88333,54.51667,13.0,nan,28.8,13.0,21.3,26.0,17.0,16.7,20.7,22.3,1.6,18.0,24.8,13.2,17.1,30.0
61998099999,PORT AUX FRANCAIS ILES KERGUELEN FS,-49.35000,70.25000,30.0,nan,29.7,36.4,34.2,35.7,35.5,32.8,30.5,29.1,40.9,35.8,42.4,33.6,26.3,42.0
62052599999,MITIGA LY,32.89408,13.27600,11.0,nan,nan,nan,nan,nan,11.1,17.1,12.4,16.2,11.1,7.8,9.4,16.1,nan,nan
62212099999,GHAT LY,25.14556,10.14265,699.8,nan,9.2,nan,9.6,6.0,9.2,nan,nan,nan,nan,nan,nan,nan,nan,13.9
62360199999,BORG EL ARAB INTERNATIONAL EG,30.91767,29.69641,53.9,nan,13.9,12.6,22.6,12.4,nan,nan,13.1,13.6,11.1,5.7,19.2,15.8,12.4,19.6
62417099999,SIWA EG,29.20000,25.48333,-15.0,nan,4.0,4.3,9.1,1.9,3.8,7.5,10.7,7.8,6.2,5.4,7.3,8.5,5.9,nan
62463099999,HURGHADA INTERNATIONAL EG,27.17832,33.79944,15.8,nan,25.1,22.7,22.0,19.4,19.0,18.2,15.3,13.8,19.0,18.9,19.9,13.3,19.8,12.8
62730099999,KASSALA SU,15.38749,36.32884,509.3,nan,8.3,9.4,8.2,6.1,2.2,10.3,6.2,7.1,nan,nan,nan,nan,nan,nan
63170099999,EGAL INTERNATIONAL SO,9.51817,44.08876,1348.1,nan,24.0,nan,nan,nan,nan,nan,nan,nan,nan,nan,20.4,27.3,23.4,20.0
63403099999,GORE ET,8.16667,35.55000,1974.0,nan,3.9,6.3,6.5,6.7,7.1,3.5,6.8,6.8,nan,8.6,9.2,nan,8.1,7.7
63612099999,LODWAR KE,3.12197,35.60869,522.7,nan,10.0,10.9,12.3,10.2,7.8,11.0,5.7,12.1,nan,17.6,15.2,8.5,nan,11.4
63674099999,KASESE UG,0.18333,30.10000,961.0,nan,nan,6.8,6.1,7.5,8.5,6.3,nan,10.4,nan,nan,nan,nan,9.8,nan
63714099999,NAKURU KE,-0.26667,36.10000,1901.0,nan,8.1,10.8,11.1,4.9,4.6,5.9,7.6,5.0,2.8,3.2,3.0,8.1,7.6,6.3
63742099999,NAIROBI WILSON KE,-1.32172,36.81483,1687.4,nan,13.0,nan,nan,11.9,12.3,9.0,6.4,12.9,2.4,11.7,21.4,14.6,14.2,11.5
63832099999,TABORA AIRPORT TZ,-5.08333,32.83333,1190.0,nan,5.3,4.3,6.4,5.0,6.2,3.8,4.5,5.7,1.5,1.0,13.7,5.4,2.3,3.8
64006099999,GEMENA CG,3.23537,19.77126,420.0,nan,nan,nan,nan,nan,nan,nan,4.1,nan,nan,nan,nan,7.6,nan,nan
64328099999,KOLWEZI CG,-10.76589,25.50571,1526.1,nan,nan,nan,nan,nan,nan,nan,nan,nan,nan,nan,nan,nan,nan,nan
64403099999,MAKABANA CF,-3.48333,12.61667,161.0,nan,nan,nan,nan,nan,nan,3.7,0.7,2.1,3.8,2.6,2.4,1.4,3.1,2.2
64462099999,KELLE CF,0.10000,13.55000,408.0,nan,nan,nan,nan,nan,nan,nan,3.7,3.7,3.6,3.4,2.7,3.2,3.7,3.7
64560099999,LASTOURSVILLE GB,-0.83333,12.71667,485.0,nan,nan,nan,nan,nan,nan,nan,nan,0.0,nan,nan,nan,nan,nan,nan
64708599999,BILTINE CD,14.51667,20.90000,512.0,nan,nan,nan,nan,nan,nan,nan,nan,nan,nan,nan,nan,12.0,13.7,10.2
64851099999,SALAK CM,10.45139,14.25736,424.0,nan,nan,16.5,nan,nan,nan,nan,nan,nan,nan,14.7,nan,nan,12.6,14.0
65028099999,KATSINA NI,13.01667,7.68333,517.0,nan,nan,nan,nan,nan,12.0,8.4,nan,nan,nan,nan,nan,nan,17.6,nan
65134099999,YAKUBU GOWON NI,9.63983,8.86905,1289.9,nan,nan,nan,nan,nan,16.8,21.5,nan,nan,nan,nan,nan,nan,13.8,15.5
65252099999,OWERRI NI,5.48333,7.00000,91.0,nan,nan,nan,nan,nan,nan,7.4,nan,nan,nan,nan,nan,nan,nan,nan
65352099999,MANGO SANSANNE TO,10.36667,0.46667,146.0,nan,6.7,7.0,5.3,4.0,1.3,6.2,6.5,7.8,nan,11.0,9.0,8.1,8.3,7.7
65416099999,BOLE GH,9.03333,-2.48333,301.0,nan,nan,nan,5.8,7.0,7.0,4.9,5.8,3.2,3.3,3.9,2.9,3.8,4.4,3.1
65457099999,AKIM ODA GH,5.93333,-0.98333,140.0,nan,nan,nan,2.1,4.1,3.8,nan,1.1,2.2,1.6,2.1,4.8,4.2,4.8,3.1
65501099999,DORI UV,14.03333,-0.03333,277.0,nan,1.9,2.8,3.7,2.0,3.9,3.1,3.7,2.9,2.5,3.5,2.9,4.2,2.3,2.5
65536099999,KORHOGO IV,9.38718,-5.55666,370.0,nan,nan,nan,nan,nan,nan,nan,nan,nan,8.8,10.1,7.3,9.2,6.9,6.2
65592099999,TABOU IV,4.41667,-7.36667,21.0,nan,nan,nan,nan,nan,nan,nan,nan,0.0,5.1,3.8,6.6,4.5,7.1,3.6
66215099999,MALANJE AO,-9.52509,16.31241,1179.0,nan,nan,nan,nan,nan,nan,nan,nan,nan,11.0,10.2,6.6,9.9,12.4,10.6
67009099999,ARRACHART MA,-12.34940,49.29175,114.0,nan,0.0,nan,1.1,nan,18.5,15.7,15.3,10.6,9.2,9.4,23.6,8.2,17.7,11.5
67095099999,TOAMASINA MA,-18.10952,49.39254,6.7,nan,7.8,14.5,5.7,5.3,7.0,6.6,10.3,nan,8.3,8.5,7.0,8.2,7.2,13.5
67223099999,MONTEPUEZ MZ,-13.13333,39.03333,535.0,nan,nan,nan,0.2,3.5,0.9,nan,nan,nan,nan,7.0,nan,nan,nan,nan
67273099999,ANGOCHE MZ,-16.21667,39.90000,62.0,nan,12.2,nan,8.9,nan,5.2,nan,nan,6.5,7.2,11.9,11.2,4.3,6.5,9.3
67315099999,VILANKULO MZ,-22.01843,35.31330,14.0,nan,nan,nan,nan,nan,nan,nan,17.6,20.2,17.1,16.1,nan,17.9,14.8,15.9
67781099999,MUTOKO ZI,-17.43192,32.18450,1204.0,nan,6.3,4.3,nan,nan,nan,7.8,2.8,5.6,4.5,5.1,7.6,nan,nan,nan
68004099999,OTJIWARONGO WA,-20.43000,16.67000,1475.0,nan,nan,5.8,nan,6.5,6.6,5.8,5.3,5.0,6.6,6.2,5.0,5.6,nan,5.0
68038099999,SUA PAN BC,-20.55336,26.11578,909.8,nan,12.2,13.9,16.9,nan,12.2,11.1,nan,11.3,nan,5.5,nan,nan,7.2,10.6
68151099999,LEPHEPE BC,-23.36667,25.85000,1020.0,nan,nan,nan,nan,nan,nan,nan,14.3,14.0,nan,nan,17.0,nan,12.0,nan
68192099999,THOHOYANDOU SF,-22.96700,30.50000,600.0,nan,nan,nan,nan,nan,nan,nan,nan,nan,nan,nan,nan,4.7,5.3,6.1
68257099999,PILANESBERG SF,-25.25000,27.21667,1086.0,nan,nan,nan,nan,nan,nan,nan,nan,4.4,5.3,9.2,6.9,7.3,10.0,6.5
68267799999,PIETERSBURG SF,-23.86667,29.43333,1222.0,nan,8.9,8.1,10.8,10.3,10.0,6.5,10.0,8.7,10.5,11.1,9.5,11.2,10.9,10.1
68290499999,KRUGER MPUMALANGA INTERNATIONAL SF,-25.38319,31.10560,862.3,nan,8.5,nan,11.3,9.3,9.3,9.1,8.3,7.3,9.1,8.9,8.9,9.4,9.8,8.7
68320099999,WERDA BC,-25.26667,23.25000,1046.0,nan,5.5,9.6,10.0,10.8,18.4,11.8,8.0,9.0,8.6,11.2,nan,nan,nan,nan
68342099999,OTTOSDAL SF,-26.81667,26.01667,1500.0,nan,nan,nan,nan,9.3,nan,nan,7.3,7.0,4.6,9.9,10.1,9.2,0.0,9.4
68361099999,JOHANNESBURG BOT. GARDENS SF,-26.15000,28.00000,1626.0,nan,nan,nan,nan,nan,nan,nan,nan,2.1,3.6,4.3,4.0,4.9,4.1,nan
68392099999,NHLANGANO WZ,-27.05000,31.10000,1102.0,nan,nan,nan,nan,nan,nan,9.9,nan,nan,nan,nan,11.8,10.8,11.5,12.5
68411099999,VIOOLSDRIF SF,-28.76944,17.62333,174.0,nan,9.6,9.6,9.2,10.0,9.3,9.0,11.1,9.5,10.2,10.7,11.6,11.5,10.4,11.1
68453399999,MOSHOESHOE I INTERNATIONAL LT,-29.46226,27.55250,1630.1,nan,7.8,nan,nan,28.4,nan,13.0,nan,10.7,17.6,18.5,11.7,16.4,12.9,11.3
68488099999,BABANANGO SF,-28.36667,31.21667,768.0,nan,5.9,nan,11.8,9.7,7.7,8.1,5.7,5.4,9.2,9.5,9.0,7.5,7.9,7.1
68527099999,PRIESKA SF,-29.66667,22.73333,947.0,nan,11.7,8.9,13.5,16.0,13.3,14.5,9.2,10.0,14.7,13.4,15.6,13.3,16.8,14.7
68579099999,PADDOCK SF,-30.75000,30.26667,515.0,nan,nan,nan,nan,nan,nan,nan,nan,8.8,11.9,14.1,12.5,12.1,12.2,12.4
68592099999,KING SHAKA INTERNATIONAL AIRPORT SF,-29.61667,31.13333,127.0,nan,nan,nan,nan,nan,16.4,19.2,13.7,12.3,15.7,16.1,15.8,13.9,16.3,15.7
68651099999,ELLIOT SF,-31.33333,27.85000,1463.0,nan,9.9,7.7,12.7,14.3,12.7,11.9,8.1,8.9,12.0,12.7,13.4,10.3,10.3,14.8
68719099999,EXCELSIOR SF,-32.95000,19.43333,945.0,nan,nan,nan,nan,nan,nan,nan,nan,4.6,11.0,7.9,11.2,11.3,11.0,11.7
68813099999,ROBBEN ISLAND SF,-33.80000,18.36667,3.0,nan,nan,nan,nan,nan,nan,nan,nan,14.4,12.1,11.4,14.4,11.3,11.0,nan
68832099999,WILLOWMORE SF,-33.28333,23.50000,842.0,nan,nan,8.7,16.9,12.7,9.8,12.5,12.4,11.1,11.6,11.1,13.9,10.8,12.0,14.6
68858099999,EAST LONDON SF,-33.03557,27.82594,132.6,nan,12.8,17.6,21.4,18.6,16.9,18.4,17.8,15.4,17.4,23.9,22.1,18.6,22.5,20.0
68925099999,ELGIN EXPERIMENTAL FARM SF,-34.13944,19.02278,311.0,nan,4.5,4.9,6.9,8.1,5.5,7.0,5.7,4.5,nan,4.8,8.7,5.4,6.6,8.1
68999099999,CT AWS SF,-33.96667,18.60000,46.0,nan,nan,nan,nan,nan,nan,nan,nan,19.7,9.7,nan,16.6,15.8,nan,16.8
70063899999,FALSE PASS AK US,54.85000,-163.41667,6.0,nan,nan,nan,nan,16.1,34.7,15.8,23.3,nan,21.9,22.8,19.6,22.5,17.1,nan
70133326643,DEERING AIRPORT AK US,66.06889,-162.76389,6.4,nan,14.3,18.4,19.7,24.7,23.5,18.3,12.8,12.8,21.4,19.8,16.0,23.8,6.7,14.4
70174899999,PROSPECT CREEK AIRPORT AK US,66.81667,-150.65000,335.0,nan,0.0,1.3,nan,9.8,1.5,nan,nan,nan,nan,nan,7.4,nan,26.9,1.9
70203526704,SAVOONGA AK US,63.68667,-170.49333,16.8,nan,18.6,30.7,29.1,22.6,39.6,19.8,23.3,28.5,29.0,28.9,33.3,36.7,13.6,31.6
70222026501,GALENA AIRPORT AK US,64.73667,-156.93444,46.6,nan,2.2,2.6,12.4,14.7,5.5,4.4,1.4,7.1,3.3,3.0,8.4,12.5,1.3,3.7
70259026523,KENAI AIRPORT AK US,60.57970,-151.23910,27.7,nan,11.0,18.3,10.7,20.7,6.2,12.4,20.5,8.5,9.6,16.3,14.4,15.3,18.6,10.9
70262800105,MARSHALL DON HUNTER SR AIRPORT AK US,61.86700,-162.03300,31.1,nan,16.2,24.6,nan,36.7,16.1,2.8,36.6,27.2,16.9,27.8,23.1,31.4,20.9,nan
70272026401,ANCHORAGE ELMENDORF AFB AK US,61.25306,-149.79361,64.6,nan,8.6,7.1,4.9,5.9,6.2,11.6,8.9,6.2,6.4,5.2,3.1,5.0,5.0,7.0
70296026410,CORDOVA AIRPORT AK US,60.48880,-145.45110,9.4,nan,10.5,11.1,3.4,9.5,1.6,10.6,10.7,2.3,6.6,5.2,7.1,1.6,6.4,7.4
70305999999,KING COVE AK US,55.17000,-162.27000,47.0,nan,nan,14.9,27.0,1.7,42.8,15.7,27.8,24.2,8.2,24.0,19.8,23.5,10.6,26.4
70333599999,SOUTH NAKNEK AIRPORT AK US,58.70000,-157.00000,49.4,nan,nan,nan,nan,nan,nan,nan,nan,nan,nan,nan,19.1,26.3,17.5,21.2
70362025335,SKAGWAY AIRPORT AK US,59.45560,-135.32390,6.1,nan,18.8,6.5,21.9,14.2,39.5,27.4,43.0,21.8,15.1,17.0,11.5,19.0,22.2,29.9
70383025310,ANGOON AK US,57.49889,-134.58639,8.5,nan,8.3,9.0,6.3,7.2,11.7,7.9,13.4,3.3,5.4,5.4,8.0,3.6,10.1,6.3
70392699999,AKHIOK AK US,56.93333,-154.18333,13.0,nan,nan,30.4,30.2,26.9,23.8,24.9,22.0,nan,15.8,24.4,24.5,31.1,13.2,29.5
71005099999,ALBERT HALL AGCM CA,53.10000,-111.16667,658.0,nan,nan,nan,nan,nan,nan,nan,nan,0.0,0.0,0.0,0.0,nan,0.0,0.0
71015099999,MILK RIVER RIDGE RESEVOIR CA,49.28333,-112.53333,1305.0,nan,nan,nan,nan,nan,nan,nan,nan,0.0,nan,0.0,0.0,0.0,nan,nan
71026099999,MEDICINE HAT RCS CA,50.03333,-110.71667,715.0,nan,17.3,13.0,11.5,8.1,12.0,18.6,5.8,12.8,12.3,9.2,16.3,11.2,10.7,12.3
71034999999,MAKKOVIK CA,55.08333,-59.18333,71.0,nan,27.1,31.2,30.5,14.5,18.2,30.3,27.5,33.4,24.1,37.5,22.1,29.2,28.9,25.8
71037699999,FLIN FLON CA,54.67806,-101.68167,303.9,nan,6.7,5.4,5.8,6.1,4.0,11.6,7.8,7.0,9.4,6.9,10.7,12.9,10.0,7.8
71044099999,OLD CROW YT CA,67.56667,-139.83333,251.0,nan,8.7,2.6,6.0,8.9,14.9,15.1,2.2,3.2,6.6,6.7,9.3,5.9,12.1,11.0
71055099999,COLVILLE LAKE NWT CA,67.02139,-126.12306,259.0,nan,6.9,6.3,2.9,6.5,10.1,9.8,nan,9.9,3.8,6.9,5.2,nan,5.9,5.2
71065099999,MYRNAM AGCM CA,53.71667,-111.11667,580.0,nan,nan,nan,nan,nan,nan,nan,nan,0.0,0.0,0.0,0.0,0.0,0.0,0.0
71075099999,COLLINS BAY SASK CA,58.18333,-103.70000,492.0,nan,14.5,7.7,11.1,16.3,5.2,11.0,6.9,9.9,6.7,6.4,6.4,12.5,6.7,5.0
71084099999,HAT ISLAND CA,68.32000,-100.08000,36.0,nan,27.7,32.4,nan,29.4,nan,nan,29.1,26.3,18.7,26.9,21.0,nan,nan,nan
71095099999,POND INLET CA,72.68333,-77.96667,55.2,nan,7.0,5.2,7.1,6.4,3.2,4.8,5.2,10.0,8.1,13.3,8.4,6.7,7.9,8.5
71106094234,TOFINO BC CA,49.08333,-125.76667,24.1,nan,13.4,15.1,8.6,8.5,21.9,16.0,9.9,9.3,8.3,9.5,12.8,6.3,10.3,7.5
71120099999,COLD LAKE CA,54.40500,-110.27944,541.0,nan,9.2,9.2,4.1,3.7,11.0,12.1,8.8,8.7,6.6,5.3,11.1,10.5,8.9,7.1
71131099999,EASTEND CYPRESS AUT SASK CA,49.43333,-108.98333,1080.0,nan,18.2,16.7,19.3,16.9,11.4,21.5,9.5,16.9,18.3,11.1,22.6,17.8,13.9,13.7
71142099999,SWIFT CURRENT AIRPORT CA,50.30000,-107.68333,816.9,nan,26.6,21.7,nan,16.7,28.2,30.5,16.9,25.3,20.3,18.0,26.8,22.7,18.9,22.6
71154099999,WATERTON PARK GATE CA,49.13333,-113.81667,1289.0,nan,25.0,29.1,25.7,18.2,20.9,33.2,10.8,28.7,24.6,18.5,27.5,21.4,20.8,25.7
71165099999,REA LAKES CA,64.11667,-117.33333,223.3,nan,8.0,4.9,2.6,5.3,5.1,nan,2.7,nan,0.0,nan,nan,5.9,0.0,4.5
71180099999,WRECKHOUSE CA,47.70000,-59.30000,32.0,nan,34.1,29.2,40.4,18.0,43.1,28.4,34.1,21.7,27.8,27.2,30.3,45.8,35.9,27.5
71198099999,LAC SAINT PIERRE QUE CA,46.18333,-72.91667,16.0,nan,23.7,26.5,nan,19.9,23.1,18.0,28.0,17.6,22.5,20.3,23.1,25.1,17.6,nan
71208199999,POWELL RIVER CA,49.83417,-124.50000,129.5,nan,15.6,11.5,nan,3.3,22.6,11.5,3.6,7.2,8.2,10.2,12.7,3.2,10.8,11.1
71219099999,HOLLAND ROCK BC CA,54.16667,-130.35000,5.0,nan,35.2,38.1,26.3,22.3,26.8,39.2,29.6,27.5,26.3,19.9,26.7,19.4,27.7,38.4
71229099999,MANNING AGDM ALTA CA,56.96667,-117.45000,457.0,nan,15.6,8.0,6.5,8.1,6.4,15.7,9.4,11.7,6.5,5.8,14.6,3.8,5.2,10.4
71239099999,CYORESS RIVER RCS CA,49.55000,-99.06667,374.0,nan,nan,nan,nan,16.1,13.8,15.2,9.9,13.5,10.6,11.9,18.7,16.3,10.8,12.6
71251099999,VAUXHALL CDA CS ALTA CA,50.05000,-112.13333,779.0,nan,19.5,16.8,15.0,8.1,17.5,25.7,9.1,19.5,12.6,9.2,21.8,12.8,11.8,12.4
71262599999,NIAGARA DISTRICT CA,43.19167,-79.17167,97.8,nan,16.7,18.5,20.9,10.2,14.5,13.7,21.1,13.2,14.8,17.7,21.8,19.3,14.7,15.1
71272099999,TADOULE LAKE CA,58.70000,-98.50000,281.0,nan,nan,nan,nan,nan,nan,11.5,16.3,12.2,10.4,11.1,13.0,13.5,9.7,9.0
71283099999,BROWNVALE AGCM CA,56.11667,-117.88333,748.0,nan,nan,nan,3.8,8.8,9.8,15.7,13.2,12.8,6.1,4.0,11.0,12.4,8.9,6.5
71294099999,BANCROFT AUTO ONT CA,45.06667,-77.86667,331.0,nan,6.5,6.2,6.9,5.2,11.7,5.3,7.4,4.9,4.7,5.2,6.8,4.3,4.5,4.4
71304099999,BEAVER MINES CA,49.46667,-114.18333,1257.0,nan,nan,nan,nan,nan,nan,nan,5.5,24.2,17.4,12.4,22.2,11.4,17.3,16.3
71314099999,BARRIE ORO CA,44.48000,-79.55000,289.0,nan,12.8,12.1,14.4,14.0,14.8,10.9,16.0,3.2,11.3,11.8,15.5,12.3,11.7,10.3
71324099999,OSBORNE HEAD DND CA,44.61667,-63.41667,30.0,nan,nan,24.7,32.0,21.1,32.0,19.5,nan,nan,22.8,20.2,24.5,34.4,20.9,nan
71336099999,GRATES COVE CA,48.16667,-52.93333,46.0,nan,32.4,nan,nan,39.0,nan,nan,nan,25.0,20.9,29.9,nan,nan,29.6,30.8
71346099999,BARNWELL AGDM ALTA CA,49.80000,-112.30000,824.0,nan,21.2,21.3,18.9,11.7,13.8,30.4,8.9,22.5,14.7,10.7,24.3,13.5,12.1,15.8
71356099999,BAKER LAKE CLIMATE NU CA,64.31667,-96.00000,51.0,nan,25.9,28.0,21.3,16.5,10.8,25.0,38.8,20.2,26.8,25.6,13.7,26.1,20.1,20.8
71367099999,CORMACK RCS CA,49.31667,-57.40000,817.0,nan,nan,nan,2.0,1.5,nan,nan,12.0,nan,6.2,10.8,7.8,nan,11.0,11.1
71377099999,STE ANNE DE BELLEVUE 1 QUE CA,45.41667,-73.91667,39.0,nan,13.9,13.4,12.5,14.5,10.8,6.6,16.0,10.9,12.6,8.9,13.5,13.4,10.9,9.7
71387099999,ONATCHIWAY QUE CA,48.88333,-71.01667,304.0,nan,8.8,7.7,7.3,6.6,12.6,7.1,7.2,6.0,6.5,7.9,7.4,5.8,7.0,5.3
71399099999,SEDALIA AGCM CA,51.58333,-110.75000,755.0,nan,nan,nan,nan,nan,nan,nan,nan,0.0,0.0,0.0,0.0,nan,16.3,10.7
71410099999,NORWAY HOUSE AIRPORT CA,53.96667,-97.83333,223.0,nan,9.5,8.4,nan,7.8,10.1,12.1,9.7,9.0,8.1,9.7,9.3,10.2,9.3,7.8
71423099999,HEATH POINT QUE CA,49.08333,-61.70000,7.0,nan,30.7,30.1,28.4,32.2,50.9,27.7,30.0,nan,28.9,24.2,28.0,39.5,28.4,25.5
71434099999,PEAWANUCK AUT CA,54.98333,-85.43333,53.0,nan,13.8,12.6,11.6,7.4,7.9,14.8,14.8,11.8,11.4,14.3,9.6,9.2,8.3,10.3
71444099999,WASAGAMING MAN CA,50.65000,-99.93333,627.0,nan,4.1,5.5,3.6,7.1,4.1,6.1,3.0,4.5,3.2,4.2,7.9,5.3,4.8,5.0
71454099999,WASKESIU LAKE SASK CA,53.91667,-106.06667,569.0,nan,7.2,6.9,4.3,3.6,8.1,9.8,5.2,7.1,4.0,5.4,6.5,9.4,7.4,5.1
71464099999,LONG POINT AUT CA,42.55000,-80.05000,175.0,nan,nan,34.1,40.2,24.4,27.3,nan,nan,30.9,0.0,nan,35.1,33.2,25.7,nan
71476099999,GREY ISLET AUT CA,54.56667,-130.68333,8.0,nan,47.6,45.8,61.9,53.7,43.8,nan,63.4,34.1,29.5,41.3,45.4,51.7,40.7,nan
71486099999,JASPER WARDEN ALTA CA,52.93333,-118.03333,1020.0,nan,2.7,2.7,5.7,6.4,5.2,7.1,6.1,6.7,4.5,3.7,7.5,5.2,5.1,3.2
71496099999,SASKATOON RCS CA,52.16667,-106.71667,504.0,nan,nan,nan,9.4,11.6,15.9,17.0,12.8,13.5,10.1,9.0,14.4,15.2,14.8,10.8
71506099999,ROCK RIVER CA,66.98333,-136.21667,731.0,nan,15.7,9.0,11.0,24.4,34.4,36.0,10.7,5.1,5.9,16.7,7.4,18.2,39.6,15.3
71516099999,CORONACH SPC SASK CA,49.05000,-105.48333,756.0,nan,14.8,14.4,15.8,16.8,11.7,20.8,9.4,13.3,15.8,10.1,20.3,16.5,15.0,10.5
71526099999,STRATHMORE AGDM ALTA CA,51.03333,-113.28333,967.0,nan,16.0,9.2,14.7,13.1,13.9,18.5,8.7,14.1,12.1,8.8,12.2,14.1,12.3,9.5
71539099999,MOOSE JAW CS SASK CA,50.31667,-105.55000,577.0,nan,20.9,16.6,15.8,16.5,21.8,23.4,12.4,19.4,14.4,11.9,22.3,18.6,13.8,17.7
71549099999,TAWATINAW AGCM CA,54.28333,-113.51667,611.0,nan,nan,nan,nan,nan,nan,nan,nan,0.0,0.0,0.0,0.0,nan,nan,0.0
71559099999,ESTEVAN CA,49.21667,-102.96667,580.6,nan,nan,nan,nan,nan,nan,19.4,12.5,15.3,13.4,11.8,23.1,18.9,16.2,15.0
71573099999,DELHI CS ONT CA,42.86667,-80.55000,232.0,nan,9.3,9.5,12.5,6.1,9.3,8.4,11.3,6.9,8.0,9.5,9.1,7.3,8.3,5.8
71585099999,FORT MCMURRAY CS ALTA CA,56.65000,-111.21667,369.0,nan,nan,nan,nan,nan,nan,12.3,nan,7.8,8.4,9.3,12.0,8.5,8.3,7.8
71597199999,GRAND ETANG CA,46.55000,-61.05000,13.0,nan,36.1,31.1,nan,23.2,42.8,26.8,26.6,21.8,23.8,24.5,30.6,43.9,30.3,28.8
71609099999,SAINT JOHN CA,45.31667,-65.88333,108.8,nan,17.7,16.3,21.8,19.3,28.2,14.7,17.2,15.7,18.3,14.1,16.8,21.0,19.1,15.9
71621099999,TRENTON CA,44.11667,-77.53333,86.3,nan,14.3,15.6,14.4,11.5,12.6,10.6,16.6,11.0,12.7,12.2,16.9,13.5,9.7,11.0
71630099999,MUSKOKA CA,44.97472,-79.30333,281.9,nan,11.9,12.7,15.1,12.1,13.7,12.2,13.5,8.4,11.3,11.2,14.6,7.4,9.6,10.1
71642099999,CHAPLEAU CA,47.82000,-83.34667,446.5,nan,9.3,12.1,11.4,7.7,6.1,13.1,10.1,8.3,9.5,13.1,14.5,6.7,9.6,11.9
71671099999,KENTVILLE CDA CA,45.07000,-64.48000,49.0,nan,13.9,12.7,14.9,9.3,16.8,8.1,10.5,2.0,11.7,8.3,12.6,17.1,12.7,9.4
71684099999,TIMISKAMING REGIONAL EARLTON CA,47.70000,-79.85000,243.2,nan,15.3,16.1,nan,14.6,14.8,16.2,17.9,13.7,13.7,17.0,12.3,10.0,12.8,14.2
71697099999,OSHAWA CA,43.92278,-78.89500,139.9,nan,nan,nan,7.5,nan,17.9,12.0,18.5,10.8,14.4,13.3,13.6,14.7,14.2,10.2
71708099999,QUEBEC JEAN LESAGE INTERNATIONAL CA,46.79111,-71.39333,74.4,nan,14.5,18.1,17.5,18.2,6.2,10.2,20.9,18.9,17.3,17.1,15.3,21.4,17.6,10.1
71720099999,POWELL RIVER CA,49.83333,-124.48333,125.0,nan,nan,12.9,8.5,nan,22.7,13.1,7.1,0.0,0.0,0.0,0.0,nan,0.0,0.0
71731099999,NORTH BAY CA,46.36361,-79.42278,370.3,nan,14.9,15.7,15.4,14.0,17.0,14.4,16.7,13.4,16.1,15.7,19.4,12.3,18.4,17.4
71738699999,CORNER BROOK CA,48.93333,-57.91667,152.0,nan,nan,nan,nan,9.7,16.3,10.6,12.9,7.8,10.1,12.2,9.8,17.4,12.4,10.8
71749399999,TERRACE BAY CA,48.81333,-87.09944,289.6,nan,10.1,nan,nan,nan,nan,nan,nan,nan,nan,nan,nan,nan,7.9,9.3
71766099999,QUALICUM BEACH AIRPORT CA,49.33333,-124.40000,58.0,nan,nan,nan,10.2,nan,14.6,9.9,10.5,4.4,6.1,9.1,8.7,2.7,9.5,8.3
71776099999,NELSON BC CA,49.48333,-117.30000,534.9,nan,8.0,nan,nan,nan,nan,9.8,7.6,10.1,8.3,0.0,8.9,9.5,6.5,7.5
71786099999,YOHO PARK BC CA,51.45000,-116.35000,1602.0,nan,19.4,20.7,14.9,6.9,nan,26.6,12.5,28.3,17.7,14.3,21.3,11.1,nan,10.8
71797099999,KITSCOPTY AGCM CA,53.35000,-110.41667,664.0,nan,nan,nan,nan,nan,nan,nan,nan,0.0,0.0,0.0,0.0,0.0,0.0,0.0
71811099999,SEPT ILES CA,50.21667,-66.26667,54.9,nan,16.0,15.4,17.1,9.9,21.1,9.9,17.5,11.6,16.8,15.8,12.1,18.2,18.6,12.7
71821099999,MATAGAMI A CA,49.75000,-77.80000,281.3,nan,nan,nan,13.8,nan,nan,nan,nan,10.7,11.4,13.6,14.1,11.9,12.8,13.8
71832099999,NAGAGAMI AUT ONT CA,49.73333,-84.15000,264.0,nan,3.3,11.4,10.0,8.3,5.1,11.3,10.9,9.3,3.3,10.1,10.4,7.0,5.9,10.7
71842899999,BERENS RIVER CA,52.35000,-97.03333,222.0,nan,14.0,11.6,9.4,13.4,11.0,10.8,14.1,13.1,9.7,12.7,11.0,15.9,10.1,9.0
71844399999,EASTMAIN RIVER CA,52.23333,-78.51667,7.0,nan,19.2,12.2,11.8,nan,nan,16.6,15.8,8.1,10.0,18.3,15.4,20.9,14.1,16.8
71857099999,TULLIBY LAKE AGCM CA,53.65000,-110.06667,596.0,nan,nan,nan,nan,nan,nan,nan,nan,0.0,0.0,0.0,0.0,0.0,0.0,0.0
71868099999,HUDSON BAY SASK CA,52.81667,-102.31667,358.0,nan,11.1,7.4,9.2,7.1,6.0,11.2,6.5,8.8,8.8,7.6,9.9,13.0,7.2,7.8
71881099999,EDSON CA,53.57889,-116.46500,926.9,nan,8.7,7.2,5.2,7.4,4.9,13.2,10.6,7.5,6.2,6.0,8.6,11.3,10.8,7.7
71889099999,PENTICTON CA,49.46306,-119.60222,344.1,nan,20.4,19.1,13.1,9.1,13.9,22.3,7.5,17.0,16.7,13.2,20.1,11.5,12.1,10.7
71898099999,PRINCE RUPERT CA,54.28333,-130.45000,35.4,nan,21.5,22.6,10.6,10.0,11.8,24.6,8.6,17.7,15.8,11.2,16.0,6.6,14.5,16.7
71906099999,KUUJJUAQ A CA,58.10000,-68.41667,39.3,nan,12.3,12.0,10.9,6.0,9.9,19.9,13.4,11.7,18.1,20.8,10.3,13.5,22.2,8.7
71912099999,GILLAM AIRPORT CA,56.35000,-94.71667,145.0,nan,13.7,10.0,11.7,8.4,4.5,15.8,19.5,14.6,9.7,11.9,10.5,13.6,9.0,7.6
71923099999,ENNADAI LAKE AUT NU CA,61.11667,-100.88333,353.0,nan,18.6,nan,22.2,nan,nan,nan,34.0,21.0,nan,nan,nan,0.0,18.3,17.7
71934099999,FORT SMITH CA,60.02028,-111.96194,204.5,nan,8.8,6.6,3.7,6.9,8.2,6.1,1.9,5.2,6.4,6.8,10.7,7.6,7.2,8.4
71946599999,WRIGLEY CA,63.20944,-123.43667,149.0,nan,nan,16.1,6.6,6.7,10.6,nan,13.8,6.8,7.0,6.0,6.7,7.0,nan,10.0
71953099999,WATSON LAKE CA,60.11639,-128.82250,687.3,nan,3.1,0.9,1.0,0.5,0.4,6.2,0.4,3.0,3.5,2.6,3.7,3.3,3.4,4.7
71962099999,FORT FRANCES RCS CA,48.65000,-93.43333,342.0,nan,nan,nan,9.2,14.9,9.1,13.7,9.7,10.0,9.7,11.2,15.3,7.5,9.0,9.8
71970099999,MEADOW LAKE CA,54.13333,-108.51667,481.0,nan,nan,8.8,7.7,6.1,12.1,14.0,8.8,10.2,6.8,7.7,13.8,14.1,11.3,9.7
71983099999,REA POINT NU CA,75.36667,-105.71667,15.0,nan,11.2,30.2,22.0,17.9,nan,nan,nan,15.9,10.8,15.2,9.6,nan,21.7,16.7
72011354829,OAKLAND TROY AIRPORT MI US,42.54306,-83.17806,218.2,nan,12.5,11.9,14.5,11.8,11.3,10.0,16.0,11.5,9.5,12.2,11.8,10.8,10.0,8.8
72017553919,MONTICELLO MUNICIPAL AIRPORT AR US,33.63610,-91.75560,88.4,nan,8.3,8.0,nan,13.5,8.1,7.8,10.7,7.4,9.4,11.8,10.4,10.3,9.4,5.7
72026563833,ALEXANDER CITY THOMAS C RUSSELL FIELD AIRPORT AL US,32.91472,-85.96278,209.1,nan,8.4,6.3,10.1,6.3,10.9,8.0,nan,7.7,5.3,6.6,3.6,8.2,7.6,6.4
72027612983,EDINBURG INTERNATIONAL AIRPORT TX US,26.44194,-98.12944,24.4,nan,14.8,12.8,16.6,15.6,14.7,nan,13.2,13.9,12.7,15.7,11.9,12.6,15.7,7.8
72028803711,HENDERSON OXFORD AIRPORT NC US,36.36139,-78.52889,160.6,nan,8.3,10.1,8.7,6.2,9.2,11.2,13.4,10.2,6.6,10.3,7.0,7.3,8.0,3.9
72030163846,SYLVANIA PLANTATION AIRPARK GA US,32.64556,-81.59639,57.3,nan,9.0,8.6,9.9,5.9,8.8,6.3,11.5,7.9,7.5,3.8,nan,7.1,5.8,9.3
72031303052,PERRY LEFORS FIELD AIRPORT TX US,35.61306,-100.99639,989.1,nan,18.2,22.9,23.3,21.7,12.1,13.8,20.1,13.8,22.4,26.5,20.5,20.8,20.7,18.2
72032393947,FREDERICKSBURG GILLESPIE CO AIRPORT TX US,30.24333,-98.90972,516.6,nan,9.2,11.8,15.8,10.5,9.0,10.7,10.2,6.7,14.3,9.7,10.0,10.4,10.8,5.4
72033900121,RYAN FIELD AIRPORT AZ US,32.15000,-111.16700,737.0,nan,nan,9.6,nan,9.9,11.1,9.5,10.5,15.6,12.1,nan,12.4,8.2,11.0,14.1
72035363875,MIDDLESBORO BELL CO AIRPORT KY US,36.61056,-83.73750,351.7,nan,0.6,3.2,7.3,4.2,6.3,3.2,6.7,7.2,3.2,6.8,5.0,6.0,3.4,0.8
72036524267,BROOKINGS STATE AIRPORT OR US,42.07444,-124.29000,139.9,nan,13.2,7.5,nan,7.9,14.3,6.8,11.2,3.0,5.0,nan,7.2,4.3,6.1,5.9
72037800122,NEW CASTLE MUNICIPAL AIRPORT PA US,41.03300,-80.41700,327.1,nan,9.6,11.7,nan,8.3,11.0,9.0,12.5,10.9,5.1,9.3,10.0,10.7,8.8,4.0
72039200128,HOMERVILLE AIRPORT GA US,31.05600,-82.76700,57.3,nan,nan,4.7,nan,5.4,9.0,7.2,11.6,7.5,7.2,6.3,3.2,7.9,nan,7.8
72040800136,CHESTER CO GO CARLSON AIRPORT PA US,39.98300,-75.86700,201.2,nan,nan,10.3,nan,15.4,22.1,10.3,18.5,10.1,9.8,6.7,10.4,12.1,14.3,5.1
72042600141,INDEPENDENCE MUNICIPAL AIRPORT KS US,37.15800,-95.77800,251.2,nan,nan,nan,nan,nan,14.9,12.7,16.0,7.0,18.5,19.8,10.5,18.6,16.4,14.5
72044999999,ASHLAND REGIONAL KY US,38.55450,-82.73800,166.4,nan,nan,nan,nan,nan,nan,nan,nan,nan,3.9,4.4,4.8,8.4,6.8,2.3
72047299999,STEVEN A BEAN MUNICIPAL ME US,44.99189,-70.66463,556.3,nan,nan,nan,nan,nan,nan,nan,nan,nan,nan,nan,nan,12.4,11.2,6.6
72048899999,SIKESTON MEM MUNICIPAL MO US,36.89889,-89.56175,96.0,nan,nan,nan,nan,nan,nan,nan,nan,nan,nan,14.5,8.7,11.0,9.5,5.0
72050799999,BESSEMER AIPORT AL US,33.31288,-86.92592,213.1,nan,nan,nan,nan,nan,nan,nan,nan,nan,nan,nan,9.0,11.7,11.4,11.0
72053100158,BLAKE FIELD AIRPORT CO US,38.78300,-108.06700,1583.1,nan,nan,nan,nan,nan,nan,nan,4.6,3.8,7.2,8.3,6.9,6.3,5.9,4.8
72054200166,LAGO VISTA RUSTY ALLEN AIRPORT TX US,30.50000,-97.96700,375.2,nan,nan,nan,nan,13.9,12.3,10.7,12.4,8.6,13.7,11.6,11.3,12.1,12.6,6.9
72056599999,HEBER CITY MUNICIPAL AIRPORT UT US,40.48181,-111.42881,1718.2,nan,nan,nan,nan,nan,2.3,4.8,4.1,nan,nan,nan,nan,5.5,3.1,2.0
72058600183,PLATTEVILLE MUNICIPAL AIRPORT WI US,42.68300,-90.45000,312.1,nan,nan,nan,nan,18.8,10.4,15.3,14.1,11.6,11.7,17.5,18.8,13.6,14.3,14.3
72060100193,AIKEN MUNICIPAL AIRPORT SC US,33.65000,-81.68300,161.2,nan,nan,nan,nan,8.4,8.6,nan,16.4,10.6,9.1,8.4,6.4,9.0,10.5,12.0
72061200203,BEAUFORT CO AIRPORT SC US,32.41210,-80.63430,38.1,nan,nan,nan,nan,9.8,12.2,10.3,16.7,13.0,10.2,6.6,8.1,12.4,13.9,15.6
72062700214,STIGLER REGIONAL AIRPORT OK US,35.28300,-95.10000,183.2,nan,nan,nan,nan,16.6,13.2,nan,12.1,9.9,12.9,15.1,9.5,nan,13.8,7.0
72063800224,BEND MUNICIPAL AIRPORT OR US,44.09500,-121.20000,1055.2,nan,nan,nan,nan,4.9,10.7,10.8,7.8,7.7,10.1,11.0,9.1,5.5,8.7,6.5
72065100232,UNION CO AIRPORT OH US,40.22500,-83.35200,311.2,nan,nan,nan,nan,12.8,11.8,12.1,18.7,17.5,10.7,13.9,12.9,12.9,10.4,5.8
72067400249,WEST GEORGIA REGIONAL AIRPORT O V GRAY FIELD GA US,33.63300,-85.15000,354.2,nan,nan,nan,nan,nan,11.1,9.1,10.7,8.2,5.5,9.4,4.3,8.7,7.0,6.9
72071400252,PAULDING NORTHWEST ATLANTA AIRPORT GA US,33.91200,-84.94100,393.2,nan,nan,nan,nan,nan,nan,nan,13.6,9.9,7.5,8.0,4.4,7.5,9.9,10.0
72073400264,NAMPA MUNICIPAL AIRPORT ID US,43.58100,-116.52300,773.3,nan,nan,nan,nan,nan,12.1,6.6,16.8,3.4,11.8,11.1,3.7,6.2,9.1,8.8
72074799999,ELK MOUNTAIN WY US,41.73333,-106.46667,2225.0,nan,nan,nan,nan,nan,nan,25.1,nan,nan,42.3,29.4,31.3,38.3,30.5,nan
72078199999,LYONS RICE CO MUNICIPAL KS US,38.34278,-98.22688,515.4,nan,nan,nan,nan,nan,nan,nan,nan,nan,nan,nan,nan,nan,18.7,15.5
72085800285,CANDO MUNICIPAL AIRPORT ND US,48.48000,-99.23600,450.2,nan,nan,nan,nan,nan,17.1,20.1,13.4,16.9,15.0,15.5,24.3,17.4,17.3,13.7
72087100296,MANDAN MUNICIPAL AIRPORT ND US,46.76800,-100.89400,593.1,nan,nan,nan,nan,nan,19.9,24.5,12.5,nan,16.0,13.3,27.0,17.7,18.6,15.0
72091200302,VIOSCA KNOLL 768 OIL PLATFORM AL US,29.23300,-87.78300,53.0,nan,nan,nan,nan,nan,nan,28.6,29.1,nan,28.6,28.5,20.6,26.2,35.1,37.1
72092700314,FLETCHER FIELD AIRPORT MS US,34.30000,-90.51200,53.0,nan,nan,nan,nan,nan,nan,12.7,15.4,4.5,13.0,nan,13.4,13.7,12.7,6.9
72094900329,CAMDENTON MEMORIAL AIRPORT MO US,37.97400,-92.69100,324.0,nan,nan,nan,nan,nan,nan,11.3,12.8,8.0,14.7,nan,11.6,9.9,13.2,9.6
72096400338,TYNDALL DRONE RUNWAY FL US,30.03300,-85.53300,5.2,nan,nan,nan,nan,nan,nan,nan,14.3,23.2,12.0,nan,9.5,11.1,nan,nan
72097999999,CHARLIE GERING NE US,41.58333,-103.66667,1371.0,nan,nan,nan,nan,nan,nan,nan,nan,nan,23.2,19.6,24.1,nan,nan,9.7
72099199999,MIKE HAXTUN CO US,40.70000,-103.48333,1336.2,nan,nan,nan,nan,nan,nan,nan,nan,nan,21.2,17.2,16.7,nan,19.4,9.6
72100299999,HOTEL FAIRFIELD MT US,47.70000,-111.95000,1178.7,nan,nan,nan,nan,nan,nan,nan,nan,22.8,16.7,15.4,24.9,9.9,13.3,15.2
72101399999,CHARLIE RUSO ND US,47.71445,-101.01004,598.6,nan,nan,nan,nan,nan,nan,nan,14.0,nan,15.3,14.8,29.4,19.6,19.2,11.0
72102699999,OSCAR ANTLER ND US,48.82463,-101.28250,466.3,nan,nan,nan,nan,nan,nan,nan,13.0,17.6,14.6,13.9,25.3,20.1,nan,11.3
72104399999,ATHENS MUNICIPAL TX US,32.16385,-95.82835,135.3,nan,nan,nan,nan,nan,nan,nan,7.5,6.2,10.3,11.1,10.1,9.8,10.7,2.8
72200812995,PORT ARANSAS MUSTANG BEACH AIRPORT TX US,27.81194,-97.08861,1.5,nan,18.8,16.8,19.2,17.4,16.8,nan,15.8,17.4,16.1,15.4,11.1,nan,18.4,10.3
72202612826,HOMESTEAD AFB FL US,25.48333,-80.38333,1.5,nan,13.6,7.8,16.2,13.7,12.3,10.6,12.1,15.4,10.2,16.8,15.3,7.4,15.8,16.5
72204012838,MELBOURNE INTERNATIONAL AIRPORT FL US,28.10110,-80.64390,8.2,nan,16.5,10.4,15.8,13.5,17.5,10.7,13.4,16.0,11.9,14.8,13.2,11.0,15.7,18.8
72205453959,WEST MEMPHIS MUNICIPAL AIRPORT AR US,35.13500,-90.23444,65.2,nan,12.5,11.0,19.0,16.1,13.8,7.8,13.3,11.0,12.8,18.3,14.1,14.3,13.6,8.1
72206953853,DESTIN FORT WALTON BEACH AIRPORT FL US,30.40000,-86.47167,6.7,nan,14.0,12.3,16.6,10.1,14.4,15.1,11.9,17.5,10.6,16.9,7.2,11.8,11.4,11.3
72208113730,FREDERICK MUNICIPAL AIRPORT MD US,39.41667,-77.38333,93.9,nan,8.5,6.8,10.2,8.2,14.0,6.4,14.6,10.1,5.0,6.2,6.9,9.0,9.3,2.0
72209653127,LAS VEGAS HENDERSON AIRPORT NV US,35.97611,-115.13250,749.2,nan,11.3,16.8,14.7,13.7,8.4,9.1,12.4,8.2,17.0,14.2,11.3,11.1,10.4,9.5
72210900355,CHEROKEE CO AIRPORT GA US,34.31700,-84.41700,372.2,nan,9.6,8.8,nan,7.5,7.9,7.2,10.8,6.5,7.6,5.8,5.0,8.7,8.6,6.6
72212203050,SNYDER WINSTON FIELD AIRPORT TX US,32.69333,-100.95056,740.7,nan,13.7,17.7,22.1,12.4,14.8,13.1,13.9,12.7,20.2,19.2,15.1,15.9,16.3,10.9
72213263801,CONCORD REGIONAL AIRPORT NC US,35.38963,-80.70735,214.9,nan,6.0,6.6,5.6,3.6,7.7,7.0,7.7,6.5,4.5,4.8,3.9,6.3,6.8,3.4
72214404945,MAPLE LAKE MUNICIPAL AIRPORT MN US,45.23583,-93.98556,313.3,nan,8.9,12.2,13.6,13.5,9.4,13.8,8.2,8.2,12.7,11.3,13.6,10.1,3.7,1.8
72215704949,MACOMB MUNICIPAL AIRPORT IL US,40.52028,-90.65222,215.5,nan,13.6,12.1,13.7,20.0,14.7,15.4,19.2,14.5,17.6,20.4,16.2,14.6,14.7,12.8
72217003813,MACON MIDDLE GA REGIONAL AIRPORT GA US,32.68470,-83.65270,104.5,nan,12.7,9.0,11.4,7.4,11.0,9.5,14.3,10.5,9.8,7.1,6.5,11.0,11.3,11.7
72218003820,AUGUSTA BUSH FIELD AIRPORT GA US,33.36440,-81.96330,40.2,nan,9.3,8.7,11.2,6.4,9.6,7.8,13.5,10.0,8.6,6.5,5.0,9.6,9.8,9.4
72219103721,BRUNSWICK CO AIRPORT NC US,33.92917,-78.07472,7.6,nan,12.3,12.0,11.6,9.0,9.6,10.4,14.1,11.2,9.4,7.4,7.4,10.0,10.9,10.3
72220103723,SANFORD LEE CO REGIONAL AIRPORT NC US,35.58222,-79.10111,75.3,nan,4.6,7.3,6.2,3.9,6.1,6.4,9.4,10.4,4.9,5.1,2.9,5.0,6.3,3.6
72221403070,DUMAS MOORE CO AIRPORT TX US,35.85806,-102.01306,1129.3,nan,14.3,24.2,23.3,21.2,16.5,15.8,20.4,14.9,22.0,27.2,22.1,19.0,17.6,18.5
72222693841,WHITING FIELD NAS FL US,30.71667,-87.01667,60.7,nan,9.5,9.1,16.8,9.8,12.7,13.6,13.6,15.3,10.1,17.5,7.4,10.0,11.3,8.8
72224754785,SOMERSET AIRPORT NJ US,40.62405,-74.66905,32.0,nan,5.5,7.9,5.7,9.7,16.6,5.6,11.2,6.1,5.2,4.0,4.1,7.2,6.9,2.2
72226100360,OKEECHOBEE CO AIRPORT FL US,27.26700,-80.85000,10.1,nan,nan,6.5,nan,9.3,12.7,6.3,9.5,10.3,8.7,8.3,7.7,5.0,8.8,11.6
72227953852,DECATUR PRYOR FIELD AL US,34.65250,-86.94528,180.4,nan,10.6,11.0,17.7,14.0,13.8,11.0,15.1,13.7,10.1,15.1,11.7,15.1,13.2,7.4
72231012916,NEW ORLEANS AIRPORT LA US,29.99691,-90.27751,1.2,nan,16.2,12.9,18.9,13.8,16.9,15.5,16.4,17.7,15.1,19.4,9.9,13.0,16.6,12.6
72232912936,PATTERSON LA US,29.71667,-91.33333,2.7,nan,13.5,nan,18.7,12.8,13.9,15.0,13.3,14.6,12.6,17.2,10.4,14.7,14.3,10.7
72234254931,TRACY MUNICIPAL AIRPORT MN US,44.24917,-95.60722,408.4,nan,12.2,18.9,17.8,nan,16.5,22.8,12.3,15.3,19.8,14.8,22.7,15.8,12.5,13.8
72235893919,MCCOMB AIRPORT MS US,31.18270,-90.47080,125.9,nan,10.7,8.7,14.9,9.5,11.6,11.0,10.8,10.9,9.3,15.7,9.1,11.9,13.7,9.4
72240312968,SALT POINT LA US,29.56222,-91.52556,1.2,nan,10.4,7.6,11.7,9.4,6.7,8.2,8.2,6.6,7.5,12.1,nan,8.1,nan,6.2
72243612906,HOUSTON ELLINGTON AFB TX US,29.61667,-95.16667,9.8,nan,13.0,12.4,18.0,12.2,15.2,12.2,12.6,9.7,11.9,15.8,10.3,14.9,14.0,6.6
72248453905,SHREVEPORT DOWNTOWN AIRPORT LA US,32.54278,-93.74500,54.6,nan,9.9,8.4,16.2,15.0,11.6,8.1,10.7,8.0,13.5,13.3,11.9,13.7,13.8,6.3
72250812957,PORT ISABEL CAMERON CO AIRPORT TX US,26.16583,-97.34583,5.8,nan,19.3,16.2,19.0,18.8,18.8,18.4,16.0,16.9,20.0,23.8,15.3,17.6,19.2,11.4
72252712976,ANGLETON LAKE JACKSON BRAZORIA CO AIRPORT TX US,29.10972,-95.46194,7.6,nan,13.7,12.1,20.3,0.0,13.2,11.8,12.6,11.4,14.7,19.6,12.6,15.7,13.5,7.6
72254312977,HOUSTON SUGARLAND MEM TX US,29.62194,-95.65667,25.6,nan,13.5,11.6,18.9,14.9,15.1,11.8,12.8,11.5,13.4,16.4,13.1,16.5,15.4,8.5
72257503972,KILLEEN MUNICIPAL AIRPORT TX US,31.08333,-97.68333,256.3,nan,11.9,13.4,19.7,15.4,13.7,13.2,13.4,9.2,16.8,14.4,13.9,14.7,14.2,6.8
72259513911,FORT WORTH NAS TX US,32.76667,-97.45000,185.3,nan,12.8,13.4,20.5,16.3,15.1,13.2,11.4,10.1,19.3,17.0,13.4,15.7,15.5,7.4
72263023034,SAN ANGELO MATHIS FIELD AIRPORT TX US,31.35160,-100.49500,584.0,nan,13.6,16.6,20.1,14.6,13.1,13.0,12.9,11.2,21.1,16.8,12.0,15.7,14.8,9.6
72267703027,CLINES CORNERS NM US,35.00278,-105.66278,2159.8,nan,22.9,27.0,34.1,23.7,19.7,29.2,24.8,20.9,30.0,34.5,31.3,33.0,26.3,22.9
72269393097,ALAMOGORDO WHITE SANDS REGIONAL AIRPORT NM US,32.83972,-105.99056,1280.2,nan,8.0,13.6,17.2,12.4,8.9,8.3,9.4,9.0,13.9,18.2,4.8,11.3,8.6,8.0
